     2.11           OBSERVATION DATA    M (MIXED)           RINEX VERSION / TYPE
teqc  2016Apr1                          20181217 15:52:29UTCPGM / RUN BY / DATE
Linux 2.4.20-8|Pentium IV|gcc -static|Linux|486/DX+         COMMENT
teqc  2016Apr1                          20181217 15:20:33UTCCOMMENT
teqc  2016Apr1                          20170829 22:08:47UTCCOMMENT
teqc  2009Mar23                         20160101 01:05:06UTCCOMMENT
BIT 2 OF LLI FLAGS DATA COLLECTED UNDER A/S CONDITION       COMMENT
ALGO CACS-GSD 883160 Algonquin Park ON Canada               MARKER NAME
40104M002                                                   MARKER NUMBER
OPERATOR            NRCan/GEODETIC SURVEY OF CANADA         OBSERVER / AGENCY
618-01882           TPS NET-G3A         3.5 Jul,15,2011 p2 nREC # / TYPE / VERS
303                 AOAD/M_T        NONE                    ANT # / TYPE
   918129.4000 -4346071.2000  4561977.8000                  APPROX POSITION XYZ
        0.1000        0.0000        0.0000                  ANTENNA: DELTA H/E/N
     1     1                                                WAVELENGTH FACT L1/2
     6    L1    L2    P1    P2    C1    C2                  # / TYPES OF OBSERV
    30.0000                                                 INTERVAL
    17                                                      LEAP SECONDS
RINEXED from Topcon TPS-binary: ken.macleod@nrcan.gc.ca     COMMENT
Forced Modulo Decimation to 30 seconds                      COMMENT
This data is subject to the Open Government Licence -Canada COMMENT
http://open.canada.ca/en/open-government-licence-canada     COMMENT
 SNR is mapped to RINEX snr flag value [0-9]                COMMENT
  L1 & L2: min(max(int(snr_dBHz/6), 0), 9)                  COMMENT
pseudorange smoothing corrections not applied               COMMENT
teqc edited: GLONASS # 1 - 24 excluded                      COMMENT
teqc edited: all Galileo satellites excluded                COMMENT
teqc edited: GLONASS # 1 - 24 excluded                      COMMENT
teqc edited: all Galileo satellites excluded                COMMENT
teqc edited: GLONASS # 1 - 24 excluded                      COMMENT
teqc edited: all Galileo satellites excluded                COMMENT
  2016     1     1     0     0    0.0000000     GPS         TIME OF FIRST OBS
                                                            END OF HEADER
 16  1  1  0  0  0.0000000  0  9G26G23G29G03G25G14G31G16G32
 107822588.64248  84017624.15548  20517935.558    20517935.370    20517936.222
  20517935.460
 121838627.51947  94939194.24345  23185118.082    23185113.904    23185119.400

 121850599.53447  94948527.59746  23187393.998    23187391.435    23187394.169
  23187392.653
 114740260.62848  89407999.32247  21834338.031    21834336.784    21834338.416
  21834337.267
 130077035.24446 101358733.64046  24752823.940    24752824.820    24752824.503
  24752824.527
 125162283.73247  97529068.24043  23817565.842    23817563.176    23817565.934

 110327711.88248  85969668.19647  20994644.805    20994641.256    20994645.212
  20994641.658
 114245503.91248  89022490.14146  21740172.644    21740169.352    21740173.438

 117386888.67048  91470314.87646  22337972.605    22337971.446    22337974.321

 16  1  1  0  0 30.0000000  0  9G26G23G29G03G25G14G31G16G32
 107785559.06549  83988769.93948  20510889.312    20510889.072    20510889.773
  20510888.871
 121743904.37447  94865383.95345  23167093.622    23167088.851    23167094.281

 121836394.78747  94937459.14546  23184691.459    23184689.046    23184691.558
  23184689.881
 114764317.23248  89426744.89647  21838915.378    21838913.972    21838915.637
  21838914.860
 130187503.72146 101444813.16846  24773845.078    24773846.661    24773846.363
  24773845.777
 125259132.41146  97604534.68043  23835995.340    23835993.526    23835996.285

 110380197.51248  86010566.02747  21004632.350    21004628.871    21004632.970
  21004629.219
 114150927.16448  88948794.01946  21722174.926    21722171.906    21722175.984

 117467717.56047  91533298.40346  22353354.039    22353352.699    22353354.993

 16  1  1  0  1  0.0000000  0  9G26G23G29G03G25G14G31G16G32
 107749070.97149  83960337.66648  20503945.506    20503945.622    20503946.213
  20503945.713
 121649323.57647  94791684.67545  23149095.010    23149090.977    23149095.671

 121822760.64747  94926835.18346  23182096.428    23182093.422    23182096.315
  23182094.761
 114788960.01048  89445947.28647  21843604.392    21843603.639    21843604.964
  21843604.283
 130298073.51346 101530971.68046  24794885.778    24794885.231    24794886.469
  24794885.677
 125356164.30746  97680143.86143  23854460.093    23854458.855    23854460.906

 110432914.63848  86051644.35547  21014664.350    21014660.683    21014664.891
  21014661.263
 114056738.41648  88875400.22246  21704251.570    21704248.519    21704251.914

 117548883.39848  91596544.48046  22368799.151    22368798.464    22368800.923

 16  1  1  0  1 30.0000000  0  9G26G23G29G03G25G14G31G16G32
 107713124.92148  83932327.76148  20497105.322    20497105.268    20497105.949
  20497105.520
 121554886.93847  94718097.79745  23131123.885    23131120.463    23131124.753

 121809698.02147  94916656.40546  23179610.254    23179608.544    23179611.194
  23179609.088
 114814187.61848  89465605.37947  21848404.820    21848403.745    21848405.152
  21848404.101
 130408741.87646 101617206.92345  24815944.999    24815945.287    24815945.898
  24815945.053
 125453378.59746  97755895.12143  23872960.065    23872958.033    23872961.229

 110485861.83948  86092901.94447  21024739.882    21024736.122    21024740.277
  21024736.618
 113962939.96848  88802310.55946  21686402.018    21686399.038    21686402.650

 117630383.65848  91660051.13646  22384308.325    22384307.334    22384309.977

 16  1  1  0  2  0.0000000  0  9G26G23G29G03G25G14G31G16G32
 107677721.50748  83904740.68848  20490368.119    20490368.153    20490368.706
  20490368.382
 121460596.29247  94644624.60445  23113181.468    23113177.418    23113181.858

 121797207.92147  94906923.64646  23177234.236    23177231.776    23177234.469
  23177232.584
 114839998.80348  89485718.14047  21853316.404    21853315.757    21853316.823
  21853316.316
 130519506.79545 101703517.45245  24837021.574    24837021.933    24837023.191
  24837020.840
 125550773.88746  97831787.45843  23891493.255    23891491.575    23891494.619

 110539038.52148  86134338.37847  21034859.014    21034855.341    21034859.541
  21034855.900
 113869534.25148  88729526.92446  21668627.754    21668624.554    21668628.153

 117712215.64548  91723816.28946  22399880.682    22399879.435    22399881.839

 16  1  1  0  2 30.0000000  0  9G26G23G29G03G25G14G31G16G32
 107642861.28349  83877576.87048  20483734.660    20483734.517    20483735.352
  20483734.766
 121366454.25847  94571267.34145  23095265.979    23095262.134    23095267.313

 121785291.73047  94897637.98946  23174966.563    23174965.205    23174967.436
  23174965.514
 114866392.41948  89506284.68947  21858339.287    21858338.720    21858339.552
  21858338.969
 130630365.33145 101789900.79545  24858118.518    24858117.650    24858117.283
  24858117.416
 125648348.91746  97907819.88743  23910061.471    23910058.375    23910062.386

 110592443.49448  86175952.67847  21045021.612    21045017.889    21045021.914
  21045018.232
 113776523.51048  88657051.06246  21650928.264    21650925.533    21650928.856

 117794376.75447  91787837.91046  22415515.323    22415514.117    22415516.622

 16  1  1  0  3  0.0000000  0  9G26G23G29G03G25G14G31G16G32
 107608544.77848  83850836.75048  20477204.541    20477204.269    20477204.924
  20477204.456
 121272462.40247  94498027.03545  23077380.494    23077376.576    23077381.321

 121773951.42847  94888801.53546  23172808.651    23172806.102    23172809.558
  23172806.060
 114893367.24448  89527304.10147  21863472.189    21863471.408    21863472.031
  21863471.860
 130741315.11045 101876355.01845  24879231.002    24879231.224    24879231.308
  24879232.139
 125746102.38646  97983991.28043  23928662.894    23928662.996    23928664.078

 110646075.61748  86217743.92747  21055227.697    21055224.142    21055228.311
  21055224.738
 113683910.06148  88584884.77846  21633304.562    21633301.648    21633305.457

 117876864.38048  91852113.96246  22431212.256    22431210.870    22431213.624

 16  1  1  0  3 30.0000000  0  9G26G23G29G03G25G14G31G16G32
 107574772.55048  83824520.73148  20470777.886    20470777.734    20470778.382
  20470777.898
 121178622.55248  94424905.15145  23059523.828    23059518.646    23059523.961

 121763187.03247  94880414.00646  23170760.987    23170758.577    23170761.602
  23170758.963
 114920922.15248  89548775.52747  21868715.663    21868714.674    21868716.011
  21868715.162
 130852354.49345 101962879.04945  24900361.630    24900362.020    24900363.619
  24900363.836
 125844033.12946  98060300.88943  23947299.674    23947297.905    23947299.482

 110699934.34748  86259711.70447  21065476.598    21065472.892    21065477.096
  21065473.115
 113591695.90548  88513029.62746  21615756.458    21615753.389    21615757.632

 117959675.96248  91916642.42946  22446970.739    22446969.449    22446972.511

 16  1  1  0  4  0.0000000  0  9G26G23G29G03G25G14G31G16G32
 107541545.03549  83798629.16648  20464454.703    20464454.741    20464455.308
  20464454.584
 121084936.90847  94351903.32845  23041696.268    23041690.855    23041696.566

 121752999.13947  94872475.59746  23168821.615    23168818.864    23168822.182
  23168818.897
 114949055.80548  89570697.90747  21874069.429    21874068.735    21874068.864
  21874069.176
 130963480.72145 102049470.81245  24921507.355    24921509.806    24921509.172
  24921510.165
 125942140.44246  98136748.01943  23965966.970    23965965.573    23965968.122

 110754018.51548  86301855.17747  21075768.365    21075764.809    21075768.975
  21075764.898
 113499883.28448  88441487.35246  21598285.380    21598282.244    21598286.544

 118042808.78048  91981421.22046  22462790.095    22462788.443    22462791.374

 16  1  1  0  4 30.0000000  0  9G26G23G29G03G25G14G31G16G32
 107508862.77248  83773162.46448  20458235.411    20458235.599    20458236.107
  20458235.588
 120991407.81448  94279023.49645  23023897.512    23023891.988    23023897.971

 121743388.54247  94864986.95846  23166993.393    23166989.421    23166993.253
  23166989.608
 114977766.96048  89593070.26447  21879532.491    21879531.734    21879533.138
  21879532.298
 131074691.63645 102136128.57145  24942669.970    24942673.186    24942670.412
  24942670.841
 126040422.29546  98213331.21343  23984670.472    23984670.005    23984671.441

 110808327.04048  86344173.50147  21086102.991    21086099.247    21086103.414
  21086099.651
 113408474.66848  88370259.89746  21580890.916    21580887.888    21580892.294

 118126260.18247  92046448.25646  22478670.550    22478669.283    22478672.026

 16  1  1  0  5  0.0000000  0  9G26G23G29G03G25G14G31G16G32
 107476726.16748  83748120.95648  20452120.075    20452120.104    20452120.755
  20452120.008
 120898037.12947  94206267.11245  23006129.515    23006125.743    23006130.405

 121734355.64847  94857948.41046  23165273.597    23165271.185    23165274.629
  23165271.066
 115007054.26948  89615891.56747  21885106.110    21885104.801    21885106.376
  21885105.525
 131185985.01245 102222850.64045  24963848.001    24963851.071    24963849.562
  24963851.339
 126138877.52846  98290049.45043  24003406.836    24003404.232    24003405.862

 110862859.10548  86386665.97047  21096479.947    21096476.386    21096480.386
  21096476.540
 113317472.02048  88299348.77446  21563573.670    21563570.520    21563574.754

 118210027.60147  92111721.54145  22494611.288    22494609.528    22494612.618

 16  1  1  0  5 30.0000000  0  9G26G23G29G03G25G14G31G16G32
 107445135.67748  83723504.97748  20446108.620    20446108.624    20446109.265
  20446108.836
 120804827.35048  94133636.21145  22988392.338    22988388.053    22988393.839

 121725901.45747  94851360.71246  23163665.002    23163662.135    23163665.737
  23163662.312
 115036916.38348  89639160.75247  21890788.783    21890787.381    21890788.611
  21890787.492
 131297358.17345 102309634.87545  24985042.989    24985045.011    24985046.026
  24985045.710
 126237505.04547  98366901.97343  24022174.691    24022173.021    24022175.431

 110917613.70748  86429331.76747  21106899.547    21106896.185    21106899.825
  21106896.519
 113226877.54948  88228755.70846  21546334.205    21546330.923    21546334.837

 118294108.32748  92177238.95445  22510610.809    22510609.539    22510612.528

 16  1  1  0  6  0.0000000  0  9G26G23G29G03G25G14G31G16G32
 107414091.67248  83699314.84348  20440201.118    20440201.158    20440201.747
  20440201.079
 120711779.95147  94061131.77945  22970686.127    22970681.349    22970687.433

 121718027.18347  94845224.97946  23162166.813    23162164.200    23162167.252
  23162164.633
 115067352.02148  89662876.82147  21896580.532    21896578.835    21896580.694
  21896579.481
 131408808.39745 102396479.02645  25006248.259    25006268.233    25006253.350
  25006255.517
 126336303.72946  98443887.83743  24040974.567    24040973.718    24040975.709

 110972590.58748  86472170.99547  21117361.308    21117357.634    21117361.711
  21117358.321
 113136693.84648  88158482.73346  21529172.521    21529169.874    21529173.471

 118378499.75347  92242998.47146  22526670.578    22526668.666    22526671.746

 16  1  1  0  6 30.0000000  0  9G26G23G29G03G25G14G31G16G32
 107383594.69049  83675550.95648  20434397.653    20434397.743    20434398.131
  20434397.664
 120618897.42847  93988755.91745  22953011.283    22953006.636    22953011.762

 121710733.37047  94839541.53946  23160778.634    23160775.935    23160779.255
  23160776.717
 115098359.73948  89687038.67647  21902480.971    21902479.717    21902480.704
  21902480.674
 131520334.48245                                                  25027476.781
  25027477.085
 126435272.11846  98521005.98043  24059808.237    24059806.479    24059810.213

 111027787.85448  86515181.82347  21127865.132    21127861.426    21127865.408
  21127861.503
 113046923.01548  88088531.48346  21512089.648    21512086.738    21512090.829

 118463199.13848  92308997.95845  22542788.228    22542786.846    22542789.766

 16  1  1  0  7  0.0000000  0  9G26G23G29G03G25G14G31G16G32
 107353645.02748  83652213.55848  20428698.338    20428698.554    20428699.065
  20428698.461
 120526181.68848  93916509.94945  22935367.656    22935363.226    22935368.678

 121704020.68247  94834310.93246  23159500.805    23159499.018    23159501.107
  23159498.789
 115129938.16748  89711645.23647  21908489.953    21908488.461    21908489.884
  21908489.428
 131631933.43744                                                  25048711.028
  25048714.699
 126534409.17346  98598255.52943  24078673.342    24078670.942    24078673.874

 111083204.46348  86558363.51947  21138410.402    21138406.646    21138410.829
  21138407.421
 112957566.55548  88018903.10046  21495085.580    21495082.525    21495086.958

 118548203.87648  92375235.38445  22558964.069    22558962.659    22558965.451

 16  1  1  0  7 30.0000000  0  8G26G23G29G03G14G31G16G32
 107324243.02748  83629302.89948  20423103.783    20423103.684    20423104.382
  20423103.584
 120433634.67848  93844395.38145  22917756.942    22917751.900    22917757.617

 121697889.84447  94829533.64746  23158333.926    23158331.422    23158334.633
  23158332.446
 115162085.93047  89736695.44347  21914607.436    21914606.597    21914607.594
  21914607.052
 126633713.32946  98675635.29243  24097570.052    24097568.168    24097570.946

 111138840.24148  86601716.08847  21148997.508    21148994.031    21148998.003
  21148994.377
 112868626.93648  87949599.53446  21478160.885    21478157.744    21478161.997

 118633511.26947  92441708.66145  22575197.871    22575196.584    22575198.877

 16  1  1  0  8  0.0000000  0  9G26G23G29G03G25G14G31G16G32
 107295389.02848  83606819.25148  20417612.785    20417612.807    20417613.605
  20417613.167
 120341258.85847  93772414.26145  22900178.102    22900173.726    22900179.163

 121692341.53447  94825210.27146  23157279.038    23157275.635    23157279.202
  23157276.434
 115194801.51948  89762188.11247  21920833.025    21920832.186    21920833.099
  21920832.701
 131855340.76544                                                  25091227.323
  25091228.278
 126733183.56046  98753144.50743  24116498.528    24116497.451    24116499.427

 111194694.37048  86645238.87847  21159626.126    21159622.640    21159626.655
  21159623.176
 112780106.49348  87880622.59346  21461316.073    21461313.040    21461317.150

 118719118.72747  92508415.73546  22591488.313    22591486.776    22591489.634

 16  1  1  0  8 30.0000000  0  9G26G23G29G03G25G14G31G16G32
 107267083.37649  83584762.89148  20412226.586    20412226.432    20412227.219
  20412226.627
 120249056.32547  93700568.18745  22882632.601    22882627.477    22882633.252

 121687376.44447  94821341.27846  23156333.443    23156331.327    23156334.045
  23156331.619
 115228083.43147  89788122.03647  21927166.343    21927165.389    21927166.462
  21927166.093
 131967145.14844                                                  25112505.210
  25112506.246
 126832818.60046  98830782.07943  24135458.734    24135458.199    24135458.731

 111250765.81448  86688931.00647  21170296.211    21170292.394    21170296.342
  21170292.717
 112692007.58448  87811974.12846  21444551.451    21444548.321    21444552.858

 118805023.32747  92575354.36646  22607835.649    22607833.832    22607836.544

 16  1  1  0  9  0.0000000  0  9G26G23G29G03G25G14G31G16G32
 107239326.36048  83563134.03448  20406944.626    20406944.583    20406945.371
  20406944.499
 120157029.18347  93628858.87445  22865120.340    22865115.861    22865120.650

 121682994.71747  94817926.72446  23155500.219    23155497.826    23155500.711
  23155498.838
 115261930.18948  89814496.11347  21933607.173    21933606.379    21933607.770
  21933606.589
 132079014.51244                                                  25133790.252
  25133795.023
 126932617.23346  98908547.13843  24154450.134    24154448.816    24154449.974

 111307053.10448  86732791.27147  21181007.384    21181003.535    21181007.577
  21181004.023
 112604331.84848  87743655.40746  21427867.042    21427864.109    21427868.362

 118891222.61247  92642522.60845  22624238.244    22624237.350    22624240.017

 16  1  1  0  9 30.0000000  0  9G26G23G29G03G25G14G31G16G32
 107212118.28248  83541932.93948  20401767.044    20401766.994    20401767.421
  20401767.124
 120065179.33947  93557287.59245  22847641.452    22847636.684    22847642.225

 121679197.04947  94814967.16446  23154777.769    23154774.697    23154778.051
  23154775.747
 115296340.33848  89841309.20047  21940155.302    21940154.395    21940155.429
  21940154.452
 132190944.87344                                                  25155093.768
  25155094.123
 127032577.64946  98986438.26043  24173472.683    24173470.059    24173473.545

 111363555.58748  86776819.16747  21191759.476    21191755.743    21191759.858
  21191755.946
 112517081.35948  87675668.08546  21411263.891    21411260.385    21411265.258

 118977713.89848  92709918.39345  22640697.273    22640696.289    22640698.700

 16  1  1  0 10  0.0000000  0  8G26G23G29G03G14G31G16G32
 107185459.30648  83521159.67548  20396693.962    20396693.814    20396694.596
  20396693.980
 119973508.81048  93485855.94345  22830197.348    22830192.673    22830198.106

 121675984.69447  94812463.81046  23154166.609    23154164.510    23154166.792
  23154165.072
 115331312.26647  89868560.03747  21946810.459    21946809.003    21946810.436
  21946809.304
 127132698.95846  99064454.78943  24192524.668    24192522.962    24192525.864

 111420272.40148  86821014.13147  21202552.134    21202548.315    21202552.586
  21202548.536
 112430258.08548  87608013.60546  21394741.818    21394738.797    21394743.091

 119064494.35047  92777539.49445  22657211.145    22657210.138    22657212.213

 16  1  1  0 10 30.0000000  0  8G26G23G29G03G14G31G16G32
 107159349.73548  83500814.53148  20391725.473    20391725.520    20391726.392
  20391725.450
 119882020.07947  93414565.97945  22812788.017    22812782.687    22812788.615

 121673358.20047  94810417.22346  23153666.815    23153663.914    23153666.559
  23153665.162
 115366844.39847  89896247.40647  21953572.146    21953570.617    21953572.237
  21953571.294
 127232979.70646  99142595.53043  24211606.578    24211605.262    24211608.726

 111477202.65548  86865375.33647  21213385.696    21213381.911    21213386.004
  21213382.409
 112343864.77448  87540694.21246  21378301.944    21378298.544    21378303.252

 119151561.26247  92845383.81945  22673779.339    22673778.225    22673780.864

 16  1  1  0 11  0.0000000  0  8G26G23G29G03G14G31G16G32
 107133789.77048  83480897.63448  20386861.541    20386861.586    20386861.931
  20386861.549
 119790715.26348  93343419.41845  22795412.946    22795408.421    22795413.995

 121671317.73247  94808827.31646  23153278.259    23153275.521    23153278.616
  23153276.503
 115402935.21348  89924370.10347  21960439.913    21960438.702    21960439.648
  21960439.224
 127333418.68046  99220859.62443  24230719.855    24230719.908    24230721.686

 111534345.46048  86909902.11247  21224259.884    21224255.992    21224259.953
  21224256.341
 112257903.20248  87473711.26246  21361943.934    21361940.587    21361944.704

 119238912.01047  92913449.30245  22690401.798    22690400.294    22690402.849

 16  1  1  0 11 30.0000000  0  8G26G23G29G03G14G31G16G32
 107108779.52748  83461409.05248  20382102.331    20382102.486    20382103.214
  20382102.487
 119699596.55248  93272417.95545  22778073.550    22778069.536    22778074.070

 121669863.80547  94807694.49246  23153000.881    23152999.484    23153001.782
  23152999.992
 115439583.05648  89952926.84447  21967413.560    21967412.284    21967414.108
  21967413.268
 127434014.49946  99299245.87743  24249862.335    24249861.979    24249863.569

 111591699.99748  86954593.89447  21235173.744    21235170.304    21235174.244
  21235170.523
 112172375.19448  87407066.11546  21345668.286    21345665.258    21345669.684

 119326543.88348  92981733.86545  22707077.372    22707075.968    22707078.388

 16  1  1  0 12  0.0000000  0  8G26G23G29G03G14G31G16G32
 107084318.85549  83442348.47848  20377447.925    20377448.036    20377448.608
  20377448.318
 119608665.97148  93201562.98245  22760770.099    22760766.054    22760771.143

 121668996.81447  94807019.08546  23152837.111    23152834.045    23152837.292
  23152835.192
 115476786.28247  89981916.36147  21974493.233    21974492.063    21974493.393
  21974492.219
 127534765.64646  99377753.17543  24269036.253    24269033.584    24269036.521

 111649265.05748  86999449.72647  21246128.183    21246124.523    21246128.669
  21246124.668
 112087282.79948  87340760.35146  21329475.882    21329472.746    21329477.071

 119414454.11847  93050235.32745  22723805.916    22723805.221    22723807.455

 16  1  1  0 12 30.0000000  0  8G26G23G29G03G14G31G16G32
 107060409.05748  83423717.52248  20372897.889    20372898.019    20372898.404
  20372898.188
 119517925.57648  93130856.16445  22743502.641    22743498.052    22743503.276

 121668717.01147  94806801.06346  23152783.104    23152781.298    23152783.105
  23152782.405
 115514543.27048  90011337.38247  21981677.997    21981677.203    21981678.324
  21981677.620
 127635671.22546  99456380.88243  24288236.451    24288236.614    24288238.192

 111707040.21048  87044469.30847  21257122.626    21257119.020    21257122.933
  21257119.740
 112002628.08548  87274795.63746  21313366.383    21313363.450    21313367.283

 119502640.01647  93118951.57145  22740587.447    22740586.130    22740589.363

 16  1  1  0 13  0.0000000  0  8G26G23G29G03G14G31G16G32
 107037049.28149  83405515.02048  20368452.733    20368452.921    20368453.416
  20368452.915
 119427377.68948  93060299.35045  22726271.894    22726267.948    22726272.657

 121669024.57847  94807040.67046  23152841.755    23152839.400    23152841.897
  23152839.734
 115552852.34448  90041188.57847  21988968.244    21988966.952    21988968.000
  21988967.517
 127736729.75646  99535127.65743  24307468.683    24307468.115    24307468.884

 111765024.40848  87089651.81847  21268156.487    21268152.833    21268156.776
  21268153.631
 111918413.01548  87209173.46546  21297341.028    21297337.767    21297342.174

 119591098.83447  93187880.50045  22757420.504    22757419.045    22757421.918

 16  1  1  0 13 30.0000000  0  8G26G23G29G03G14G31G16G32
 107014239.63448  83387741.05348  20364112.512    20364112.617    20364112.972
  20364112.607
 119337024.35847  92989894.10945  22709078.639    22709074.223    22709079.225

 121669920.33047  94807738.51946  23153012.282    23153010.218    23153012.470
  23153009.853
 115591711.76848  90071468.64447  21996362.779    21996361.536    21996362.839
  21996361.896
 127837939.79546  99613992.54643  24326727.518    24326727.094    24326728.453

 111823216.33348  87134996.04847  21279230.106    21279226.697    21279230.374
  21279227.180
 111834639.84148  87143895.64246  21281399.429    21281396.199    21281400.481

 119679827.76747  93257019.89945  22774305.036    22774303.437    22774306.590

 16  1  1  0 14  0.0000000  0  8G26G23G29G03G14G31G16G32
 106991980.71049  83370396.32148  20359876.859    20359877.011    20359877.647
  20359877.448
 119246868.31647  92919642.79345  22691922.090    22691917.511    22691923.022

 121671404.44847  94808894.85546  23153294.502    23153292.543    23153294.998
  23153292.027
 115631119.85648  90102176.23247  22003862.202    22003860.932    22003862.171
  22003861.445
 127939299.94046  99692974.40343  24346015.788    24346014.870    24346016.576

 111881615.94048  87180502.32747  21290343.360    21290339.473    21290343.723
  21290339.921
 111751310.86948  87078963.99646  21265542.293    21265539.488    21265543.553

 119768824.26047  93326367.79145  22791240.801    22791239.633    22791241.838

 16  1  1  0 14 30.0000000  0  8G26G23G29G03G14G31G16G32
 106970272.54148  83353480.84548  20355746.047    20355746.072    20355746.649
  20355746.266
 119156910.97048  92849546.03545  22674803.846    22674799.604    22674804.794

 121673477.52047  94810510.14446  23153690.218    23153687.528    23153689.913
  23153687.723
 115671074.84547  90133309.96647  22011464.897    22011464.137    22011464.958
  22011465.092
 128040808.94746  99772072.25043  24365333.233    24365331.958    24365333.716

 111940222.21948  87226169.73047  21301495.540    21301492.004    21301495.970
  21301492.668
 111668427.17348  87014379.33746  21249770.173    21249766.959    21249771.135

 119858085.38747  93395921.88945  22808226.457    22808224.848    22808227.523

 16  1  1  0 15  0.0000000  0  8G26G23G29G03G14G31G16G32
 106949114.91849  83336994.31348  20351719.754    20351720.008    20351720.242
  20351719.685
 119067155.02848  92779606.27345  22657724.060    22657719.038    22657725.425

 121676139.84947  94812584.62446  23154196.348    23154193.930    23154196.589
  23154194.749
 115711574.98548  90164868.50147  22019172.261    22019171.169    22019172.425
  22019171.624
 128142465.40746  99851284.98443  24384677.429    24384676.390    24384679.390

 111999033.65148  87271996.86247  21312686.910    21312683.308    21312687.359
  21312683.899
 111585991.30048  86950143.62546  21234083.039    21234080.020    21234084.233

 119947608.47047  93465680.10145  22825262.166    22825261.013    22825263.067

 16  1  1  0 15 30.0000000  0  8G26G23G29G03G14G31G16G32
 106928508.23249  83320937.21448  20347798.582    20347798.609    20347798.987
  20347799.221
 118977602.35148  92709824.80545  22640683.360    22640678.614    22640683.866

 121679391.35647  94815118.18846  23154814.519    23154813.435    23154815.409
  23154813.631
 115752618.49748  90196850.44347  22026982.329    22026981.392    22026982.651
  22026981.551
 128244268.07546  99930611.67043  24404049.621    24404049.344    24404051.009

 112058049.66648  87317983.39947  21323917.177    21323913.553    21323917.625
  21323913.893
 111504005.45348  86886258.58546  21218481.452    21218478.751    21218482.946

 120037390.89547  93535640.40545  22842346.763    22842345.482    22842348.709

 16  1  1  0 16  0.0000000  0  8G26G23G29G03G14G31G16G32
 106908452.04048  83305308.97948  20343981.901    20343982.139    20343982.500
  20343982.261
 118888255.75747  92640204.07045  22623681.367    22623676.212    22623681.628

 121683232.21147  94818110.93046  23155545.332    23155542.923    23155545.740
  23155543.417
 115794203.55548  90229254.36047  22034895.507    22034894.587    22034895.993
  22034894.912
 128346215.54946 100010051.20343  24423450.310    24423447.921    24423451.776

 112117269.47848  87364128.71447  21335186.422    21335182.664    21335187.056
  21335183.116
 111422470.61148  86822724.99546  21202965.999    21202962.956    21202966.972

 120127429.71647  93605800.50145  22859480.882    22859479.295    22859482.254

 16  1  1  0 16 30.0000000  0  8G26G23G29G03G14G31G16G32
 106888946.54449  83290109.86448  20340270.019    20340270.335    20340270.671
  20340270.179
 118799117.53748  92570745.94646  22606717.932    22606713.373    22606718.937

 121687664.10447  94821564.58946  23156389.188    23156386.629    23156389.872
  23156386.616
 115836328.33448  90262078.84147  22042911.907    22042910.875    22042912.130
  22042911.678
 128448306.58046 100089602.63843  24442878.278    24442874.519    24442877.993

 112176692.04048  87410431.95547  21346494.120    21346490.373    21346494.318
  21346490.711
 111341389.53748  86759544.96446  21187536.735    21187533.709    21187537.738

 120217722.37348  93676158.38845  22876663.247    22876661.802    22876664.566

 16  1  1  0 17  0.0000000  0  8G26G23G29G03G14G31G16G32
 106869991.94948  83275340.12448  20336663.199    20336663.247    20336663.448
  20336663.691
 118710189.37448  92501451.46946  22589795.537    22589790.811    22589796.541

 121692685.65247  94825477.55246  23157344.381    23157341.875    23157345.318
  23157342.631
 115878990.99748  90295322.45047  22051030.348    22051029.416    22051030.377
  22051029.636
 128550539.59646 100169264.64643  24462331.314    24462330.260    24462332.300

 112236316.49848  87456892.45747  21357840.497    21357836.659    21357840.772
  21357836.997
 111260763.88548  86696719.83046  21172194.179    21172191.019    21172195.275

 120308266.02547  93746711.84545  22893892.571    22893892.219    22893894.290

 16  1  1  0 17 30.0000000  0  8G26G23G29G03G14G31G16G32
 106851587.67148  83260999.06148  20333160.927    20333161.104    20333161.591
  20333161.041
 118621473.12748  92432321.97646  22572913.862    22572908.544    22572914.269

 121698296.86147  94829849.92546  23158412.040    23158409.713    23158412.577
  23158410.711
 115922189.70247  90328983.75447  22059250.575    22059250.343    22059251.008
  22059250.824
 128652913.68346 100249036.57943  24481812.135    24481811.062    24481813.435

 112296142.92848  87503510.54147  21369224.686    21369221.327    21369225.266
  21369221.578
 111180595.17748  86634250.75346  21156938.608    21156935.567    21156939.559

 120399057.83647  93817458.69245  22911170.214    22911169.277    22911171.471

 16  1  1  0 18  0.0000000  0  8G26G23G29G03G14G31G16G32
 106833734.00648  83247087.07348  20329763.426    20329763.684    20329764.138
  20329763.724
 118532971.51548  92363359.71746  22556071.572    22556067.474    22556072.595

 121704499.00947  94834682.75546  23159591.811    23159590.355    23159592.559
  23159590.413
 115965922.53248  90363061.26147  22067573.175    22067572.152    22067573.097
  22067572.771
 128755426.87646 100328916.97243  24501320.874    24501319.427    24501321.720

 112356169.50948  87550284.43547  21380647.570    21380644.064    21380648.233
  21380644.375
 111100885.76848  86572139.56946  21141770.466    21141767.527    21141771.864

 120490095.09647  93888396.79045  22928494.294    22928492.919    22928495.286

 16  1  1  0 18 30.0000000  0  8G26G23G29G03G14G31G16G32
 106816430.78748  83233603.98948  20326470.835    20326470.999    20326471.411
  20326471.280
 118444686.67448  92294566.35546  22539272.408    22539267.663    22539273.015

 121711291.58547  94839975.69646  23160885.602    23160882.429    23160886.528
  23160882.864
 116010187.58648  90397553.48247  22075996.305    22075995.388    22075996.620
  22075995.927
 128858077.98746 100408904.74843  24520854.662    24520854.188    24520855.856

 112416395.62848  87597213.90647  21392108.353    21392104.670    21392108.836
  21392105.227
 111021637.22748  86510387.50946  21126689.853    21126686.587    21126690.745

 120581375.09247  93959524.03345  22945863.815    22945862.956    22945865.846

 16  1  1  0 19  0.0000000  0  8G26G23G29G03G14G31G16G32
 106799678.03249  83220549.88948  20323282.937    20323283.150    20323283.487
  20323282.775
 118356620.72747  92225943.41846  22522513.399    22522509.282    22522514.453

 121718674.89047  94845729.02746  23162289.832    23162287.829    23162290.279
  23162287.805
 116054982.95548  90432458.95647  22084520.537    22084519.843    22084520.675
  22084520.283
 128960865.30646 100488998.72843  24540415.038    24540413.141    24540415.708

 112476820.51848  87644298.27947  21403606.726    21403602.859    21403606.762
  21403603.613
 110942851.56448  86448996.13246  21111697.348    21111694.441    21111698.695

 120672895.00447  94030838.21045  22963279.882    22963278.798    22963281.129

 16  1  1  0 19 30.0000000  0  8G26G23G29G03G14G31G16G32
 106783475.55748  83207924.57048  20320199.745    20320199.878    20320200.092
  20320200.285
 118268775.85148  92157492.53146  22505797.778    22505793.391    22505798.760

 121726648.84947  94851942.62646  23163807.020    23163804.632    23163807.559
  23163804.732
 116100306.65847  90467776.11147  22093145.451    22093144.696    22093145.507
  22093145.556
 129063788.10646 100569198.23443  24559998.828    24559999.538    24560000.706

 112537442.89348  87691536.39647  21415142.758    21415139.126    21415143.182
  21415139.286
 110864530.93948  86387967.15047  21096793.471    21096790.473    21096794.727

 120764652.09547  94102337.22745  22980740.684    22980739.315    22980742.272

 16  1  1  0 20  0.0000000  0  8G26G23G29G03G14G31G16G32
 106767823.09749  83195727.80748  20317221.150    20317221.560    20317222.018
  20317221.473
 118181154.57348  92089215.90646  22489124.404    22489119.602    22489125.064

 121735213.50547  94858616.46346  23165437.631    23165434.669    23165438.258
  23165435.010
 116146156.75348  90503503.43947  22101870.586    22101869.912    22101870.722
  22101870.370
 129166844.55646 100649501.91143  24579611.287    24579608.672    24579611.716

 112598262.52748  87738928.11547  21426716.683    21426712.857    21426717.012
  21426713.041
 110786676.54748  86327301.43346  21081978.190    21081975.176    21081979.426

 120856643.63447  94174018.92045  22998245.811    22998244.878    22998247.538

 16  1  1  0 20 30.0000000  0  8G26G23G29G03G14G31G16G32
 106752720.67848  83183959.67548  20314347.298    20314347.543    20314347.973
  20314347.485
 118093760.48948  92021116.99046  22472493.164    22472488.662    22472494.102

 121744368.91947  94865750.52346  23167179.356    23167177.449    23167179.630
  23167177.952
 116192531.27448  90539639.42347  22110695.039    22110694.851    22110695.335
  22110695.150
 129270033.32446 100729908.70443  24599247.832    24599245.856    24599247.529

 112659278.44748  87786472.97347  21438327.506    21438323.976    21438327.971
  21438324.209
 110709290.63848  86267000.76647  21067252.356    21067248.993    21067253.540

 120948866.81847  94245881.11145  23015795.322    23015794.927    23015796.875

 16  1  1  0 21  0.0000000  0  8G26G23G29G03G14G31G16G32
 106738167.97748  83172619.88048  20311577.911    20311578.306    20311578.616
  20311578.418
 118006594.99348  91953196.49046  22455906.119    22455901.206    22455906.854

 121754114.81747  94873344.69046  23169033.733    23169031.649    23169034.284
  23169031.981
 116239428.13847  90576182.41347  22119619.203    22119618.503    22119619.667
  22119619.017
 129373353.17646 100810417.59643  24618909.631    24618906.657    24618909.109

 112720490.42148  87834170.77647  21449975.686    21449971.930    21449976.081
  21449972.352
 110632374.98748  86207066.52047  21052615.768    21052612.512    21052616.394

 121041318.83747  94317921.61445  23033388.634    23033387.489    23033389.851

 16  1  1  0 21 30.0000000  0  8G26G23G29G03G14G31G16G32
 106724164.97448  83161708.48948  20308913.174    20308913.519    20308913.663
  20308913.500
 117919659.16748  91885454.50846  22439362.223    22439357.479    22439363.139

 121764451.28347  94881399.02146  23171001.051    23170999.258    23171001.248
  23170999.879
 116286845.35048  90613130.87147  22128642.407    22128641.864    22128642.543
  22128641.754
 129476802.53646 100891027.42442  24638594.238    24638593.828    24638594.819

 112781896.75748  87882020.04047  21461660.984    21461657.185    21461661.443
  21461657.793
 110555930.73048  86147499.60846  21038068.695    21038065.409    21038069.768

 121133996.87747  94390138.23345  23051024.893    23051023.530    23051025.744

 16  1  1  0 22  0.0000000  0  8G26G23G29G03G14G31G16G32
 106710711.00948  83151224.75648  20306353.220    20306353.408    20306353.781
  20306353.755
 117832955.47448  91817893.22646  22422863.102    22422858.579    22422864.166

 121775378.97647  94889914.10546  23173080.999    23173077.751    23173081.009
  23173079.449
 116334780.91348  90650483.25447  22137764.323    22137763.635    22137764.611
  22137764.204
 129580379.79346 100971736.90842  24658303.749    24658302.567    24658304.303

 112843496.74448  87930020.02047  21473382.959    21473379.338    21473383.551
  21473379.641
 110479959.89348  86088301.58947  21023611.886    21023608.784    21023613.069

 121226898.22347  94462528.85345  23068703.685    23068702.383    23068704.951

 16  1  1  0 22 30.0000000  0  8G26G23G29G03G14G31G16G32
 106697806.46348  83141169.29548  20303897.527    20303897.869    20303898.146
  20303898.074
 117746486.84748  91750515.14046  22406408.582    22406403.925    22406409.515

 121786897.05947  94898889.24446  23175272.560    23175269.612    23175273.009
  23175270.305
 116383232.64547  90688237.81847  22146984.589    22146983.636    22146984.665
  22146984.287
 129684083.78546 101052545.11942  24678038.212    24678036.702    24678040.976

 112905289.97648  87978170.48647  21485141.796    21485138.291    21485142.265
  21485138.653
 110404464.37448  86029473.92647  21009245.560    21009242.443    21009246.538

 121320020.11247  94535091.32245  23086423.680    23086422.610    23086425.174

 16  1  1  0 23  0.0000000  0  8G26G23G29G03G14G31G16G32
 106685450.72148  83131541.46748  20301546.193    20301546.656    20301547.100
  20301546.494
 117660254.97048  91683321.44946  22389999.456    22389994.453    22390000.127

 121799005.66447  94908324.48146  23177576.828    23177574.180    23177576.871
  23177574.310
 116432198.58248  90726393.07447  22156302.458    22156301.639    22156302.828
  22156302.221
 129787913.19446 101133451.02142  24697796.551    24697795.193    24697798.575

 112967275.29648  88026470.74347  21496937.189    21496933.562    21496937.567
  21496933.837
 110329446.02548  85971018.08047  20994970.067    20994966.846    20994971.363

 121413359.77747  94607823.48945  23104185.427    23104184.633    23104186.895

 16  1  1  0 23 30.0000000  0  8G26G23G29G03G14G31G16G32
 106673643.47149  83122340.98448  20299299.397    20299299.832    20299300.125
  20299299.797
 117574262.82948  91616314.49846  22373635.707    22373631.151    22373636.562

 121811704.62947  94918219.76046  23179993.394    23179990.122    23179994.014
  23179990.672
 116481676.55047  90764947.30947  22165717.991    22165716.986    22165718.255
  22165717.031
 129891866.56146 101214453.54142  24717578.626    24717577.964    24717578.049

 113029451.86648  88074919.99347  21508769.026    21508765.387    21508769.256
  21508765.952
 110254906.85448  85912935.62847  20980785.729    20980782.556    20980787.438

 121506914.29747  94680723.08445  23121988.021    23121987.674    23121989.773

 16  1  1  0 24  0.0000000  0  8G26G23G29G03G14G31G16G32
 106662384.63848  83113567.90448  20297156.927    20297157.247    20297157.513
  20297157.113
 117488512.56548  91549496.09146  22357318.203    22357313.127    22357319.014

 121824993.97547  94928575.04146  23182521.870    23182519.577    23182522.388
  23182519.216
 116531664.45448  90803898.90047  22175230.489    22175229.297    22175230.701
  22175229.627
 129995942.32746 101295551.41643  24737384.159    24737382.279    24737383.979

 113091818.84648  88123517.48147  21520637.235    21520633.645    21520637.551
  21520633.499
 110180848.21248  85855227.61047  20966692.832    20966689.674    20966693.429

 121600681.02347  94753788.03745  23139832.436    23139830.588    23139833.545

 16  1  1  0 24 30.0000000  0  8G26G23G29G03G14G31G16G32
 106651673.91048  83105222.02148  20295118.604    20295118.876    20295119.194
  20295119.010
 117403006.24948  91482867.73346  22341046.420    22341041.889    22341047.210

 121838873.27047  94939390.07846  23185163.114    23185160.271    23185163.372
  23185160.143
 116582160.18247  90843246.20647  22184839.562    22184838.757    22184839.541
  22184839.249
 130100139.07446 101376743.54743  24757212.191    24757210.723    24757212.427

 113154374.88848  88172261.87347  21532541.641    21532538.092    21532542.231
  21532538.258
 110107271.22948  85797894.89847  20952691.612    20952688.331    20952692.497

 121694657.14047  94827016.15245  23157715.113    23157713.174    23157716.447

 16  1  1  0 25  0.0000000  0  8G26G23G29G03G14G31G16G32
 106641510.52348  83097302.48748  20293184.717    20293184.949    20293185.300
  20293184.887
 117317746.34848  91416431.36546  22324822.353    22324817.174    22324822.892

 121853342.39047  94950664.71646  23187916.733    23187914.677    23187917.252
  23187914.567
 116633161.53647  90882987.50047  22194544.767    22194543.855    22194544.669
  22194544.149
 130204455.32746 101458028.82343  24777061.887    24777061.239    24777063.996

 113217120.25248  88221153.91447  21544482.051    21544478.417    21544482.217
  21544478.921
 110034178.16848  85740939.27647  20938782.302    20938779.113    20938783.757

 121788839.84647  94900405.24845  23175637.832    23175635.784    23175639.018

 16  1  1  0 25 30.0000000  0  8G26G23G29G03G14G31G16G32
 106631894.28648  83089809.24148  20291354.938    20291355.047    20291355.638
  20291355.235
 117232735.96548  91350189.66846  22308644.964    22308640.144    22308645.587

 121868401.07747  94962398.81546  23190781.768    23190779.584    23190782.973
  23190778.912
 116684666.34248  90923121.09547  22204345.798    22204345.194    22204346.352
  22204345.533
 130308889.73546 101539406.14043  24796936.016    24796935.582    24796937.721

 113280055.06348  88270194.19647  21556457.971    21556454.469    21556458.238
  21556454.518
 109961570.45548  85684361.85347  20924965.773    20924962.375    20924966.879

 121883226.38047  94973953.16545  23193598.636    23193597.221    23193600.082

 16  1  1  0 26  0.0000000  0  8G26G23G29G03G14G31G16G32
 106622824.95249  83082742.17048  20289628.974    20289629.226    20289629.592
  20289629.354
 117147976.25648  91284143.25746  22292515.407    22292511.067    22292516.692

 121884049.01647  94974591.97946  23193759.542    23193757.326    23193759.946
  23193757.775
 116736672.42947  90963645.30147  22214242.430    22214241.478    22214242.444
  22214242.060
 130413440.99946 101620874.53743  24816832.251    24816830.044    24816833.403

 113343177.66248  88319380.78247  21568469.762    21568466.351    21568470.134
  21568467.083
 109889450.16648  85628164.22947  20911241.630    20911238.358    20911242.693

 121977813.94147  95047657.73745  23211598.476    23211597.109    23211599.735

 16  1  1  0 26 30.0000000  0  8G26G23G29G03G14G31G16G32
 106614302.06048  83076100.86248  20288007.332    20288007.450    20288007.994
  20288007.488
 117063469.69648  91218293.95046  22276434.985    22276429.878    22276435.654

 121900286.25647  94987244.43046  23196849.655    23196846.473    23196849.998
  23196847.612
 116789177.60147  91004558.42147  22224233.359    22224232.862    22224233.848
  22224233.854
 130518107.42246 101702432.63843  24836749.245    24836748.744    24836750.134

 113406486.64448  88368712.50247  21580516.749    21580513.609    21580517.212
  21580514.600
 109817818.20948  85572347.13247  20897610.527    20897607.258    20897611.566

 122072599.65947  95121516.69645  23229635.375    23229634.223    23229636.364

 16  1  1  0 27  0.0000000  0  8G26G23G29G03G14G31G16G32
 106606325.39349  83069885.26348  20286489.408    20286489.474    20286490.014
  20286489.596
 116979218.55748  91152643.62146  22260402.215    22260397.876    22260403.199

 121917111.84547  95000355.22346  23200051.343    23200048.798    23200051.882
  23200049.622
 116842179.57547  91045858.65547  22234319.334    22234318.600    22234319.570
  22234319.316
 130622887.36846 101784079.19543  24856687.277    24856686.880    24856687.199

 113469982.06748  88418189.70747  21592599.465    21592596.181    21592600.226
  21592596.841
 109746676.50948  85516912.04747  20884072.831    20884069.553    20884074.028

 122167580.80047  95195527.93945  23247709.054    23247708.831    23247710.143

 16  1  1  0 27 30.0000000  0  8G26G23G29G03G14G31G16G32
 106598894.40148  83064094.86948  20285075.410    20285075.621    20285075.716
  20285076.004
 116895225.46448  91087194.44246  22244418.732    22244414.527    22244419.461

 121934525.61947  95013924.34646  23203364.857    23203362.555    23203365.609
  23203363.262
 116895676.09547  91087544.23847  22244499.494    22244498.616    22244499.452
  22244499.111
 130727780.01446 101865813.56443  24876649.520    24876648.468    24876649.539

 113533662.24648  88467810.73947  21604717.463    21604713.718    21604717.852
  21604714.310
 109676027.07748  85461860.55047  20870628.609    20870625.060    20870629.802

 122262754.61647  95269689.30445  23265819.935    23265819.302    23265821.397

 16  1  1  0 28  0.0000000  0  8G26G23G29G03G14G31G16G32
 106592008.56648  83058729.26248  20283764.958    20283765.295    20283765.648
  20283765.060
 116811492.74248  91021948.14946  22228485.032    22228480.557    22228485.717

 121952527.74847  95027952.02546  23206790.641    23206788.602    23206790.920
  23206788.771
 116949664.96047  91129613.48147  22254772.953    22254772.613    22254773.177
  22254773.229
 130832783.43746 101947634.26942  24896630.293    24896628.781    24896630.953

 113597526.77448  88517575.32847  21616870.485    21616866.859    21616870.933
  21616867.269
 109605870.63348  85407193.19747  20857278.265    20857274.745    20857279.588

 122358118.23547  95343998.57045  23283966.892    23283966.562    23283968.354

 16  1  1  0 28 30.0000000  0  9G09G26G23G29G03G14G31G16G32
 131766232.71845                                                  25074281.990
  25074283.226
 106585667.32948  83053787.95448  20282558.361    20282558.631    20282558.824
  20282558.949
 116728022.40648  90956906.25046  22212601.703    22212597.015    22212602.265

 121971117.73447  95042437.71846  23210328.103    23210326.386    23210329.331
  23210326.351
 117004143.82148  91172064.52947  22265139.979    22265139.277    22265140.139
  22265140.121
 130937896.30746 102029540.24042  24916631.385    24916632.278    24916633.878

 113661574.88348  88567482.91247  21629058.464    21629054.684    21629058.675
  21629055.096
 109536209.04948  85352911.43347  20844021.938    20844018.676    20844023.054

 122453668.87547  95418453.57245  23302149.695    23302149.226    23302150.856

 16  1  1  0 29  0.0000000  0  9G09G26G23G29G03G14G31G16G32
 131659104.19645                                                  25053893.709
  25053895.144
 106579870.37649  83049270.77648  20281455.219    20281455.628    20281455.856
  20281455.783
 116644817.12048  90892070.93246  22196767.922    22196763.360    22196768.608

 121990295.03147  95057381.05746  23213977.172    23213974.863    23213977.789
  23213975.835
 117059110.39547  91214895.59747  22275599.885    22275599.202    22275600.034
  22275599.485
 131043117.23846 102111530.46842  24936656.428    24936654.015    24936655.675

 113725805.93948  88617532.94747  21641281.292    21641277.910    21641281.867
  21641278.411
 109467043.88448  85299016.50647  20830860.246    20830856.738    20830861.062

 122549403.81447  95493052.20145  23320368.026    23320366.790    23320369.673

 16  1  1  0 29 30.0000000  0  9G09G26G23G29G03G14G31G16G32
 131552012.74545                                                  25033515.071
  25033512.908
 106574617.51348  83045177.72648  20280455.599    20280455.973    20280456.370
  20280455.988
 116561879.23448  90827444.01846  22180985.371    22180981.035    22180986.263

 122010059.31747  95072781.82946  23217738.933    23217736.896    23217739.520
  23217737.486
 117114562.39848  91258104.91647  22286152.215    22286151.628    22286152.256
  22286151.719
 131148444.34945 102193603.41941  24956698.170    24956699.565    24956699.350

 113790219.17148  88667724.97047  21653538.783    21653535.347    21653539.375
  21653535.659
 109398376.78048  85245509.66547  20817793.309    20817789.926    20817794.270

 122645320.14347  95567792.14845  23338619.836    23338619.215    23338621.506

 16  1  1  0 30  0.0000000  0  9G09G26G23G29G03G14G31G16G32
 131444959.87646                                                  25013144.295
  25013143.935
 106569907.96548  83041508.12248  20279559.130    20279559.577    20279559.974
  20279559.597
 116479211.04448  90763027.17446  22165254.164    22165249.793    22165255.195

 122030409.66647  95088639.23346  23221611.330    23221608.405    23221611.515
  23221608.803
 117170497.45248  91301690.65347  22296796.233    22296795.210    22296796.075
  22296796.056
 131253876.64545 102275758.32041  24976761.185    24976761.279    24976761.669

 113854813.92648  88718058.43847  21665830.783    21665827.426    21665831.375
  21665827.901
 109330209.53448  85192392.33947  20804821.358    20804818.323    20804822.303

 122741415.13847  95642671.33645  23356907.097    23356905.454    23356907.836

 16  1  1  0 30 30.0000000  0  9G09G26G23G29G03G14G31G16G32
 131337947.94446                                                  24992780.358
  24992780.663
 106565740.90348  83038261.14148  20278766.245    20278766.489    20278766.636
  20278766.691
 116396814.95748  90698822.45546  22149574.679    22149570.165    22149575.905

 122051345.29447  95104952.72946  23225595.009    23225593.066    23225596.012
  23225593.822
 117226913.24847  91345651.00347  22307531.581    22307531.050    22307532.276
  22307531.406
 131359412.61345 102357993.9754   24996843.609    24996846.818    24996844.625

 113919589.08348  88768532.42247  21678157.052    21678154.038    21678157.376
  21678154.411
 109262543.02248  85139665.17447  20791945.037    20791941.810    20791946.188

 122837686.06747  95717687.60745  23375226.664    23375225.521    23375228.115

 16  1  1  0 31  0.0000000  0  9G09G26G23G29G03G14G31G16G32
 131230978.72646 102257906.26545  24972425.316    24972424.522    24972423.928
  24972424.878
 106562115.77448  83035436.35648  20278076.329    20278076.619    20278077.010
  20278076.561
 116314693.04048  90634831.35146  22133947.405    22133942.910    22133948.393

 122072866.63747  95121722.65446  23229690.281    23229688.449    23229690.855
  23229688.984
 117283807.39847  91389984.09247  22318358.119    22318357.328    22318358.381
  22318357.869
 131465050.72045 102440309.2334   25016946.759    25016945.701    25016944.708

 113984544.41748  88819146.91447  21690517.890    21690514.675    21690518.447
  21690515.006
 109195379.02548  85087329.59147  20779164.125    20779160.972    20779165.152

 122934130.04847  95792838.71245  23393578.756    23393578.001    23393580.354

 16  1  1  0 31 30.0000000  0  8G09G26G23G29G03G31G16G32
 131124053.77745 102174587.90545  24952076.036    24952078.115    24952076.564
  24952078.181
 106559032.09349  83033033.42748  20277489.630    20277489.910    20277490.318
  20277489.961
 116232847.69348  90571055.75646  22118372.800    22118368.443    22118373.418

 122094973.42147  95138948.71346  23233897.071    23233894.732    23233897.727
  23233895.229
 117341177.51247  91434688.04947  22329275.440    22329274.674    22329275.350
  22329275.188
 114049679.40548  88869901.48247  21702912.427    21702909.163    21702912.944
  21702909.242
 109128718.98748  85035386.69347  20766479.251    20766476.162    20766480.400

 123030744.19147  95868122.39845  23411963.655    23411963.131    23411965.504

 16  1  1  0 32  0.0000000  0  8G09G26G23G29G03G31G16G32
 131017175.99146 102091306.49945  24931737.554    24931739.644    24931739.024
  24931740.298
 106556489.30949  83031051.96448  20277005.760    20277006.043    20277006.457
  20277005.972
 116151281.28948  90507497.36846  22102851.468    22102846.893    22102852.302

 122117664.10246  95156629.71746  23238214.856    23238212.856    23238215.582
  23238213.855
 117399021.23847  91479761.05747  22340282.735    22340282.004    22340282.738
  22340282.244
 114114992.85448  88920795.14247  21715341.250    21715337.955    21715341.532
  21715338.353
 109062564.00748  84983837.37247  20753890.407    20753887.277    20753891.921

 123127525.86547  95943536.63945  23430381.030    23430380.045    23430382.565

 16  1  1  0 32 30.0000000  0  8G09G26G23G29G03G31G16G32
 130910346.94346 102008063.12845  24911408.689    24911409.073    24911411.544
  24911409.628
 106554486.81249  83029491.49848  20276624.822    20276625.139    20276625.466
  20276625.089
 116069996.65548  90444158.74446  22087383.278    22087378.758    22087384.121

 122140938.80547  95174765.89246  23242644.875    23242641.788    23242645.074
  23242642.240
 117457336.11947  91525201.19447  22351379.879    22351379.018    22351380.300
  22351379.649
 114180483.92348  88971827.16947  21727803.743    21727800.252    21727803.893
  21727800.909
 108996915.76148  84932682.91247  20741397.845    20741394.685    20741399.219

 123224472.25047  96019079.23845  23448830.498    23448829.153    23448830.671

 16  1  1  0 33  0.0000000  0  8G09G26G23G29G03G31G16G32
 130803568.10746 101924858.91645  24891090.099    24891089.645    24891090.858
  24891089.045
 106553024.04449  83028351.63248  20276346.486    20276346.740    20276347.036
  20276346.888
 115988995.57048  90381041.00046  22071969.324    22071964.972    22071969.950

 122164796.36047  95193356.16346  23247183.231    23247181.621    23247184.184
  23247182.096
 117516119.72047  91571006.56647  22362566.193    22362565.145    22362566.423
  22362565.609
 114246152.06648  89022997.20247  21740299.889    21740296.591    21740300.527
  21740296.455
 108931775.62448  84881924.36947  20729002.174    20728998.906    20729003.618

 123321580.47147  96094747.93744  23467308.727    23467307.636    23467310.080

 16  1  1  0 33 30.0000000  0  8G09G26G23G29G03G31G16G32
 130696841.05646 101841694.78445  24870780.827    24870781.977    24870782.059
  24870780.832
 106552100.27048  83027631.74548  20276170.858    20276171.058    20276171.339
  20276171.341
 115908280.81148  90318146.53146  22056609.894    22056605.349    22056610.824

 122189236.47447  95212400.46646  23251835.076    23251832.650    23251835.100
  23251832.824
 117575369.63848  91617175.31147  22373840.970    22373839.859    22373840.970
  22373840.580
 114311996.50248  89074304.55547  21752829.664    21752826.677    21752829.801
  21752827.316
 108867144.81448  84831562.69447  20716703.406    20716700.013    20716704.642

 123418847.82847  96170540.62345  23485817.560    23485816.841    23485819.735

 16  1  1  0 34  0.0000000  0  8G09G26G23G29G03G31G16G32
 130590168.59145 101758573.24246  24850481.005    24850482.905    24850482.107
  24850483.264
 106551714.97749  83027331.51648  20276097.507    20276097.808    20276098.087
  20276098.060
 115827854.58248  90255476.92646  22041305.032    22041300.520    22041305.832

 122214258.20447  95231897.86746  23256596.289    23256593.663    23256596.525
  23256594.997
 117635083.39047  91663705.50847  22385204.218    22385202.807    22385204.424
  22385202.974
 114378016.62148  89125748.84847  21765392.890    21765389.520    21765393.254
  21765390.115
 108803024.91148  84781599.10747  20704501.754    20704498.420    20704503.190

 123516271.45247  96246455.08244  23504356.774    23504356.597    23504357.952

 16  1  1  0 34 30.0000000  0  8G09G26G23G29G03G31G16G32
 130483552.37546 101675495.54445  24830192.880    24830194.176    24830193.519
  24830193.968
 106551867.52349  83027450.46748  20276126.408    20276126.841    20276126.961
  20276126.999
 115747718.78548  90193033.49546  22026055.836    22026051.219    22026056.648

 122239860.68947  95251847.92846  23261469.005    23261465.690    23261469.361
  23261465.626
 117695258.47547  91710595.16647  22396655.244    22396654.092    22396655.317
  22396654.297
 114444211.57648  89177329.26747  21777989.387    21777986.144    21777989.819
  21777986.263
 108739417.14048  84732034.59947  20692397.580    20692394.361    20692398.964

 123613848.55847  96322489.14344  23522924.404    23522923.489    23522926.500

 16  1  1  0 35  0.0000000  0  8G09G26G23G29G03G31G16G32
 130376994.86246 101592463.86846  24809914.538    24809916.774    24809916.461
  24809918.339
 106552556.87348  83027987.64848  20276257.521    20276257.862    20276258.175
  20276257.873
 115667876.11848  90130818.45146  22010861.931    22010857.506    22010862.785

 122266043.61547  95272250.15546  23266451.080    23266447.980    23266451.312
  23266448.631
 117755892.47947  91757842.41947  22408193.194    22408192.094    22408193.695
  22408192.597
 114510580.91948  89229045.66847  21790619.306    21790615.693    21790619.662
  21790615.883
 108676322.76248  84682870.12347  20680391.185    20680387.844    20680392.381

 123711576.36247  96398640.61544  23541522.173    23541521.216    23541523.573

 16  1  1  0 35 30.0000000  0  8G09G26G23G29G03G31G16G32
 130270496.49046 101509477.73646  24789649.228    24789651.814    24789650.575
  24789651.428
 106553782.34949  83028942.52448  20276490.738    20276491.089    20276491.514
  20276491.155
 115588329.00948  90068833.63246  21995724.884    21995720.215    21995724.990

 122292806.23147  95293104.01146  23271544.008    23271541.828    23271544.114
  23271542.427
 117816982.79547  91805445.23547  22419818.348    22419817.577    22419818.181
  22419817.888
 114577123.51648  89280896.99347  21803282.070    21803278.466    21803282.689
  21803279.383
 108613743.55548  84634107.09647  20668482.707    20668479.411    20668483.786

 123809452.09947  96474907.36844  23560148.316    23560147.080    23560149.129

 16  1  1  0 36  0.0000000  0  8G09G26G23G29G03G31G16G32
 130164060.74446 101426540.73746  24769396.566    24769397.034    24769396.933
  24769395.729
 106555543.25448  83030314.58748  20276825.890    20276826.258    20276826.489
  20276826.362
 115509079.98248  90007081.16246  21980644.164    21980639.755    21980645.026

 122320147.77447  95314408.91546  23276746.867    23276744.129    23276746.844
  23276744.543
 117878526.99947  91853401.73747  22431530.048    22431529.236    22431530.269
  22431529.655
 114643839.03948  89332883.01847  21815977.596    21815974.013    21815978.000
  21815974.576
 108551680.04248  84585745.89847  20656672.558    20656669.180    20656673.983

 123907472.93347  96551287.17944  23578800.950    23578799.512    23578802.170

 16  1  1  0 36 30.0000000  0  8G09G26G23G29G03G31G16G32
 130057683.65446                                                  24749156.971
  24749156.532
 106557838.75048  83032103.15448  20277262.957    20277263.279    20277263.403
  20277263.384
 115430131.06948  89945562.54446  21965620.816    21965616.072    21965621.561

 122348067.81847  95336164.81246  23282059.179    23282057.506    23282060.058
  23282057.235
 117940522.49247  91901709.88547  22443327.382    22443326.581    22443327.845
  22443327.554
 114710726.70248  89385003.22247  21828705.635    21828702.413    21828705.984
  21828702.557
 108490133.87548  84537787.83647  20644960.631    20644957.459    20644961.890

 124005636.05047  96627777.85944  23597480.261    23597480.394    23597481.617

 16  1  1  0 37  0.0000000  0  8G09G26G23G29G03G31G16G32
 129951377.72546                                                  24728927.797
  24728928.054
 106560668.54949  83034308.22048  20277801.434    20277801.738    20277801.920
  20277801.716
 115351484.88148  89884279.80046  21950654.825    21950650.290    21950655.824

 122376565.07847  95358370.37946  23287482.244    23287479.978    23287482.782
  23287480.143
 118002966.73247  91950367.70347  22455209.794    22455209.714    22455210.124
  22455209.937
 114777785.94648  89437257.18247  21841466.460    21841463.380    21841467.061
  21841463.550
 108429106.22148  84490233.77647  20633347.633    20633344.258    20633348.753

 124103938.82847  96704377.34844  23616186.797    23616186.395    23616188.214

 16  1  1  0 37 30.0000000  0  8G09G26G23G29G03G31G16G32
 129845140.15446                                                  24708710.240
  24708711.660
 106564031.34949  83036928.54648  20278441.304    20278441.751    20278442.065
  20278441.749
 115273143.89448  89823234.85946  21935747.094    21935742.264    21935748.010

 122405639.04047  95381025.35746  23293014.952    23293013.160    23293015.181
  23293012.833
 118065857.18047  91999373.21447  22467177.723    22467177.361    22467177.932
  22467177.760
 114845016.15948  89489644.42147  21854260.237    21854256.825    21854260.780
  21854257.295
 108368598.64548  84443084.95947  20621833.360    20621830.203    20621834.567

 124202378.34947  96781083.40644  23634919.594    23634918.333    23634920.286

 16  1  1  0 38  0.0000000  0  8G09G26G23G29G03G31G16G32
 129738974.67346                                                  24688506.765
  24688509.573
 106567926.36048  83039963.50448  20279182.670    20279182.981    20279183.235
  20279183.112
 115195110.41148  89762429.67346  21920897.815    21920893.184    21920898.555

 122435287.96547  95404128.04746  23298658.256    23298655.879    23298658.606
  23298656.173
 118129191.25647  92048724.39647  22479229.636    22479229.515    22479229.800
  22479230.111
 114912416.05048  89542163.80347  21867085.953    21867082.424    21867086.111
  21867083.022
 108308611.93048  84396342.00547  20610418.198    20610414.963    20610418.925

 124300951.82547  96857893.85144  23653677.205    23653677.051    23653678.574

 16  1  1  0 38 30.0000000  0  8G09G26G23G29G03G31G16G32
 129632879.85146 101012638.04345  24668317.932    24668316.555    24668318.039
  24668318.767
 106572352.85248  83043412.58148  20280025.015    20280025.459    20280025.561
  20280025.678
 115117386.75348  89701865.91746  21906107.558    21906102.562    21906108.052

 122465512.20147  95427679.26946  23304410.324    23304406.795    23304411.333
  23304408.023
 118192966.35847  92098419.25447  22491365.764    22491365.217    22491366.070
  22491365.718
 114979985.43748  89594815.24347  21879944.014    21879940.469    21879944.479
  21879941.051
 108249147.17948  84350005.79047  20599102.438    20599099.286    20599103.332

 124399656.48047  96934806.50844  23672460.445    23672458.064    23672461.433

 16  1  1  0 39  0.0000000  0  8G09G26G23G29G03G31G16G32
 129526859.30146 100930024.72145  24648143.787    24648143.575    24648143.623
  24648143.936
 106577310.19448  83047275.38448  20280968.506    20280968.828    20280968.946
  20280968.955
 115039975.29548  89641545.40746  21891376.231    21891371.536    21891376.974

 122496310.70147  95451678.13246  23310270.099    23310267.134    23310270.300
  23310267.925
 118257179.90747  92148455.74447  22503585.757    22503584.766    22503585.418
  22503584.972
 115047723.31348  89647597.92447  21892834.134    21892830.911    21892834.622
  21892831.560
 108190205.72948  84304077.28147  20587886.559    20587883.273    20587887.632

 124498489.49947  97011819.18944  23691267.050    23691266.571    23691268.306

 16  1  1  0 39 30.0000000  0  8G09G26G23G29G03G31G16G32
 129420915.18346 100847471.12146  24627981.551    24627982.994    24627980.690
  24627983.745
 106582797.59948  83051551.36348  20282012.514    20282013.046    20282013.279
  20282013.064
 114962878.31247  89581469.92046  21876705.214    21876700.630    21876706.113

 122527682.43547  95476123.78846  23316239.646    23316237.326    23316239.738
  23316238.540
 118321829.21947  92198831.79147  22515887.801    22515886.932    22515888.168
  22515887.542
 115115628.86448  89700511.09747  21905756.503    21905753.214    21905756.618
  21905753.587
 108131789.10648  84258557.73547  20576769.876    20576767.022    20576771.337

 124597448.20647  97088929.79744  23710098.972    23710098.011    23710100.105

 16  1  1  0 40  0.0000000  0  8G09G26G23G29G03G31G16G32
 129315049.59346 100764978.91046  24607835.176    24607836.462    24607837.078
  24607837.745
 106588813.59748  83056239.05348  20283157.256    20283157.966    20283157.768
  20283158.201
 114886098.11148  89521641.22746  21862094.338    21862089.995    21862095.291

 122559625.77547  95501014.67946  23322317.721    23322315.689    23322318.436
  23322316.767
 118386911.74847  92249545.39747  22528272.355    22528271.847    22528272.437
  22528272.255
 115183702.07348  89753554.96847  21918710.461    21918707.147    21918710.711
  21918707.407
 108073897.95648  84213447.67047  20565753.967    20565750.846    20565755.237

 124696529.75147  97166136.13244  23728953.412    23728953.038    23728954.352

 16  1  1  0 40 30.0000000  0  8G09G26G23G29G03G31G16G32
 129209264.76546 100682549.70146  24587706.629    24587705.334    24587706.502
  24587706.237
 106595357.69149  83061338.26148  20284402.670    20284403.192    20284403.407
  20284403.230
 114809637.29548  89462061.36646  21847544.307    21847539.782    21847545.278

 122592140.02247  95526350.36246  23328505.183    23328503.870    23328505.245
  23328502.645
 118452424.77947  92300594.45047  22540739.314    22540738.276    22540739.409
  22540739.587
 115251942.65448  89806729.64047  21931695.742    21931692.698    21931695.912
  21931692.730
 108016533.48148  84168748.02447  20554837.739    20554834.657    20554838.929

 124795731.31047  97243436.01244  23747831.637    23747829.689    23747832.187

 16  1  1  0 41  0.0000000  0  8G09G26G23G29G03G31G16G32
 129103562.03046 100600184.56046  24567591.264    24567591.890    24567591.398
  24567591.093
 106602429.04648  83066848.38148  20285748.414    20285748.841    20285749.019
  20285748.959
 114733498.04048  89402732.10046  21833055.599    21833051.013    21833056.400

 122625224.87247  95552130.82346  23334800.098    23334798.805    23334801.653
  23334799.227
 118518365.69747  92351976.90747  22553287.825    22553287.308    22553287.723
  22553287.383
 115320349.66248  89860034.00747  21944713.030    21944709.872    21944713.298
  21944710.052
 107959696.84148  84124459.70947  20544022.133    20544019.164    20544023.047

 124895050.14747  97320827.24344  23766730.658    23766730.822    23766732.267

 16  1  1  0 41 30.0000000  0  8G09G26G23G29G03G31G16G32
 128997943.31446 100517884.68346  24547491.356    24547492.277    24547491.686
  24547492.084
 106610027.17648  83072769.27448  20287194.079    20287194.483    20287194.814
  20287194.638
 114657682.76048  89343655.31046  21818628.444    21818623.316    21818628.932

 122658878.37547  95578354.06746  23341205.366    23341203.367    23341205.798
  23341203.299
 118584731.88247  92403690.75647  22565916.640    22565915.971    22565916.783
  22565916.165
 115388922.06548  89913467.24147  21957762.028    21957758.515    21957762.238
  21957759.119
 107903389.30848  84080583.72747  20533307.318    20533304.211    20533308.185

 124994483.48847  97398307.69844  23785653.225    23785651.738    23785653.954

 16  1  1  0 42  0.0000000  0  8G09G26G23G29G03G31G16G32
 128892411.73346 100435653.00246  24527409.308    24527409.863    24527409.600
  24527409.659
 106618149.96148  83079098.68048  20288739.692    20288740.204    20288740.545
  20288740.213
 114582194.20748  89284833.11646  21804263.257    21804258.222    21804263.742

 122693099.77547  95605019.83646  23347717.928    23347715.165    23347718.564
  23347715.932
 118651520.66647  92455733.92547  22578626.073    22578625.038    22578626.095
  22578625.900
 115457659.07948  89967028.83847  21970841.965    21970838.511    21970842.421
  21970838.521
 107847611.82548  84037120.81147  20522693.101    20522689.981    20522694.252

 125094028.59147  97475875.28844  23804597.049    23804594.176    23804596.655

 16  1  1  0 42 30.0000000  0  8G09G26G23G29G03G31G16G32
 128786968.51846 100353490.07346  24507343.056    24507344.432    24507343.924
  24507344.599
 106626797.42349  83085837.12648  20290385.266    20290385.740    20290386.058
  20290385.868
 114507034.67748  89226267.31646  21789960.822    21789955.917    21789961.819

 122727888.60547  95632127.77446  23354338.351    23354336.362    23354339.174
  23354336.089
 118718729.37047  92508104.36547  22591415.645    22591414.899    22591415.757
  22591414.953
 115526559.70148  90020717.71847  21983953.010    21983949.728    21983953.457
  21983950.073
 107792365.83048  83994072.08747  20512180.111    20512176.711    20512181.293

 125193682.64747  97553527.74944  23823557.957    23823557.841    23823559.594

 16  1  1  0 43  0.0000000  0  8G09G26G23G29G03G31G16G32
 128681615.67746 100271397.45946  24487295.289    24487295.502    24487295.406
  24487294.755
 106635968.12048  83092983.22948  20292130.296    20292130.609    20292131.088
  20292130.714
 114432206.06948  89167959.32146  21775721.452    21775716.632    21775722.191

 122763243.55047  95659677.08146  23361065.907    23361064.308    23361066.931
  23361064.770
 118786355.25347  92560799.88147  22604284.595    22604283.559    22604284.905
  22604284.452
 115595623.39648  90074533.48447  21997095.420    21997092.363    21997095.807
  21997093.103
 107737651.61048  83951437.73047  20501768.235    20501765.003    20501769.424

 125293442.88947  97631262.95144  23842542.118    23842541.461    23842544.413

 16  1  1  0 43 30.0000000  0  8G09G26G23G29G03G31G16G32
 128576354.84446 100189376.18746  24467265.101    24467265.574    24467264.135
  24467263.981
 106645661.01948  83100536.18448  20293974.915    20293975.041    20293975.556
  20293975.184
 114357711.17048  89109911.32546  21761545.400    21761540.762    21761546.292

 122799162.64247  95687666.08846  23367901.276    23367899.575    23367902.206
  23367900.035
 118854395.53747  92613818.30847  22617231.823    22617231.132    22617231.952
  22617231.920
 115664850.00048  90128476.17347  22010269.050    22010266.063    22010269.564
  22010266.337
 107683470.24448  83909218.54347  20491457.855    20491454.655    20491458.915

 125393306.58647  97709078.77244  23861546.328    23861545.589    23861547.458

 16  1  1  0 44  0.0000000  0  8G09G26G23G29G03G31G16G32
 128471188.58746 100107428.42846  24447251.785    24447253.078    24447251.263
  24447252.881
 106655875.14749  83108495.24548  20295918.518    20295918.738    20295919.271
  20295918.775
 114283552.13548  89052125.08546  21747433.548    21747428.520    21747434.354

 122835646.29647  95716095.08546  23374843.017    23374841.062    23374843.648
  23374842.620
 118922847.50547  92667157.51347  22630257.730    22630257.068    22630257.830
  22630258.306
 115734238.90348  90182545.48047  22023473.372    22023470.267    22023473.880
  22023470.524
 107629822.90048  83867415.42547  20481249.025    20481245.841    20481250.229

 125493270.93147  97786973.00844  23880567.939    23880567.973    23880569.648

 16  1  1  0 44 30.0000000  0  8G09G26G23G29G03G31G16G32
 128366119.45246 100025556.50046  24427258.010    24427258.525    24427258.069
  24427259.009
 106666609.30749  83116859.38648  20297961.266    20297961.601    20297961.881
  20297961.688
 114209731.50648  88994602.48746  21733385.832    21733381.146    21733386.594

 122872693.10047  95744963.00146  23381893.163    23381891.225    23381893.691
  23381891.532
 118991708.38847  92720815.33947  22643361.691    22643360.573    22643361.994
  22643360.981
 115803789.41548  90236740.73047  22036708.415    22036704.941    22036708.837
  22036705.689
 107576710.63048  83826029.27747  20471142.008    20471138.940    20471143.115

 125593333.03747  97864943.46044  23899609.923    23899608.633    23899611.615

 16  1  1  0 45  0.0000000  0  8G09G26G23G29G03G31G16G32
 128261149.39046  99943761.78746  24407283.762    24407282.321    24407283.782
  24407284.022
 106677862.57648  83125627.94348  20300102.840    20300103.321    20300103.628
  20300103.455
 114136251.33448  88937345.10546  21719403.195    21719398.653    21719403.805

 122910301.22347  95774268.19246  23389049.588    23389046.930    23389050.195
  23389048.044
 119060975.47547  92774789.68847  22656542.289    22656542.029    22656542.750
  22656542.539
 115873500.78648  90291061.16347  22049973.812    22049970.397    22049974.183
  22049971.079
 107524134.18248  83785060.63747  20461137.079    20461133.804    20461138.016

 125693490.40247  97942988.13944  23918668.258    23918668.546    23918669.663

 16  1  1  0 45 30.0000000  0  8G09G26G23G29G03G31G16G32
 128156280.72146  99862046.07645  24387325.274    24387326.159    24387327.407
  24387325.769
 106689634.60849  83134801.00948  20302342.967    20302343.411    20302343.623
  20302343.418
 114063114.22848  88880355.11646  21705485.648    21705480.886    21705486.637

 122948469.41947  95804009.87646  23396312.793    23396310.185    23396313.213
  23396310.446
 119130646.04247  92829078.39447  22669800.678    22669800.232    22669801.252
  22669800.938
 115943372.38248  90345506.48347  22063270.198    22063267.053    22063270.685
  22063267.577
 107472094.78048  83744510.39547  20451234.259    20451231.179    20451235.514

 125793740.03047  98021104.68344  23937747.126    23937745.704    23937747.026

 16  1  1  0 46  0.0000000  0  8G09G26G23G29G03G31G16G32
 128051515.28046  99780410.90145  24367389.541    24367390.896    24367390.968
  24367390.848
 106701924.10149  83144377.46248  20304681.471    20304681.795    20304682.072
  20304681.942
 113990323.02748  88823634.72746  21691634.088    21691628.931    21691634.703

 122987196.38947  95834186.79746  23403681.795    23403679.427    23403682.852
  23403680.250
 119200717.22047  92883679.29047  22683134.765    22683134.365    22683135.068
  22683134.956
 116013403.35148  90400076.01747  22076596.902    22076593.581    22076597.312
  22076593.641
 107420592.77248  83704378.88847  20441434.029    20441430.729    20441434.979

 125894079.34747  98099291.13744  23956840.515    23956839.306    23956842.057

 16  1  1  0 46 30.0000000  0  8G09G26G23G29G03G31G16G32
 127946855.15246  99698857.62346  24347474.196    24347474.132    24347475.270
  24347474.268
 106714729.44648  83154355.75848  20307118.199    20307118.537    20307118.895
  20307118.448
 113917879.94748  88767185.57446  21677848.570    21677843.624    21677849.332

 123026480.33247  95864797.61046  23411156.811    23411155.897    23411157.816
  23411157.273
 119271186.34547  92938590.25847  22696544.566    22696544.014    22696544.928
  22696545.250
 116083593.62448  90454769.74047  22089953.514    22089950.055    22089953.649
  22089950.189
 107369629.54148  83664667.15547  20431736.170    20431732.859    20431737.034

 125994505.50647  98177545.23544  23975950.614    23975949.227    23975951.842

 16  1  1  0 47  0.0000000  0  8G09G26G23G29G03G31G16G32
 127842302.73547  99617388.35046  24327578.102    24327579.036    24327579.393
  24327579.074
 106728049.72348  83164735.32048  20309652.756    20309653.115    20309653.457
  20309652.913
 113845786.82048  88711008.99846  21664129.641    21664124.914    21664130.253

 123066321.09947  95895842.24546  23418739.025    23418737.007    23418739.333
  23418737.802
 119342050.52647  92993809.06447  22710029.555    22710029.076    22710029.635
  22710029.865
 116153942.59847  90509587.14947  22103340.562    22103336.850    22103340.535
  22103337.327
 107319205.45148  83625375.40647  20422140.848    20422137.929    20422142.231

 126095015.74647  98255864.88444  23995076.879    23995075.666    23995078.026

 16  1  1  0 47 30.0000000  0  8G09G26G23G29G03G31G16G32
 127737859.81846  99536004.26246  24307704.014    24307704.162    24307704.478
  24307704.660
 106741883.85449  83175515.28748  20312285.214    20312285.537    20312285.770
  20312285.670
 113774046.04648  88655106.86946  21650478.061    21650473.731    21650478.689

 123106716.92947  95927319.34646  23426426.271    23426424.038    23426426.840
  23426423.771
 119413306.98847  93049333.55047  22723589.509    22723588.427    22723589.811
  22723589.518
 116224448.95748  90564527.13947  22116757.598    22116753.935    22116758.178
  22116754.470
 107269321.67248  83586504.72447  20412648.500    20412645.275    20412649.367

 126195607.41546  98334247.96744  24014218.339    24014219.130    24014219.888

 16  1  1  0 48  0.0000000  0  8G09G26G23G29G03G31G16G32
 127633528.43647  99454706.86846  24287849.478    24287850.589    24287850.466
  24287850.616
 106756230.20649  83186694.14748  20315015.331    20315015.661    20315015.959
  20315015.716
 113702660.69748  88599481.89746  21636893.934    21636889.143    21636895.006

 123147666.56147  95959227.94246  23434219.304    23434216.610    23434220.202
  23434216.382
 119484952.94347  93105161.53447  22737223.029    22737222.838    22737223.579
  22737223.258
 116295112.30348  90619589.46247  22130204.520    22130200.705    22130204.911
  22130200.995
 107219978.78648  83548055.44047  20403259.049    20403256.164    20403260.164

 126296277.69647  98412692.33144  24033376.532    24033376.364    24033377.324

 16  1  1  0 48 30.0000000  0  8G09G26G23G29G03G31G16G32
 127529311.98146  99373499.39846  24268017.589    24268018.381    24268018.706
  24268018.685
 106771088.15348  83198271.65848  20317842.773    20317843.156    20317843.452
  20317843.339
 113631632.68148  88544135.35146  21623377.803    21623372.913    21623378.615

 123189168.60447  95991566.99746  23442117.050    23442113.868    23442117.318
  23442115.263
 119556985.56547  93161290.80147  22750930.223    22750930.471    22750930.733
  22750930.427
 116365932.32648  90674773.87147  22143680.960    22143677.590    22143681.776
  22143677.880
 107171178.04048  83510028.60247  20393972.882    20393969.854    20393973.735

 126397023.78146  98491195.67444  24052547.238    24052547.355    24052547.765

 16  1  1  0 49  0.0000000  0  8G09G26G23G29G03G31G16G32
 127425211.44446  99292382.20346  24248208.817    24248208.030    24248209.287
  24248209.099
 106786456.61549  83210247.03748  20320767.424    20320767.806    20320768.051
  20320767.653
 113560964.86748  88489069.68146  21609929.913    21609925.405    21609930.706

 123231222.29747  96024336.05446  23450118.695    23450116.744    23450119.395
  23450117.724
 119629401.96747  93217719.11947  22764710.615    22764710.245    22764711.646
  22764710.901
 116436908.29548  90730079.77147  22157187.349    22157184.171    22157187.875
  22157184.105
 107122920.46448  83472425.15047  20384789.816    20384786.958    20384790.929

 126497842.93447  98569755.97544  24071732.345    24071732.368    24071733.775

 16  1  1  0 49 30.0000000  0  8G09G26G23G29G03G31G16G32
 127321228.78246  99211356.55846  24228421.376    24228421.616    24228421.657
  24228421.636
 106802334.49749  83222619.46248  20323788.941    20323789.150    20323789.406
  20323789.295
 113490658.87348  88434285.75846  21596551.066    21596546.593    21596552.121

 123273826.10447  96057533.75846  23458227.015    23458223.007    23458227.705
  23458224.766
 119702199.34747  93274444.31147  22778564.167    22778563.583    22778564.306
  22778563.627
 116508039.74248  90785506.80147  22170723.046    22170719.514    22170723.162
  22170719.667
 107075206.42748  83435245.30547  20375710.023    20375707.405    20375711.368

 126598732.42747  98648371.09844  24090931.014    24090930.295    24090932.769

 16  1  1  0 50  0.0000000  0  8G09G26G23G29G03G31G16G32
 127217366.84646  99130424.89846  24208656.863    24208658.167    24208657.922
  24208657.636
 106818720.37348  83235387.71448  20326906.888    20326907.324    20326907.488
  20326907.228
 113420717.00548  88379785.40046  21583241.782    21583237.302    21583242.623

 123316978.55347  96091159.12346  23466437.390    23466435.711    23466438.488
  23466436.157
 119775374.86147  93331464.16647  22792488.723    22792488.158    22792489.043
  22792488.835
 116579325.95148  90841054.42447  22184288.425    22184285.318    22184288.888
  22184285.487
 107028036.06848  83398488.70747  20366734.248    20366731.689    20366735.256

 126699689.64347  98727038.97444  24110144.397    24110141.646    24110144.258

 16  1  1  0 50 30.0000000  0  8G09G26G23G29G03G31G16G32
 127113627.86046  99049589.19146  24188915.602    24188917.149    24188916.149
  24188916.960
 106835612.87349  83248550.63048  20330121.393    20330121.890    20330121.984
  20330121.928
 113351142.41948  88325571.39646  21570002.352    21569997.785    21570002.878

 123360678.16647  96125210.73546  23474754.276    23474751.842    23474754.599
  23474752.136
 119848925.59347  93388776.38347  22806485.286    22806484.463    22806485.341
  22806484.766
 116650766.41848  90896722.34247  22197883.124    22197879.926    22197883.924
  22197880.460
 106981411.99648  83362158.38747  20357861.990    20357859.262    20357863.065

 126800711.82647  98805757.47844  24129367.039    24129365.000    24129368.915

 16  1  1  0 51  0.0000000  0  8G09G26G23G29G03G31G16G32
 127010013.94346  98968850.83046  24169200.095    24169200.921    24169200.857
  24169201.193
 106853011.14248  83262107.72448  20333432.149    20333432.658    20333432.762
  20333432.796
 113281936.90748  88271644.99946  21556832.815    21556828.422    21556833.794

 123404923.57747  96159687.72946  23483173.275    23483171.338    23483174.025
  23483171.288
 119922848.69347  93446378.74047  22820551.922    22820551.491    22820551.843
  22820551.961
 116722360.73348  90952510.29647  22211506.909    22211503.833    22211507.230
  22211504.400
 106935333.76748  83326253.56547  20349093.239    20349090.504    20349094.169

 126901796.15147  98884524.39744  24148603.209    24148601.091    24148604.025

 16  1  1  0 51 30.0000000  0  8G09G26G23G29G03G31G16G32
 126906527.89946  98888212.41446  24149506.733    24149506.599    24149506.546
  24149506.976
 106870913.65048  83276057.65948  20336838.937    20336839.365    20336839.392
  20336839.250
 113213103.38148  88218008.51546  21543734.330    21543729.665    21543735.039

 123449713.08447  96194588.63146  23491696.556    23491694.851    23491696.605
  23491696.082
 119997141.27747  93504268.99247  22834689.589    22834689.213    22834689.917
  22834689.542
 116794107.98047  91008417.54447  22225159.607    22225156.096    22225159.669
  22225156.420
 106889801.62748  83290774.20547  20340428.534    20340425.726    20340429.646

 127002939.92547  98963337.68644  24167849.890    24167848.425    24167851.342

 16  1  1  0 52  0.0000000  0  9G09G26G23G29G03G27G31G16G32
 126803171.37346  98807674.89446  24129838.735    24129838.748    24129839.385
  24129838.981
 106889319.43648  83290399.82848  20340341.449    20340341.817    20340342.055
  20340342.117
 113144644.00648  88164663.54946  21530706.972    21530702.606    21530707.896

 123495045.56647  96229912.65046  23500322.344    23500321.802    23500323.392
  23500322.060
 120071800.49047  93562444.94647  22848896.673    22848895.703    22848896.807
  22848896.558
 129819899.23746 101158371.44245  24703906.258    24703906.734    24703906.852
  24703908.120
 116866007.32847  91064443.12547  22238841.629    22238837.989    22238842.100
  22238838.400
 106844816.34248  83255720.80147  20331868.129    20331865.396    20331869.316

 127104140.58647  99042195.30944  24187108.182    24187106.667    24187109.301

 16  1  1  0 52 30.0000000  0  9G09G26G23G29G03G27G31G16G32
 126699946.49147  98727239.88446  24110196.273    24110196.726    24110196.433
  24110197.113
 106908227.12848  83305133.11748  20343939.489    20343939.879    20343940.051
  20343940.048
 113076561.17648  88111612.12946  21517751.062    21517746.542    21517751.805

 123540919.27747  96265658.37946  23509052.495    23509050.326    23509052.674
  23509051.263
 120146823.40547  93620904.31447  22863172.798    22863172.914    22863173.315
  22863173.382
 129707393.58545 101070704.79245  24682495.244    24682497.639    24682498.666
  24682498.109
 116938058.28948  91120586.71047  22252552.343    22252549.124    22252552.874
  22252549.130
 106800378.63548  83221094.04847  20323411.905    20323408.906    20323412.941

 127205395.22747  99121094.97144  24206375.379    24206375.524    24206377.300

 16  1  1  0 53  0.0000000  0  9G09G26G23G29G03G27G31G16G32
 126596855.08547  98646908.71846  24090578.882    24090578.853    24090579.456
  24090579.606
 106927635.59849  83320256.70248  20347632.860    20347633.108    20347633.497
  20347633.141
 113008856.86648  88058855.68746  21504867.282    21504862.589    21504868.291

 123587332.45647  96301824.38946  23517885.587    23517882.144    23517885.478
  23517882.398
 120222207.11547  93679644.81147  22877518.294    22877517.963    22877518.731
  22877518.854
 129594862.38846 100983018.18445  24661081.917    24661082.473    24661083.935
  24661083.543
 117010260.51648  91176848.05247  22266292.090    22266288.754    22266292.495
  22266289.574
 106756489.14648  83186894.47047  20315060.071    20315057.136    20315061.138

 127306701.18447  99200034.59344  24225654.378    24225652.825    24225655.413

 16  1  1  0 53 30.0000000  0  9G09G26G23G29G03G27G31G16G32
 126493900.11047  98566683.85746  24070987.193    24070986.581    24070987.774
  24070985.955
 106947543.30649  83335769.26148  20351421.016    20351421.253    20351421.605
  20351421.571
 112941533.61148  88006396.08646  21492056.123    21492051.363    21492056.797

 123634284.44947  96338410.36346  23526820.611    23526816.864    23526820.776
  23526817.081
 120297948.67947  93738664.15247  22891931.346    22891930.935    22891931.908
  22891931.120
 129482308.32346 100895313.70645  24639664.091    24639664.472    24639665.086
  24639665.635
 117082613.26148  91233226.62747  22280060.682    22280057.094    22280061.361
  22280057.924
 106713148.68448  83153122.75547  20306812.499    20306809.691    20306813.744

 127408055.75946  99279012.13044  24244940.034    24244940.200    24244941.738

 16  1  1  0 54  0.0000000  0  9G09G26G23G29G03G27G31G16G32
 126391084.39947  98486567.89846  24051422.355    24051422.691    24051422.163
  24051422.828
 106967948.73048  83351669.50248  20355303.979    20355304.568    20355304.486
  20355304.596
 112874593.54948  87954235.02046  21479317.907    21479313.157    21479318.881

 123681773.05747  96375414.37046  23535856.784    23535853.865    23535856.889
  23535855.358
 120374045.18947  93797960.09247  22906412.377    22906412.134    22906412.829
  22906412.500
 129369734.16146 100807593.59245  24618242.546    24618244.151    24618241.979
  24618244.409
 117155115.86948  91289721.96447  22293857.434    22293854.275    22293857.628
  22293854.331
 106670357.91748  83119779.33147  20298669.532    20298666.635    20298670.680

 127509456.26746  99358025.44444  24264236.043    24264237.047    24264237.351

 16  1  1  0 54 30.0000000  0  9G09G26G23G29G03G27G31G16G32
 126288409.37447  98406561.61546  24031882.675    24031882.737    24031883.062
  24031883.584
 106988851.28148  83367957.31248  20359281.548    20359282.002    20359282.258
  20359282.073
 112808039.62448  87902374.89146  21466652.779    21466648.200    21466653.823

 123729796.84946  96412835.53146  23544994.136    23544992.891    23544995.289
  23544992.816
 120450493.79447  93857530.38747  22920959.566    22920959.517    22920960.388
  22920959.798
 129257142.82346 100719860.06646  24596816.601    24596817.747    24596817.488
  24596817.576
 117227767.90347  91346333.73547  22307683.090    22307679.729    22307683.174
  22307680.263
 106628117.34548  83086864.58547  20290631.479    20290628.704    20290632.822

 127610900.00747  99437072.42943  24283540.010    24283541.153    24283542.471

 16  1  1  0 55  0.0000000  0  9G09G26G23G29G03G27G31G16G32
 126185877.03546  98326666.27946  24012371.115    24012370.764    24012372.230
  24012370.769
 107010249.21348  83384631.13848  20363353.376    20363353.721    20363354.028
  20363353.874
 112741873.78848  87850817.14346  21454061.765    21454057.329    21454062.737

 123778354.03947  96450672.32346  23554235.454    23554233.068    23554236.071
  23554233.777
 120527291.48747  93917372.72447  22935574.011    22935573.625    22935574.021
  22935573.760
 129144537.07346 100632115.29846  24575388.576    24575389.713    24575389.644
  24575389.480
 117300568.56748  91403061.30347  22321536.973    22321533.408    22321537.108
  22321533.598
 106586426.97248  83054378.51747  20282698.259    20282695.264    20282699.347

 127712384.31046  99516151.05144  24302852.741    24302852.442    24302854.210

 16  1  1  0 55 30.0000000  0  9G09G26G23G29G03G27G31G16G32
 126083490.32446  98246884.63546  23992887.735    23992887.889    23992888.714
  23992887.800
 107032141.02548  83401689.72748  20367519.338    20367519.524    20367520.058
  20367519.619
 112676098.06048  87799563.37146  21441545.204    21441540.567    21441546.024

 123827443.21747  96488923.49046  23563576.148    23563574.887    23563576.988
  23563574.936
 120604435.31647  93977484.79647  22950254.268    22950253.149    22950254.861
  22950254.033
 129031919.72246 100544361.47746  24553958.706    24553959.268    24553959.657
  24553958.662
 117373517.72948  91459904.59647  22335418.417    22335415.305    22335418.905
  22335415.947
 106545287.54048  83022321.63447  20274869.676    20274867.042    20274870.795

 127813906.45346  99595259.16144  24322171.165    24322171.337    24322173.160

 16  1  1  0 56  0.0000000  0  9G09G26G23G29G03G27G31G16G32
 125981251.16746  98167217.97946  23973432.136    23973432.447    23973433.547
  23973432.929
 107054525.41648  83419132.08248  20371779.077    20371779.188    20371779.661
  20371779.344
 112610715.13648  87748615.66046  21429103.358    21429098.277    21429104.375

 123877062.71647  96527587.90046  23573018.914    23573017.544    23573019.166
  23573017.750
 120681922.35147  94037864.30147  22964999.054    22964999.207    22964999.351
  22964999.592
 128919293.62546 100456600.85246  24532526.471    24532527.074    24532526.874
  24532527.226
 117446614.89448  91516863.19447  22349328.963    22349325.468    22349329.140
  22349326.167
 106504699.79148  82990694.67847  20267146.188    20267143.394    20267147.100

 127915463.56947  99674394.53344  24341497.371    24341497.020    24341498.594

 16  1  1  0 56 30.0000000  0  9G09G26G23G29G03G27G31G16G32
 125879161.61246  98087667.75846  23954005.753    23954004.646    23954006.016
  23954004.178
 107077400.95348  83436957.05648  20376132.276    20376132.460    20376132.863
  20376132.796
 112545727.37548  87697975.85346  21416736.445    21416731.685    21416737.461

 123927211.02746  96566664.38146  23582561.121    23582560.294    23582561.913
  23582560.609
 120759749.59947  94098508.91547  22979808.954    22979809.373    22979809.475
  22979809.562
 128806661.57146 100368835.60546  24511092.515    24511093.702    24511093.636
  24511094.929
 117519859.42048  91573936.69347  22363266.961    22363263.875    22363267.467
  22363263.831
 106464664.52248  82959498.40347  20259527.712    20259525.006    20259528.963

 128017053.26546  99753555.24343  24360829.068    24360829.390    24360830.291

 16  1  1  0 57  0.0000000  0  9G09G26G23G29G03G27G31G16G32
 125777224.31647  98008236.24246  23934607.054    23934607.142    23934608.728
  23934607.756
 107100766.32048  83455163.64348  20380578.466    20380578.827    20380579.107
  20380578.921
 112481137.09748  87647645.78247  21404445.309    21404440.566    21404446.068

 123977886.24846  96606151.39546  23592205.295    23592203.181    23592205.392
  23592203.272
 120837914.09447  94159416.32647  22994683.629    22994683.319    22994683.979
  22994683.800
 128694026.43846 100281067.95046  24489659.485    24489659.391    24489660.278
  24489660.259
 117593250.62048  91631124.56147  22377232.819    22377229.871    22377233.518
  22377229.931
 106425181.95248  82928732.75947  20252014.440    20252011.838    20252015.666

 128118672.61647  99832739.11144  24380167.101    24380166.370    24380168.764

 16  1  1  0 57 30.0000000  0  9G09G26G23G29G03G27G31G16G32
 125675441.83347  97928925.51046  23915238.658    23915238.549    23915239.571
  23915238.770
 107124620.31448  83473751.02548  20385118.033    20385118.315    20385118.558
  20385118.542
 112416946.59648  87597627.23547  21392229.985    21392225.755    21392230.903

 124029087.11947  96646048.11546  23601948.239    23601946.989    23601949.090
  23601947.742
 120916412.84847  94220584.19547  23009621.883    23009621.089    23009622.066
  23009621.071
 128581391.04146 100193300.10146  24468225.013    24468226.921    24468226.118
  24468227.960
 117666788.25548  91688426.67547  22391226.534    22391223.381    22391226.828
  22391223.923
 106386252.29148  82898397.95147  20244606.500    20244603.738    20244607.671

 128220319.02047  99911944.02644  24399509.496    24399509.598    24399511.653

 16  1  1  0 58  0.0000000  0  9G09G26G23G29G03G27G31G16G32
 125573815.77347  97849736.54446  23895899.471    23895899.650    23895900.206
  23895900.101
 107148961.56449  83492718.12448  20389749.969    20389750.353    20389750.498
  20389750.368
 112353158.16048  87547921.97447  21380091.743    21380087.157    21380092.456

 124080812.49347  96686353.81446  23611792.004    23611788.158    23611792.146
  23611789.662
 120995242.89947  94282010.21247  23024622.008    23024621.999    23024622.457
  23024622.560
 128468758.17446 100105534.22446  24446791.925    24446792.451    24446792.772
  24446792.940
 117740472.04748  91745842.75947  22405247.761    22405244.860    22405248.384
  22405245.319
 106347875.65548  82868493.87447  20237303.641    20237301.122    20237304.458

 128321989.84246  99991167.94544  24418858.012    24418857.202    24418858.922

 16  1  1  0 58 30.0000000  0  9G09G26G23G29G03G27G31G16G32
 125472348.92647  97770671.64446  23876592.311    23876590.368    23876591.561
  23876589.113
 107173788.83448  83512064.08348  20394474.347    20394474.868    20394474.859
  20394474.703
 112289774.24048  87498531.90047  21368030.065    21368025.417    21368031.186

 124133059.67147  96727066.12746  23621733.499    23621731.299    23621733.893
  23621732.112
 121074401.19147  94343692.01247  23039685.378    23039685.176    23039685.927
  23039685.476
 128356130.83746 100017772.66146  24425360.496    24425360.148    24425360.715
  24425361.904
 117814300.43348  91803371.49647  22419296.919    22419293.864    22419297.979
  22419293.972
 106310053.21248  82839021.81547  20230106.224    20230103.593    20230107.606

 128423682.41646 100070408.85444  24438207.737    24438208.719    24438209.956

 16  1  1  0 59  0.0000000  0  9G09G26G23G29G03G27G31G16G32
 125371043.17547  97691732.17346  23857311.975    23857313.763    23857313.511
  23857312.900
 107199100.31348  83531787.27848  20399291.089    20399291.524    20399291.766
  20399291.519
 112226796.93848  87449458.59046  21356045.893    21356041.500    21356046.852

 124185826.46947  96768183.19946  23631774.770    23631772.382    23631775.394
  23631772.241
 121153884.76847  94405627.26647  23054811.043    23054810.535    23054811.171
  23054811.262
 128243511.67146  99930017.48846  24403929.219    24403930.757    24403930.098
  24403928.828
 117888273.09048  91861012.63747  22433373.263    22433370.076    22433373.846
  22433370.803
 106272785.22748  82809981.94547  20223014.324    20223011.600    20223015.507

 128525393.98047 100149664.58044  24457564.293    24457564.142    24457565.360

 16  1  1  0 59 30.0000000  0  9G09G26G23G29G03G27G31G16G32
 125269901.39547  97612920.57246  23838067.073    23838066.731    23838067.275
  23838066.085
 107224895.03449  83551887.20948  20404199.564    20404199.807    20404200.220
  20404200.131
 112164228.27048  87400703.69747  21344139.577    21344134.943    21344140.585

 124239112.05747  96809704.49246  23641915.488    23641911.796    23641916.352
  23641913.376
 121233690.59347  94467813.60947  23069996.580    23069997.028    23069996.777
  23069997.357
 128130903.74846  99842271.04746  24382501.534    24382502.022    24382501.160
  24382501.550
 117962389.73147  91918765.94247  22447477.299    22447473.895    22447477.840
  22447474.717
 106236072.53448  82781375.06447  20216027.937    20216025.124    20216029.081

 128627121.93647 100228933.02243  24476922.937    24476921.441    24476923.656

 16  1  1  1  0  0.0000000  0  9G09G26G23G29G03G27G31G16G32
 125168925.34546  97534238.00746  23818852.005    23818850.319    23818851.794
  23818851.613
 107251171.15648  83572362.23148  20409199.560    20409199.905    20409200.199
  20409200.010
 112102070.87748  87352269.17546  21332311.489    21332306.911    21332312.183

 124292913.98647  96851628.13646  23652153.105    23652150.884    23652154.225
  23652151.412
 121313815.69647  94530248.73347  23085244.187    23085243.672    23085244.224
  23085244.997
 128018309.86747  99754535.55246  24361074.941    24361075.680    24361075.095
  24361075.007
 118036649.78148  91976631.01147  22461608.412    22461605.226    22461609.029
  22461605.273
 106199914.33048  82753200.02847  20209147.030    20209144.306    20209148.501

 128728863.64346 100308212.19543  24496283.101    24496283.700    24496283.722

 16  1  1  1  0 30.0000000  0  9G09G26G23G29G03G27G31G16G32
 125068117.62547  97455686.53346  23799667.933    23799667.856    23799669.114
  23799667.847
 107277927.17449  83593211.17648  20414290.937    20414291.336    20414291.704
  20414291.302
 112040327.60148  87304157.50547  21320562.228    21320557.658    21320562.903

 124347230.71847  96893952.80446  23662489.451    23662487.029    23662489.686
  23662487.096
 121394257.01247  94592930.24447  23100552.123    23100551.350    23100551.997
  23100552.146
 127905732.92047  99666813.20245  24339652.145    24339651.947    24339653.545
  24339652.415
 118111052.32548  92034606.99947  22475766.984    22475763.325    22475766.947
  22475763.505
 106164310.73148  82725456.85747  20202372.141    20202369.206    20202373.187

 128830616.49846 100387500.04643  24515646.049    24515645.872    24515647.323

 16  1  1  1  1  0.0000000  0  9G09G26G23G29G03G27G31G16G32
 124967480.63747  97377268.17746  23780517.619    23780516.414    23780517.902
  23780516.473
 107305161.57048  83614432.79948  20419473.441    20419473.852    20419474.129
  20419473.749
 111979000.08448  87256369.73947  21308892.151    21308887.635    21308893.134

 124402061.29046  96936677.87846  23672922.380    23672920.686    23672922.824
  23672921.190
 121475011.54747  94655855.83447  23115918.944    23115918.699    23115919.512
  23115919.456
 127793175.73947  99579106.29446  24318233.096    24318234.774    24318234.414
  24318234.702
 118185597.29048  92092693.94147  22489951.924    22489948.764    22489952.254
  22489949.366
 106129262.69748  82698146.63547  20195702.696    20195699.845    20195703.991

 128932377.82247 100466794.53643  24535011.009    24535009.703    24535011.473

 16  1  1  1  1 30.0000000  0  9G09G26G23G29G03G27G31G16G32
 124867016.61147  97298984.49846  23761400.536    23761398.901    23761401.074
  23761399.015
 107332872.91449  83636026.03848  20424746.697    20424747.166    20424747.416
  20424747.332
 111918091.20548  87208908.43747  21297301.541    21297296.867    21297302.273

 124457403.10947  96979801.44546  23683454.032    23683451.929    23683454.346
  23683454.004
 121556076.26547  94719023.10147  23131344.852    23131345.240    23131345.735
  23131345.883
 127680641.17846  99491417.07046  24296818.096    24296819.443    24296819.066
  24296819.310
 118260283.93047  92150891.28947  22504164.370    22504161.336    22504164.869
  22504161.073
 106094770.85848  82671269.96947  20189139.291    20189136.029    20189140.265

 129034144.91946 100546093.52243  24554375.834    24554376.358    24554377.346

 16  1  1  1  2  0.0000000  0  9G09G26G23G29G03G27G31G16G32
 124766728.30147  97220837.86946  23742315.323    23742314.123    23742315.954
  23742315.326
 107361059.85148  83657989.89248  20430110.606    20430111.012    20430111.368
  20430110.854
 111857602.92848  87161774.94147  21285790.699    21285785.970    21285791.591

 124513254.39446  97023322.01646  23694081.711    23694080.050    23694082.572
  23694080.083
 121637448.13547  94782429.71747  23146829.993    23146829.573    23146830.425
  23146829.742
 127568132.21146  99403747.76846  24275408.201    24275409.879    24275409.160
  24275410.422
 118335111.59948  92209198.53747  22518404.003    22518400.700    22518404.147
  22518400.551
 106060835.05048  82644826.52047  20182681.269    20182678.237    20182682.150

 129135915.19446 100625395.01443  24573742.881    24573741.663    24573744.348

 16  1  1  1  2 30.0000000  0  9G09G26G23G29G03G27G31G16G32
 124666617.33547  97142829.23546  23723265.435    23723264.898    23723265.885
  23723264.934
 107389720.80949  83680323.12248  20435564.631    20435564.990    20435565.148
  20435565.214
 111797537.01548  87114970.39147  21274360.797    21274355.968    21274361.564

 124569613.02546  97067237.89146  23704805.600    23704804.995    23704806.824
  23704804.602
 121719124.12147  94846073.30847  23162372.119    23162372.069    23162372.862
  23162372.672
 127455651.62946  99316100.66046  24254003.011    24254005.309    24254004.805
  24254004.608
 118410079.99048  92267615.39847  22532670.003    22532666.729    22532670.139
  22532667.110
 106027455.69348  82618816.69647  20176329.341    20176326.425    20176330.632

 129237686.02846 100704696.91843  24593108.423    24593109.106    24593109.550

 16  1  1  1  3  0.0000000  0  9G09G26G23G29G03G27G31G16G32
 124566686.69347  97064961.17146  23704249.600    23704248.446    23704250.038
  23704249.148
 107418854.29448  83703024.55448  20441108.593    20441108.859    20441109.155
  20441108.794
 111737896.03649  87068496.91247  21263011.175    21263006.612    21263011.905

 124626477.49246  97111547.88446  23715627.646    23715625.398    23715627.926
  23715625.342
 121801101.22147  94909951.51347  23177972.492    23177971.887    23177973.047
  23177971.980
 127343202.42846  99228477.92046  24232605.422    24232607.742    24232605.480
  24232607.814
 118485188.67848  92326141.57247  22546962.892    22546959.538    22546963.235
  22546960.074
 105994632.84248  82593240.52247  20170083.171    20170080.468    20170084.357

 129339454.73746 100783997.18343  24612473.476    24612473.944    24612475.900

 16  1  1  1  3 30.0000000  0  9G09G26G23G29G03G27G31G16G32
 124466938.78447  96987235.65146  23685267.678    23685266.614    23685267.901
  23685267.002
 107448458.61549  83726092.80248  20446742.034    20446742.409    20446742.553
  20446742.702
 111678682.38648  87022356.45047  21251743.340    21251738.422    21251743.993

 124683845.91847  97156250.53746  23726544.142    23726540.974    23726544.896
  23726542.494
 121883376.31947  94974061.95547  23193628.268    23193628.231    23193628.524
  23193628.716
 127230787.51446  99140881.92046  24211213.244    24211216.315    24211213.478
  24211216.108
 118560436.97948  92384776.56747  22561281.722    22561278.705    22561282.470
  22561279.113
 105962366.73948  82568098.17147  20163943.200    20163940.367    20163944.380

 129441218.72846 100863293.73243  24631839.252    24631840.910    24631840.746

 16  1  1  1  4  0.0000000  0  9G09G26G23G29G03G27G31G16G32
 124367375.26147  96909653.57046  23666321.366    23666319.847    23666321.269
  23666321.050
 107478532.38548  83749526.85948  20452464.906    20452465.260    20452465.441
  20452465.427
 111619898.21748  86976550.58447  21240557.014    21240551.968    21240558.103

 124741715.53047  97201343.64046  23737556.054    23737553.832    23737557.626
  23737554.651
 121965946.43547  95038402.25947  23209341.802    23209340.401    23209341.116
  23209341.900
 127118409.75946  99053314.86146  24189829.018    24189830.278    24189830.264
  24189830.955
 118635824.56247  92443520.14647  22575627.090    22575624.532    22575627.785
  22575624.904
 105930657.46348  82543389.69747  20157908.968    20157906.158    20157910.304

 129542975.29346 100942584.52943  24651203.148    24651203.492    24651204.757

 16  1  1  1  4 30.0000000  0  9G09G26G23G29G03G27G31G16G32
 124267999.57046  96832218.09846  23647410.442    23647409.469    23647410.648
  23647410.517
 107509074.04348  83773325.49648  20458276.915    20458277.301    20458277.481
  20458277.498
 111561545.72148  86931081.09347  21229453.136    21229447.951    21229453.937

 124800085.53446  97246826.62846  23748664.608    23748662.020    23748664.713
  23748662.623
 122048808.44447  95102970.00147  23225109.449    23225108.417    23225109.413
  23225109.002
 127006072.05746  98965779.04546  24168450.926    24168453.693    24168452.608
  24168454.653
 118711351.15048  92502372.07747  22589999.599    22589997.111    22590000.028
  22589996.794
 105899505.38448  82519115.40347  20151980.927    20151977.983    20151982.345

 129644721.87746 101021867.51843  24670566.780    24670565.138    24670566.710

 16  1  1  1  5  0.0000000  0  9G09G26G23G29G03G27G31G16G32
 124168813.31347  96754930.13246  23628536.391    23628534.908    23628537.193
  23628535.539
 107540082.03349  83797487.50848  20464177.628    20464177.882    20464178.203
  20464178.030
 111503627.30948  86885949.82547  21218431.408    21218426.416    21218432.290

 124858953.40547  97292697.59746  23759867.416    23759864.964    23759867.832
  23759864.867
 122131959.29847  95167762.82647  23240932.436    23240931.962    23240933.034
  23240931.985
 126893777.36246  98878276.73746  24147082.593    24147082.820    24147083.225
  24147085.326
 118787015.37647  92561331.16847  22604398.395    22604395.230    22604398.392
  22604395.508
 105868910.40648  82495275.02947  20146159.171    20146156.147    20146160.264

 129746455.88146 101101140.70843  24689925.022    24689924.419    24689925.815

 16  1  1  1  5 30.0000000  0  9G09G26G23G29G03G27G31G16G32
 124069819.13846  96677791.83246  23609697.348    23609697.026    23609698.540
  23609696.843
 107571554.86648  83822011.75348  20470166.676    20470167.137    20470167.218
  20470167.144
 111446145.26748  86841158.63647  21207492.966    21207488.197    21207493.515

 124918318.01047  97338955.59746  23771163.995    23771161.773    23771163.355
  23771161.652
 122215395.93447  95232778.32847  23256809.311    23256809.783    23256810.001
  23256809.968
 126781528.61946  98790810.26246  24125722.322    24125724.069    24125723.694
  24125725.228
 118862817.31048  92620397.55447  22618823.202    22618819.976    22618823.722
  22618820.710
 105838872.45548  82471868.60647  20140443.254    20140440.467    20140444.317

 129848174.67146 101180402.04543  24709280.725    24709281.143    24709282.908

 16  1  1  1  6  0.0000000  0  9G09G26G23G29G03G27G31G16G32
 123971019.58147  96600805.27446  23590897.049    23590896.845    23590897.617
  23590897.003
 107603490.99748  83846897.07248  20476243.769    20476244.478    20476244.491
  20476244.433
 111389101.58548  86796709.01247  21196637.733    21196632.955    21196638.400

 124978177.07546  97385599.16446  23782553.409    23782551.042    23782554.035
  23782552.600
 122299115.30147  95298014.14946  23272741.207    23272740.191    23272741.465
  23272741.530
 126669328.72447  98703381.82146  24104372.124    24104372.553    24104372.905
  24104373.647
 118938756.24048  92679570.73147  22633273.719    22633270.895    22633274.654
  22633271.247
 105809391.65648  82448896.28447  20134833.436    20134830.693    20134834.746

 129949875.71346 101259649.54443  24728634.921    24728634.900    24728635.273

 16  1  1  1  6 30.0000000  0  9G09G26G23G29G03G27G31G16G32
 123872416.85447  96523972.08746  23572133.920    23572133.607    23572134.004
  23572132.528
 107635888.83748  83872142.21048  20482408.889    20482409.481    20482409.704
  20482409.710
 111332498.68648  86752602.82747  21185866.878    21185861.904    21185867.734

 125038528.02146  97432625.98546  23794038.527    23794036.506    23794039.585
  23794036.301
 122383114.26747  95363467.84446  23288725.448    23288725.332    23288725.872
  23288725.941
 126557180.64947  98615993.72246  24083031.844    24083031.701    24083031.692
  24083032.533
 119014831.76448  92738850.36247  22647750.852    22647747.691    22647751.334
  22647748.182
 105780468.53448  82426358.65947  20129329.766    20129326.733    20129331.047

 130051556.42446 101338881.19643  24747983.836    24747983.663    24747984.910

 16  1  1  1  7  0.0000000  0  9G09G26G23G29G03G27G31G16G32
 123774013.30847  96447294.02747  23553407.524    23553408.496    23553408.801
  23553408.081
 107668746.37249  83897745.39848  20488661.531    20488661.958    20488662.182
  20488662.305
 111276338.67548  86708841.76547  21175179.762    21175175.030    21175180.522

 125099369.31946  97480034.81946  23805616.137    23805613.860    23805616.809
  23805614.454
 122467389.79547  95429137.03846  23304763.208    23304762.137    23304763.265
  23304762.262
 126445087.25646  98528648.25746  24061700.713    24061701.325    24061701.225
  24061700.560
 119091043.45548  92798236.07347  22662253.177    22662249.630    22662253.232
  22662250.776
 105752104.06848  82404256.86247  20123931.922    20123928.729    20123933.132

 130153214.20646 101418094.99743  24767328.001    24767328.777    24767328.965

 16  1  1  1  7 30.0000000  0  9G09G26G23G29G03G27G31G16G32
 123675811.45747  96370773.14746  23534721.116    23534718.918    23534721.650
  23534720.278
 107702062.52048  83923706.05648  20495001.552    20495001.746    20495002.134
  20495001.957
 111220623.68248  86665427.49347  21164577.805    21164572.684    21164578.423

 125160698.57547  97527823.87246  23817286.510    23817283.700    23817287.576
  23817283.868
 122551938.80347  95495019.31546  23320852.177    23320850.550    23320852.413
  23320851.897
 126333051.52747  98441347.71546  24040380.263    24040380.943    24040381.255
  24040381.235
 119167390.70348  92857727.38747  22676781.454    22676778.104    22676781.623
  22676778.644
 105724296.70848  82382588.94547  20118640.242    20118637.030    20118641.312

 130254846.43046 101497288.90543  24786668.413    24786668.456    24786669.436

 16  1  1  1  8  0.0000000  0  9G09G26G23G29G03G27G31G16G32
 123577813.75247  96294411.40146  23516072.214    23516071.074    23516072.674
  23516071.883
 107735835.50548  83950022.70148  20501428.323    20501428.596    20501428.845
  20501428.802
 111165355.98248  86622361.79447  21154060.511    21154055.850    21154061.371

 125222513.65747  97575991.45146  23829050.202    23829047.109    23829050.170
  23829048.343
 122636758.17947  95561112.28146  23336992.354    23336992.184    23336992.496
  23336992.824
 126221076.38646  98354094.43946  24019071.835    24019072.323    24019072.676
  24019073.107
 119243872.72648  92917323.73347  22691335.318    22691332.404    22691335.517
  22691332.868
 105697045.83948  82361354.12747  20113454.923    20113451.757    20113456.096

 130356450.59246 101576460.96443  24806003.588    24806002.209    24806004.194

 16  1  1  1  8 30.0000000  0  9G09G26G23G29G03G27G31G16G32
 123480022.51447  96218210.46346  23497463.833    23497462.737    23497463.917
  23497462.779
 107770063.59248  83976693.94548  20507941.772    20507942.057    20507942.091
  20507942.314
 111110537.77349  86579646.28347  21143629.137    21143624.231    21143629.846

 125284813.48846  97624536.82246  23840904.090    23840902.409    23840904.248
  23840901.952
 122721844.85347  95627413.54646  23353183.996    23353184.161    23353183.590
  23353183.741
 126109164.88147  98266890.74047  23997776.573    23997778.354    23997776.693
  23997778.095
 119320489.44248  92977025.07547  22705915.348    22705911.724    22705916.218
  22705912.503
 105670353.82448  82340555.33247  20108375.380    20108372.275    20108376.300

 130458023.92746 101655608.98243  24825332.142    24825332.149    24825333.338

 16  1  1  1  9  0.0000000  0  9G09G26G23G29G03G27G31G16G32
 123382440.22347  96142172.33646  23478893.265    23478893.154    23478894.119
  23478893.504
 107804745.06548  84003718.41148  20514541.435    20514541.840    20514542.033
  20514541.742
 111056171.62848  86537283.09647  21133283.605    21133278.429    21133284.229

 125347595.23146  97673457.73446  23852851.934    23852850.081    23852851.857
  23852850.544
 122807195.71947  95693920.63846  23369426.275    23369425.415    23369426.473
  23369425.699
 125997319.84647  98179738.89146  23976492.341    23976494.718    23976493.987
  23976494.202
 119397240.43347  93036831.05747  22720520.558    22720517.464    22720521.227
  22720517.887
 105644218.62748  82320190.06847  20103402.172    20103399.169    20103403.245

 130559563.94846 101734731.06543  24844653.049    24844654.040    24844655.272

 16  1  1  1  9 30.0000000  0  9G09G26G23G29G03G27G31G16G32
 123285069.35447  96066298.97446  23460364.828    23460364.419    23460364.992
  23460364.034
 107839878.61349  84031095.24348  20521226.997    20521227.399    20521227.432
  20521227.534
 111002259.40748  86495273.63547  21123024.225    21123019.263    21123025.053

 125410856.73346  97722752.38346  23864890.185    23864887.359    23864890.211
  23864888.681
 122892807.72147  95760631.22947  23385718.003    23385717.538    23385718.076
  23385718.304
 125885544.37647  98092641.19246  23955222.973    23955222.895    23955222.908
  23955224.099
 119474125.02447  93096741.14247  22735150.673    22735147.956    22735150.774
  22735148.381
 105618640.91148  82300259.16547  20098534.922    20098532.152    20098536.088

 130661068.09546 101813825.18243  24863970.002    24863969.264    24863970.890

 16  1  1  1 10  0.0000000  0  9G09G26G23G29G03G27G31G16G32
 123187912.26747  95990592.16146  23441876.769    23441875.565    23441876.961
  23441875.487
 107875462.35449  84058822.84148  20527998.377    20527998.729    20527998.910
  20527998.924
 110948802.96049  86453619.26947  21112852.030    21112846.875    21112853.007

 125474595.62947  97772418.89946  23877019.552    23877016.958    23877019.883
  23877018.059
 122978677.66147  95827542.82847  23402057.707    23402057.893    23402057.482
  23402058.591
 125773841.29047  98005599.92246  23933965.917    23933966.994    23933967.075
  23933967.855
 119551142.89747  93156755.20647  22749807.026    22749803.803    22749807.023
  22749804.690
 105593621.24848  82280763.44347  20093773.899    20093770.850    20093774.901

 130762533.94446 101892889.40543  24883277.831    24883278.589    24883278.904

 16  1  1  1 10 30.0000000  0  9G09G26G23G29G03G27G31G16G32
 123090971.44047  95915053.86246  23423428.606    23423428.463    23423429.905
  23423429.135
 107911494.50249  84086899.77348  20534855.072    20534855.560    20534855.645
  20534855.408
 110895804.80648  86412322.07247  21102766.796    21102761.727    21102767.332

 125538810.24647  97822456.13846  23889239.725    23889236.772    23889239.774
  23889236.906
 123064802.52146  95894653.05747  23418447.030    23418446.792    23418447.129
  23418446.962
 125662213.63846  97918617.35846  23912723.670    23912723.972    23912724.534
  23912724.451
 119628293.35347  93216872.60447  22764488.201    22764485.007    22764488.586
  22764484.893
 105569158.37148  82261701.34047  20089118.835    20089115.929    20089119.780

 130863958.73846 101971921.68143  24902578.566    24902578.299    24902580.266

 16  1  1  1 11  0.0000000  0  9G09G26G23G29G03G27G31G16G32
 122994249.60947  95839686.33046  23405023.658    23405023.089    23405023.747
  23405023.058
 107947973.77849  84115325.22448  20541796.769    20541797.243    20541797.429
  20541797.142
 110843266.73249  86371383.33547  21092768.935    21092763.956    21092769.791

 125603498.70747  97872862.64546  23901549.665    23901547.277    23901549.515
  23901547.464
 123151179.16247  95961959.49047  23434884.011    23434883.746    23434884.596
  23434884.272
 125550664.38247  97831695.95646  23891496.313    23891496.703    23891497.640
  23891497.661
 119705576.04047  93277093.02047  22779193.917    22779191.230    22779194.415
  22779191.808
 105545253.77648  82243074.64947  20084569.724    20084566.760    20084570.790

 130965340.09646 102050920.08543  24921871.000    24921870.759    24921872.811

 16  1  1  1 11 30.0000000  0  9G09G26G23G29G03G27G31G16G32
 122897748.68047  95764490.81346  23386659.765    23386659.483    23386660.107
  23386658.535
 107984898.26248  84144097.58448  20548823.172    20548823.746    20548823.774
  20548824.112
 110791191.03748  86330804.83847  21082859.255    21082854.320    21082859.901

 125668658.61447  97923636.55446  23913948.166    23913945.145    23913949.780
  23913945.678
 123237804.45847  96029459.65747  23451368.448    23451368.052    23451368.403
  23451368.309
 125439196.43947  97744837.87646  23870286.200    23870285.598    23870286.161
  23870286.435
 119782990.10848  93337415.80247  22793925.988    22793922.337    22793925.571
  22793922.821
 105521905.93748  82224881.49947  20080126.581    20080123.749    20080127.633

 131066675.32246 102129882.59343  24941153.859    24941153.298    24941156.731

 16  1  1  1 12  0.0000000  0  9G09G26G23G29G03G27G31G16G32
 122801471.32347  95689469.43346  23368338.712    23368337.909    23368339.176
  23368339.309
 108022266.09548  84173215.32548  20555933.975    20555934.521    20555934.499
  20555934.857
 110739580.16748  86290588.58047  21073038.005    21073033.306    21073038.703

 125734287.46247  97974775.89346  23926437.043    23926435.609    23926437.293
  23926435.164
 123324675.32547  96097151.18147  23467899.633    23467898.950    23467899.570
  23467899.606
 125327812.82447  97658045.50746  23849088.670    23849089.341    23849090.716
  23849090.395
 119860535.28648  93397840.80247  22808681.989    22808678.675    22808681.905
  22808679.183
 105499115.17948  82207122.50547  20075789.654    20075786.865    20075790.882

 131167961.97246 102208807.21243  24960427.248    24960428.774    24960429.616

 16  1  1  1 12 30.0000000  0  9G09G26G23G29G03G27G31G16G32
 122705420.25247  95614624.51346  23350061.198    23350060.352    23350061.951
  23350060.531
 108060075.70948  84202677.26148  20563129.036    20563129.528    20563129.597
  20563129.494
 110688435.96849  86250735.94847  21063305.535    21063300.639    21063306.350

 125800384.29446  98026279.88846  23939014.178    23939012.230    23939014.870
  23939013.238
 123411788.67747  96165031.64847  23484477.049    23484477.143    23484477.216
  23484477.519
 125216516.58647  97571321.22546  23827910.539    23827911.482    23827911.169
  23827912.149
 119938211.24947  93458367.79647  22823462.261    22823459.957    22823463.130
  22823459.985
 105476881.18848  82189797.35647  20071558.725    20071555.781    20071559.920

 131269197.56846 102287692.01143  24979692.969    24979693.737    24979694.593

 16  1  1  1 13  0.0000000  0  9G09G26G23G29G03G27G31G16G32
 122609597.56747  95539957.47046  23331826.222    23331825.757    23331827.248
  23331826.685
 108098325.52548  84232482.25148  20570407.840    20570408.314    20570408.402
  20570408.153
 110637760.38948  86211248.43547  21053662.355    21053657.508    21053663.241

 125866946.04147  98078146.19846  23951681.403    23951679.113    23951682.249
  23951679.382
 123499141.31547  96233098.59247  23501100.122    23501098.814    23501099.448
  23501099.654
 125105310.63547  97484667.29546  23806749.012    23806748.992    23806749.164
  23806749.624
 120016017.32547  93518996.16747  22838268.384    22838265.071    22838269.484
  22838266.059
 105455203.65148  82172905.78347  20067433.646    20067430.783    20067434.806

 131370379.38546 102366534.90543  24998947.733    24998946.309    24998949.285

 16  1  1  1 13 30.0000000  0  9G09G26G23G29G03G27G31G16G32
 122514005.84047  95465470.38946  23313635.614    23313635.564    23313636.486
  23313636.071
 108137013.96449  84262629.11048  20577770.121    20577770.495    20577770.676
  20577770.689
 110587555.72448  86172127.83147  21044108.934    21044104.123    21044109.920

 125933970.68647  98130373.24346  23964435.883    23964433.207    23964435.832
  23964434.051
 123586730.17747  96301349.59147  23517766.624    23517766.957    23517767.141
  23517767.567
 124994197.97447  97398086.05046  23785605.215    23785605.215    23785605.708
  23785605.085
 120093952.92548  93579725.37347  22853099.577    22853095.749    22853099.449
  22853095.520
 105434082.39248  82156447.61047  20063414.319    20063411.655    20063415.547

 131471505.09846 102445334.10743  25018191.339    25018192.194    25018192.889

 16  1  1  1 14  0.0000000  0  9G09G26G23G29G03G27G31G16G32
 122418647.77947  95391165.43747  23295490.294    23295490.300    23295490.836
  23295490.879
 108176139.27548  84293116.48348  20585215.370    20585215.628    20585215.968
  20585215.746
 110537824.24548  86133376.05147  21034645.166    21034640.435    21034645.982

 126001456.08546  98182959.37446  23977278.060    23977276.126    23977278.295
  23977275.508
 123674552.10347  96369782.21046  23534479.288    23534479.805    23534479.482
  23534480.278
 124883181.58447  97311579.78346  23764478.754    23764479.870    23764480.339
  23764480.249
 120172017.46747  93640554.91947  22867954.333    22867951.251    22867954.986
  22867951.718
 105413517.32448  82140422.79747  20059501.074    20059498.203    20059502.222

 131572572.12546 102524087.61143  25037423.922    25037422.484    25037425.339

 16  1  1  1 14 30.0000000  0  9G09G26G23G29G03G27G31G16G32
 122323525.67647  95317044.33647  23277388.333    23277388.880    23277389.707
  23277388.631
 108215699.29448  84323942.44148  20592743.333    20592743.626    20592743.902
  20592743.883
 110488567.86448  86094994.48747  21025271.796    21025267.317    21025272.649

 126069399.55147  98235902.50646  23990207.085    23990205.604    23990208.157
  23990204.063
 123762604.03047  96438394.02746  23551234.887    23551235.480    23551235.107
  23551235.202
 124772264.47747  97225150.91646  23743370.866    23743372.460    23743371.929
  23743371.813
 120250210.50247  93701484.53147  22882833.909    22882831.151    22882834.740
  22882831.417
 105393508.35848  82124831.35247  20055693.494    20055690.616    20055694.508

 131673577.86346 102602793.34943  25056644.571    25056645.327    25056646.116

 16  1  1  1 15  0.0000000  0  9G09G26G23G29G03G27G31G16G32
 122228642.11247  95243109.15547  23259333.830    23259332.649    23259334.234
  23259333.314
 108255692.42848  84355105.82648  20600353.876    20600354.239    20600354.557
  20600354.457
 110439788.44448  86056984.55447  21015989.701    21015984.818    21015990.275

 126137799.44447  98289201.21946  24003223.315    24003219.800    24003224.378
  24003220.616
 123850882.77847  96507182.59746  23568034.498    23568033.785    23568034.407
  23568034.538
 124661449.71647  97138801.77046  23722284.857    23722284.325    23722285.310
  23722284.816
 120328531.95747  93762514.32547  22897738.308    22897734.703    22897738.464
  22897735.453
 105374055.29748  82109673.12747  20051991.788    20051988.858    20051992.957

 131774520.00546 102681449.50043  25075853.546    25075852.829    25075854.528

 16  1  1  1 15 30.0000000  0  9G09G26G23G29G03G27G31G16G32
 122133999.34447  95169361.52847  23241323.589    23241322.727    23241324.065
  23241323.340
 108296117.14548  84386605.53348  20608046.415    20608046.898    20608047.158
  20608046.917
 110391488.39048  86019348.19647  21006798.374    21006793.367    21006799.176

 126206652.91547  98342853.34546  24016325.023    24016323.807    24016325.788
  24016323.954
 123939385.26846  96576145.47946  23584874.965    23584874.836    23584875.277
  23584875.334
 124550740.17847  97052534.64046  23701216.115    23701217.930    23701217.002
  23701217.862
 120406980.79848  93823643.35347  22912666.138    22912662.526    22912666.561
  22912663.505
 105355157.63048  82094947.71147  20048395.661    20048392.590    20048396.573

 131875396.00546 102760054.12343  25095048.835    25095049.525    25095050.341

 16  1  1  1 16  0.0000000  0  9G09G26G23G29G03G27G31G16G32
 122039600.01847  95095803.61046  23223360.584    23223358.832    23223360.703
  23223359.189
 108336971.25048  84418439.64048  20615820.934    20615821.490    20615821.654
  20615821.806
 110343669.32448  85982086.53147  20997698.616    20997693.897    20997699.508

 126275957.59647  98396857.01446  24029513.011    24029510.999    24029514.014
  24029512.725
 124028108.32246  96645280.25546  23601758.196    23601758.606    23601758.577
  23601759.835
 124440138.98047  96966351.90946  23680170.070    23680170.705    23680171.912
  23680170.993
 120485557.53848  93884872.03447  22927619.047    22927615.604    22927620.070
  22927615.809
 105336815.07548  82080654.87047  20044905.183    20044902.053    20044906.347

 131976203.29646 102838605.18643  25114232.219    25114230.951    25114234.088

 16  1  1  1 16 30.0000000  0  9G09G26G23G29G03G27G31G16G32
 121945446.79447  95022437.55146  23205442.885    23205441.937    23205443.561
  23205442.386
 108378253.87248  84450607.89948  20623676.569    20623677.339    20623677.001
  20623677.286
 110296333.69248  85945201.57947  20988691.095    20988686.396    20988691.666

 126345712.50946  98451211.57246  24042786.621    24042784.815    24042787.283
  24042786.003
 124117048.83747  96714584.46546  23618684.109    23618683.599    23618683.742
  23618683.002
 124329649.07547  96880255.91446  23659144.544    23659146.045    23659145.291
  23659146.529
 120564260.93548  93946199.38947  22942595.870    22942592.471    22942596.203
  22942592.882
 105319027.41248  82066794.48347  20041520.053    20041517.086    20041521.242

 132076939.31646 102917100.72043  25133401.019    25133402.001    25133401.694

 16  1  1  1 17  0.0000000  0  9G09G26G23G29G03G27G31G16G32
 121851541.81847  94949264.89247  23187573.928    23187572.479    23187574.518
  23187573.377
 108419963.13348  84483108.79648  20631613.376    20631614.027    20631614.014
  20631614.319
 110249483.18348  85908694.67447  20979775.476    20979770.935    20979776.449

 126415914.60247  98505914.56146  24056146.795    24056143.754    24056147.179
  24056144.000
 124206203.68947  96784055.75046  23635649.337    23635649.242    23635649.735
  23635650.052
 124219273.51547  96794248.98546  23638141.607    23638141.330    23638141.502
  23638142.612
 120643090.72548  94007625.21947  22957596.853    22957592.912    22957597.163
  22957593.466
 105301794.14148  82053366.09447  20038240.542    20038237.541    20038241.598

 132177601.76746 102995538.94743  25152557.846    25152558.263    25152559.520

 16  1  1  1 17 30.0000000  0  9G09G26G23G29G03G27G31G16G32
 121757887.54647  94876287.43247  23169751.898    23169752.107    23169752.468
  23169752.323
 108462096.74148  84515940.28348  20639631.232    20639631.721    20639631.791
  20639632.154
 110203120.12948  85872567.56047  20970953.135    20970948.429    20970954.035

 126486561.29247  98560963.98546  24069589.621    24069587.228    24069590.065
  24069587.065
 124295569.75547  96853691.56046  23652655.570    23652654.641    23652654.839
  23652655.719
 124109015.25847  96708333.46246  23617160.278    23617160.164    23617160.459
  23617161.531
 120722046.37348  94069149.10547  22972621.351    22972617.913    22972622.628
  22972618.397
 105285114.84848  82040369.29147  20035066.601    20035063.624    20035067.608

 132278188.20946 103073917.94043  25171698.174    25171698.228    25171699.461

 16  1  1  1 18  0.0000000  0  9G09G26G23G29G03G27G31G16G32
 121664486.79347  94803507.58347  23151977.828    23151977.436    23151978.688
  23151977.735
 108504652.62948  84549100.60448  20647729.334    20647730.007    20647730.036
  20647730.335
 110157246.47048  85836821.79647  20962223.919    20962218.876    20962224.833

 126557650.06546  98616357.60846  24083117.300    24083115.556    24083118.460
  24083115.476
 124385143.88346  96923489.53046  23669700.666    23669700.119    23669699.733
  23669700.798
 123998877.40647  96622511.73646  23596201.721    23596201.823    23596202.107
  23596202.577
 120801127.08547  94130770.44247  22987670.088    22987666.276    22987670.717
  22987666.377
 105268989.38548  82027804.00647  20031998.016    20031994.945    20031999.106

 132378696.03046 103152235.66443  25190824.025    25190824.490    25190825.693

 16  1  1  1 18 30.0000000  0  9G09G26G23G29G03G27G31G16G32
 121571341.96147  94730927.18747  23134252.985    23134252.821    23134253.651
  23134253.388
 108547629.55248  84582589.03048  20655907.920    20655908.353    20655908.426
  20655908.746
 110111864.36148  85801459.11847  20953587.969    20953582.938    20953588.811

 126629178.93246  98672094.16746  24096729.022    24096727.519    24096729.029
  24096727.625
 124474923.00447  96993447.21946  23686785.047    23686784.827    23686784.452
  23686785.605
 123888862.95447  96536786.19947  23575266.313    23575266.984    23575267.568
  23575268.079
 120880332.67947  94192489.07347  23002741.673    23002738.285    23002742.107
  23002739.716
 105253417.23148  82015669.84447  20029034.651    20029031.707    20029035.899

 132479122.83146 103230490.24842  25209934.413    25209932.902    25209936.430

 16  1  1  1 19  0.0000000  0  9G09G26G23G29G03G27G31G16G32
 121478455.49547  94658548.06447  23116576.820    23116576.635    23116577.439
  23116576.891
 108591025.85448  84616404.37448  20664165.871    20664166.427    20664166.421
  20664166.190
 110066975.29948  85766480.65547  20945045.649    20945040.957    20945046.427

 126701145.54446  98728172.00346  24110424.480    24110422.083    24110424.206
  24110422.662
 124564903.92347  97063562.18046  23703907.704    23703907.824    23703908.274
  23703908.268
 123778974.90547  96451159.12046  23554355.250    23554355.311    23554356.208
  23554355.427
 120959662.84748  94254304.77747  23017838.306    23017834.923    23017839.203
  23017835.085
 105238397.95648  82003966.51047  20026176.667    20026173.574    20026177.426

 132579466.11146 103308679.75942  25229028.536    25229030.182    25229029.800

 16  1  1  1 19 30.0000000  0  9G09G26G23G29G03G27G31G16G32
 121385829.51647  94586371.72447  23098951.249    23098950.887    23098952.458
  23098951.818
 108634839.65248  84650545.10348  20672503.437    20672504.014    20672503.774
  20672504.128
 110022581.40548  85731888.04147  20936597.913    20936593.113    20936598.663

 126773547.83146  98784589.18946  24124201.403    24124199.140    24124201.922
  24124199.487
 124655083.53647  97133831.98046  23721067.935    23721068.050    23721068.253
  23721068.453
 123669216.25447  96365632.87447  23533469.119    23533469.634    23533469.663
  23533469.771
 121039117.26248  94316217.28347  23032958.283    23032954.535    23032958.328
  23032954.455
 105223930.91148  81992693.44747  20023423.830    20023420.691    20023424.930

 132679723.44946 103386802.27442  25248107.917    25248108.276    25248109.786

 16  1  1  1 20  0.0000000  0  9G09G26G23G29G03G27G31G16G32
 121293467.28247  94514401.04646  23081374.751    23081374.633    23081375.518
  23081374.836
 108679068.91148  84685009.51448  20680919.790    20680920.332    20680920.279
  20680920.332
 109978684.37948  85697682.43147  20928244.610    20928239.906    20928245.308

 126846383.44547  98841344.08546  24138062.585    24138060.063    24138062.945
  24138060.530
 124745458.68547  97204254.13647  23738265.972    23738266.623    23738266.528
  23738267.567
 123559590.18147  96280210.01547  23512607.168    23512608.649    23512609.220
  23512608.695
 121118695.09347  94378225.97246  23048101.288    23048097.122    23048101.317
  23048097.199
 105210015.74048  81981850.46047  20020775.760    20020772.709    20020776.874

 132779892.48845 103464856.02642  25267168.659    25267170.508    25267168.893

 16  1  1  1 20 30.0000000  0  9G09G26G23G29G03G27G31G16G32
 121201370.71647  94442637.20647  23063849.981    23063849.557    23063850.675
  23063850.016
 108723712.00148  84719796.43548  20689414.904    20689415.410    20689415.744
  20689415.560
 109935286.62448  85663865.95247  20919986.519    20919981.535    20919987.252

 126919649.71946  98898434.52446  24152003.974    24152001.359    24152004.670
  24152002.696
 124836026.24947  97274826.19747  23755500.568    23755500.704    23755500.723
  23755501.545
 123450099.55847  96194892.65847  23491772.564    23491773.868    23491774.295
  23491773.648
 121198396.04047  94440330.57847  23063267.668    23063264.534    23063268.651
  23063265.481
 105196652.13848  81971437.19647  20018232.767    20018229.821    20018233.827

 132879970.74745 103542839.00042  25286213.669    25286213.598    25286213.502

 16  1  1  1 21  0.0000000  0  9G09G26G23G29G03G27G31G16G32
 121109543.23647  94371083.38447  23046375.292    23046375.607    23046375.949
  23046375.523
 108768766.81748  84754904.06548  20697988.650    20697989.084    20697989.062
  20697989.240
 109892390.24248  85630440.19147  20911823.367    20911818.682    20911824.135

 126993344.58946  98955858.92546  24166027.412    24166027.310    24166028.426
  24166028.228
 124926783.06147  97345545.76746  23772771.494    23772771.532    23772771.228
  23772773.130
 123340747.53847  96109683.31547  23470962.714    23470964.714    23470964.640
  23470964.933
 121278219.67447  94502530.78046  23078457.692    23078453.591    23078457.813
  23078454.688
 105183839.53348  81961453.28547  20015794.595    20015791.907    20015795.862

 132979955.73045 103620749.33042  25305240.431    25305240.923    25305241.803

 16  1  1  1 21 30.0000000  0  9G09G26G23G29G03G27G31G16G32
 121017986.79047  94299740.78747  23028953.283    23028952.847    23028953.932
  23028953.730
 108814231.78148  84790331.29048  20706640.453    20706640.679    20706640.954
  20706640.808
 109849996.87248  85597406.32647  20903756.444    20903751.604    20903757.366

 127067465.78446  99013615.66746  24180131.593    24180130.270    24180133.132
  24180131.010
 125017726.05347  97416410.34246  23790077.165    23790076.875    23790077.784
  23790077.700
 123231537.09047  96024584.31246  23450180.123    23450181.382    23450180.353
  23450181.922
 121358165.44047  94564826.14847  23093671.222    23093667.967    23093671.609
  23093669.013
 105171577.87148  81951898.79147  20013461.414    20013458.380    20013462.412

 133079845.03644 103698585.16341  25324247.513    25324248.948    25324247.866

 16  1  1  1 22  0.0000000  0  9G09G26G23G29G03G27G31G16G32
 120926703.68047  94228611.07347  23011582.161    23011583.622    23011583.513
  23011583.517
 108860105.31448  84826077.00748  20715369.667    20715370.158    20715370.055
  20715370.522
 109808108.25148  85564765.78447  20895785.074    20895780.576    20895786.135

 127142010.23146  99071702.26946  24194317.333    24194315.323    24194318.965
  24194316.070
 125108852.02946  97487417.53546  23807418.447    23807419.166    23807418.696
  23807418.981
 123122471.24647  95939597.94746  23429426.905    23429426.811    23429427.156
  23429426.953
 121438233.07947  94627216.51147  23108907.132    23108903.778    23108907.609
  23108904.409
 105159866.10748  81942772.79947  20011232.575    20011229.579    20011233.662

 133179636.34445                                                  25343241.618

 16  1  1  1 22 30.0000000  0  9G09G26G23G29G03G27G31G16G32
 120835696.49047  94157696.34247  22994264.436    22994264.198    22994265.425
  22994264.714
 108906385.18148  84862139.26748  20724176.253    20724176.890    20724176.940
  20724177.147
 109766726.60048  85532520.37947  20887910.530    20887905.838    20887911.296

 127216976.96846  99130118.09846  24208583.573    24208581.763    24208584.021
  24208583.273
 125200157.94146  97558564.91846  23824792.236    23824793.903    23824792.352
  23824794.285
 123013553.07247  95854726.69946  23408699.714    23408700.228    23408700.941
  23408700.541
 121518421.80848  94689701.17247  23124167.273    23124162.844    23124167.392
  23124162.926
 105148703.58948  81934074.65447  20009108.422    20009105.649    20009109.508

 133279327.17945                                                  25362211.806

 16  1  1  1 23  0.0000000  0  9G09G26G23G29G03G27G31G16G32
 120744967.93447  94086998.72747  22976999.078    22976999.471    22976999.802
  22976999.392
 108953069.67548  84898516.79848  20733059.992    20733060.611    20733060.544
  20733060.893
 109725853.48148  85500671.16547  20880132.384    20880127.816    20880133.143

 127292362.09046  99188859.67846  24222929.116    24222927.220    24222929.265
  24222928.165
 125291640.57846  97629850.01446  23842201.059    23842200.861    23842201.783
  23842201.842
 122904785.63547  95769972.93646  23388002.144    23388001.811    23388003.234
  23388002.158
 121598731.09047  94752279.74247  23139448.511    23139446.068    23139449.555
  23139447.318
 105138090.08448  81925804.36547  20007088.701    20007086.038    20007089.911

 133378915.14845 103931626.5864   25381159.945    25381163.327    25381162.084

 16  1  1  1 23 30.0000000  0  9G09G26G23G29G03G27G31G16G32
 120654520.44047  94016520.14747  22959787.924    22959788.145    22959788.871
  22959787.979
 109000157.03348  84935208.26448  20742020.439    20742021.051    20742021.018
  20742021.441
 109685490.90048  85469219.72047  20872452.016    20872447.287    20872452.885

 127368163.45046  99247925.45946  24237352.934    24237352.179    24237354.413
  24237352.121
 125383296.78346  97701270.37246  23859643.820    23859644.705    23859642.993
  23859643.957
 122796171.97447  95685338.94846  23367334.355    23367333.985    23367334.352
  23367334.207
 121679160.88347  94814952.23246  23154754.461    23154750.955    23154754.871
  23154751.318
 105128024.44048  81917960.88247  20005173.491    20005170.778    20005174.510

 133478397.90045                                                  25400091.109

 16  1  1  1 24  0.0000000  0  9G09G26G23G29G03G27G31G16G32
 120564356.39047  93946262.34747  22942630.051    22942629.100    22942631.054
  22942629.716
 109047645.31248  84972212.11748  20751057.274    20751057.712    20751057.753
  20751058.072
 109645640.47848  85438167.42347  20864868.509    20864863.864    20864869.488

 127444378.62447  99307313.85446  24251858.096    24251855.946    24251857.683
  24251856.243
 125475123.45246  97772823.54446  23877116.897    23877117.103    23877117.561
  23877117.925
 122687715.14347  95600827.19146  23346694.165    23346695.213    23346694.389
  23346695.659
 121759710.54647  94877718.11346  23170082.772    23170078.722    23170083.604
  23170079.247
 105118506.53248  81910544.24947  20003362.262    20003359.421    20003363.619

 133577773.04545                                                  25419002.872

 16  1  1  1 24 30.0000000  0  8G09G26G23G29G03G27G31G16
 120474478.52047  93876227.58647  22925527.647    22925527.314    22925528.170
  22925527.284
 109095532.73048  85009526.98548  20760170.129    20760170.544    20760170.766
  20760170.387
 109606304.71848  85407516.23647  20857383.246    20857378.575    20857384.233

 127521005.94446  99367023.44946  24266438.966    24266435.206    24266439.155
  24266435.946
 125567117.39246  97844507.03246  23894622.731    23894622.888    23894623.163
  23894623.436
 122579418.10747  95516439.98647  23326086.486    23326087.209    23326087.130
  23326087.817
 121840379.88247  94940577.27546  23185433.447    23185430.023    23185433.304
  23185430.530
 105109535.87348  81903554.16147  20001655.242    20001652.484    20001656.148

 16  1  1  1 25  0.0000000  0  8G09G26G23G29G03G27G31G16
 120384888.99447  93806417.33747  22908479.217    22908479.250    22908479.593
  22908479.465
 109143817.48248  85047151.46548  20769358.329    20769358.699    20769358.863
  20769358.896
 109567485.07848  85377267.24647  20849996.249    20849991.294    20849996.856

 127598042.63146  99427052.00046  24281098.030    24281097.138    24281098.194
  24281096.300
 125659275.53747  97916318.45346  23912160.594    23912160.124    23912161.404
  23912161.465
 122471283.97947  95432179.73347  23305508.859    23305509.915    23305511.060
  23305510.330
 121921168.37247  95003529.31046  23200806.955    23200803.265    23200807.161
  23200803.571
 105101111.69048  81896989.85947  20000052.288    20000049.288    20000053.366

 16  1  1  1 25 30.0000000  0  8G09G26G23G29G03G27G31G16
 120295591.01247  93736834.42547  22891487.126    22891486.723    22891488.069
  22891487.112
 109192497.64548  85085084.05548  20778622.028    20778622.402    20778622.475
  20778622.706
 109529183.05248  85347421.50447  20842707.627    20842702.615    20842708.300

 127675485.70946  99487397.18246  24295834.901    24295833.547    24295834.783
  24295834.143
 125751594.80246  97988255.42146  23929728.041    23929729.167    23929728.321
  23929728.764
 122363315.82047  95348048.84847  23284963.642    23284964.345    23284965.259
  23284964.470
 122002075.46547  95066573.80446  23216203.037    23216199.515    23216204.327
  23216200.850
 105093233.37748  81890850.93647  19998553.120    19998550.347    19998554.133

 16  1  1  1 26  0.0000000  0  8G09G26G23G29G03G27G31G16
 120206586.89847  93667480.58047  22874550.118    22874549.112    22874550.735
  22874549.149
 109241571.30948  85123323.22748  20787960.343    20787960.758    20787960.758
  20787960.763
 109491400.84848  85317980.90347  20835517.793    20835513.155    20835518.546

 127753331.76547  99548055.84446  24310650.241    24310647.787    24310650.519
  24310648.608
 125844072.03246  98060315.47646  23947325.277    23947326.302    23947326.035
  23947326.481
 122255516.60047  95264049.60247  23264449.726    23264451.313    23264450.879
  23264450.387
 122083100.74947  95129710.40146  23231621.065    23231618.609    23231622.123
  23231619.924
 105085900.16848  81885136.74847  19997157.642    19997154.559    19997158.370

 16  1  1  1 26 30.0000000  0  8G09G26G23G29G03G27G31G16
 120117878.76347  93598357.22247  22857669.783    22857668.950    22857669.789
  22857669.775
 109291036.62448  85161867.54248  20797373.159    20797373.644    20797373.580
  20797373.739
 109454139.79048  85288946.31347  20828427.156    20828422.470    20828428.037

 127831580.12446  99609028.23046  24325539.730    24325537.771    24325540.104
  24325538.511
 125936704.17747  98132496.27446  23964953.754    23964954.152    23964953.995
  23964954.511
 122147889.51947  95180184.48047  23243969.537    23243969.177    23243969.650
  23243970.017
 122164243.68647  95192938.71646  23247062.897    23247059.885    23247063.420
  23247060.147
 105079111.21948  81879846.67147  19995865.768    19995862.665    19995866.949

 16  1  1  1 27  0.0000000  0  8G09G26G23G29G03G27G31G16
 120029469.63147  93529466.94247  22840845.481    22840845.276    22840846.081
  22840845.913
 109340891.80948  85200715.65748  20806860.330    20806861.122    20806860.867
  20806861.093
 109417402.15748  85260319.68147  20821436.270    20821431.485    20821437.301

 127910228.14246  99670312.17046  24340506.526    24340504.323    24340506.905
  24340505.197
 126029488.03647  98204795.30046  23982610.560    23982609.208    23982610.578
  23982610.206
 122040437.45747  95096455.74847  23223521.430    23223522.026    23223521.971
  23223522.377
 122245503.90447  95256258.43246  23262526.193    23262522.728    23262525.961
  23262523.403
 105072866.05648  81874980.43647  19994677.109    19994674.190    19994678.124

 16  1  1  1 27 30.0000000  0  8G09G26G23G29G03G27G31G16
 119941361.95447  93460811.63447  22824079.572    22824078.789    22824079.493
  22824078.613
 109391134.89248  85239865.97148  20816421.427    20816422.135    20816422.079
  20816422.371
 109381189.29148  85232101.91247  20814545.217    20814540.245    20814545.870

 127989272.84946  99731905.40346  24355548.111    24355545.802    24355548.572
  24355548.212
 126122420.51247  98277210.15646  24000293.346    24000294.585    24000294.682
  24000293.971
 121933163.59547  95012865.88947  23203107.520    23203108.518    23203108.314
  23203109.065
 122326880.89448  95319669.12946  23278011.862    23278008.164    23278012.622
  23278009.224
 105067163.68648  81870537.08847  19993592.078    19993589.029    19993593.060

 16  1  1  1 28  0.0000000  0  8G09G26G23G29G03G27G31G16
 119853558.37747  93392393.37947  22807370.939    22807370.258    22807371.433
  22807370.283
 109441764.17848  85279317.28848  20826056.108    20826056.550    20826056.553
  20826056.623
 109345502.94449  85204294.36747  20807754.138    20807749.169    20807754.944

 128068711.77346  99793805.68046  24370664.779    24370662.799    24370665.227
  24370663.476
 126215498.47446  98349738.34846  24018006.266    24018006.474    24018006.278
  24018006.946
 121826070.89547  94929417.20747  23182728.796    23182729.975    23182729.999
  23182730.199
 122408374.23647  95383170.47346  23293518.645    23293515.828    23293518.887
  23293515.202
 105062003.57648  81866516.26347  19992610.093    19992606.986    19992611.246

 16  1  1  1 28 30.0000000  0  8G09G26G23G29G03G27G31G16
 119766061.42047  93324214.17347  22790720.010    22790719.636    22790720.518
  22790720.276
 109492777.91348  85319068.28248  20835763.534    20835763.934    20835764.212
  20835764.290
 109310344.87348  85176898.44047  20801063.953    20801058.934    20801064.842

 128148543.46346  99856012.43746  24385856.034    24385854.278    24385856.165
  24385855.091
 126308718.79146  98422377.46246  24035745.732    24035745.907    24035746.302
  24035745.684
 121719162.43147  94846112.06147  23162384.239    23162385.166    23162385.980
  23162385.884
 122489983.59347  95446762.26046  23309049.289    23309045.196    23309050.428
  23309045.998
 105057384.70848  81862917.20947  19991731.018    19991728.011    19991732.162

 16  1  1  1 29  0.0000000  0  8G09G26G23G29G03G27G31G16
 119678873.79347  93256276.17647  22774128.449    22774128.489    22774129.323
  22774129.295
 109544173.98348  85359117.17548  20845543.790    20845544.323    20845544.388
  20845544.751
 109275717.36748  85149916.10447  20794474.269    20794469.382    20794475.246

 128228765.27546  99918523.58546  24401122.207    24401120.708    24401121.412
  24401120.220
 126402078.36346  98495125.09746  24053512.342    24053511.900    24053512.113
  24053512.798
 121612441.25947  94762952.88347  23142076.606    23142076.464    23142076.546
  23142077.215
 122571708.40448  95510443.99446  23324600.181    23324597.387    23324600.581
  23324598.354
 105053306.55848  81859739.46747  19990954.886    19990951.869    19990956.003

 16  1  1  1 29 30.0000000  0  8G09G26G23G29G03G27G31G16
 119591997.50147  93188580.73647  22757596.027    22757595.823    22757596.642
  22757595.702
 109595950.62148  85399462.67048  20855396.604    20855396.888    20855397.173
  20855397.140
 109241621.61248  85123348.04347  20787985.951    20787981.374    20787986.862

 128309372.41446  99981334.35046  24416459.459    24416457.383    24416458.907
  24416458.797
 126495574.04846  98567978.78646  24071302.804    24071304.514    24071304.096
  24071304.464
 121505910.47247  94679942.03247  23121803.456    23121803.921    23121803.818
  23121804.896
 122653548.11248  95574215.24346  23340174.673    23340170.242    23340175.600
  23340171.390
 105049768.25848  81856982.38447  19990281.652    19990278.479    19990282.677

 16  1  1  1 30  0.0000000  0  8G09G26G23G29G03G27G31G16
 119505435.10547  93121129.79547  22741123.573    22741123.348    22741124.529
  22741123.727
 109648105.89948  85440103.22948  20865321.311    20865321.836    20865321.812
  20865321.927
 109208059.16848  85097195.48547  20781599.207    20781594.485    20781600.041

 128390362.64946 100044443.02245  24431873.601    24431871.217    24431873.584
  24431871.446
 126589202.79446  98640936.20246  24089119.543    24089120.720    24089120.873
  24089120.930
 121399572.97647  94597081.78047  23101568.335    23101568.961    23101568.373
  23101568.780
 122735502.52447  95638075.84946  23355769.009    23355765.619    23355768.903
  23355766.614
 105046768.98948  81854645.30647  19989710.916    19989707.728    19989712.006

 16  1  1  1 30 30.0000000  0  8G09G26G23G29G03G27G31G16
 119419188.92747  93053925.07447  22724711.838    22724711.566    22724712.220
  22724710.965
 109700637.69648  85481037.09448  20875317.882    20875318.383    20875318.201
  20875318.299
 109175031.68548  85071459.86847  20775314.229    20775309.500    20775314.950

 128471736.96146 100107852.10445  24447357.749    24447355.123    24447357.487
  24447355.955
 126682961.48646  98713994.84246  24106961.651    24106962.797    24106961.166
  24106962.479
 121293431.98647  94514374.65347  23081370.036    23081370.108    23081370.505
  23081370.472
 122817571.01047  95702025.34446  23371386.289    23371382.463    23371388.319
  23371382.939
 105044307.78148  81852727.49647  19989242.216    19989239.129    19989243.322

 16  1  1  1 31  0.0000000  0  8G09G26G23G29G03G27G31G16
 119333261.68547  92986968.81647  22708360.132    22708360.126    22708360.702
  22708359.942
 109753544.35949  85522263.09748  20885385.587    20885386.160    20885386.330
  20885386.619
 109142541.02648  85046142.52447  20769131.417    20769126.657    20769132.324

 128553488.89246 100171555.01645  24462914.915    24462912.472    24462914.720
  24462914.273
 126776846.93046  98787152.27046  24124828.459    24124829.278    24124827.582
  24124829.362
 121187490.48547  94431822.96047  23061210.327    23061210.815    23061210.677
  23061210.294
 122899753.16747  95766063.39646  23387025.274    23387021.487    23387025.180
  23387023.064
 105042383.87848  81851228.34847  19988876.337    19988873.320    19988877.395

 16  1  1  1 31 30.0000000  0  8G09G26G23G29G03G27G31G16
 119247656.02147  92920263.09647  22692069.618    22692069.520    22692070.304
  22692069.908
 109806824.00748  85563779.76448  20895524.347    20895524.730    20895524.971
  20895525.029
 109110588.54448  85021244.46147  20763051.234    20763046.362    20763051.944

 128635616.85746 100235550.63945  24478541.571    24478541.107    24478542.600
  24478540.743
 126870856.11246  98860406.14546  24142717.710    24142717.781    24142717.167
  24142718.666
 121081751.53947  94349429.11547  23041088.341    23041088.987    23041089.317
  23041088.390
 122982048.80447  95830189.90847  23402684.917    23402682.384    23402685.709
  23402683.127
 105040996.27248  81850147.06447  19988612.350    19988609.259    19988613.643

 16  1  1  1 32  0.0000000  0  8G09G26G23G29G03G27G31G16
 119162374.37247  92853809.74747  22675841.572    22675841.652    22675842.580
  22675841.283
 109860474.66448  85605585.53048  20905733.788    20905734.125    20905734.340
  20905734.382
 109079176.15748  84996767.27147  20757073.568    20757068.855    20757074.341

 128718119.57446 100299838.37545  24494242.453    24494241.044    24494244.136
  24494241.225
 126964985.87046  98933753.96546  24160629.188    24160630.971    24160630.217
  24160632.143
 120976218.14247  94267195.37747  23021005.707    23021006.325    23021006.590
  23021006.288
 123064457.38547  95894404.44546  23418366.851    23418363.738    23418367.712
  23418363.370
 105040144.17848  81849483.03447  19988450.440    19988447.153    19988451.530

 16  1  1  1 32 30.0000000  0  8G09G26G23G29G03G27G31G16
 119077419.57547  92787611.16847  22659674.969    22659674.785    22659675.345
  22659675.164
 109914494.47148  85647678.96848  20916013.208    20916013.620    20916013.798
  20916013.814
 109048305.52348  84972712.26647  20751199.011    20751194.377    20751199.902

 128800993.90446 100364416.10146  24510012.479    24510012.424    24510012.527
  24510012.804
 127059233.09946  99007193.30046  24178564.289    24178565.074    24178564.640
  24178565.033
 120870893.51747  94185124.39247  23000963.233    23000963.639    23000964.339
  23000964.557
 123146978.27447  95958706.49646  23434070.349    23434066.954    23434070.515
  23434068.268
 105039826.69648  81849235.57147  19988389.834    19988386.865    19988391.104

 16  1  1  1 33  0.0000000  0  8G09G26G23G29G03G27G31G16
 118992794.10147  92721669.22447  22643571.469    22643570.884    22643572.132
  22643571.452
 109968881.29948  85690058.29748  20926362.720    20926363.063    20926363.397
  20926363.209
 109017977.97048  84949080.45347  20745427.923    20745423.144    20745428.690

 128884237.33646 100429281.35546  24525853.220    24525850.818    24525855.018
  24525852.114
 127153594.67346  99080721.75546  24196521.327    24196520.393    24196521.035
  24196521.855
 120765780.53247  94103218.26247  22980960.252    22980961.661    22980960.757
  22980961.193
 123229611.16647  96023095.77646  23449795.763    23449791.400    23449795.757
  23449792.379
 105040043.21848  81849404.26747  19988431.150    19988428.163    19988432.170

 16  1  1  1 33 30.0000000  0  8G09G26G23G29G03G27G31G16
 118908500.52548  92655985.96647  22627531.052    22627530.098    22627531.765
  22627531.233
 110023633.53348  85732722.41648  20936781.619    20936781.989    20936782.228
  20936782.232
 108988195.01948  84925873.03547  20739760.355    20739755.501    20739761.205

 128967846.28846 100494431.11545  24541763.690    24541762.261    24541763.771
  24541762.102
 127248067.57546  99154336.95546  24214498.125    24214499.097    24214498.709
  24214498.617
 120660882.39847  94021479.58747  22961000.042    22960999.575    22961000.412
  22960999.275
 123312355.52947  96087571.96846  23465540.716    23465537.124    23465541.307
  23465537.715
 105040792.31548  81849987.95147  19988573.693    19988570.457    19988574.587

 16  1  1  1 34  0.0000000  0  8G09G26G23G29G03G27G31G16
 118824541.21447  92590563.14447  22611553.896    22611553.762    22611554.263
  22611553.975
 110078749.17648  85775669.70748  20947269.871    20947270.161    20947270.448
  20947270.267
 108958958.09448  84903091.00847  20734196.911    20734192.018    20734197.636

 129051818.98046 100559864.28745  24557743.928    24557742.679    24557743.957
  24557741.561
 127342648.62146  99228036.37246  24232496.399    24232497.104    24232496.916
  24232498.641
 120556202.01947  93939910.52647  22941079.000    22941079.626    22941079.271
  22941079.091
 123395211.01747  96152134.70546  23481307.747    23481303.503    23481308.848
  23481304.193
 105042073.56048  81850986.48347  19988817.479    19988814.161    19988818.592

 16  1  1  1 34 30.0000000  0  8G09G26G23G29G03G27G31G16
 118740918.70147  92525402.73447  22595641.428    22595640.663    22595641.923
  22595641.333
 110134226.27448  85818898.63448  20957826.579    20957827.083    20957827.408
  20957827.143
 108930269.02448  84880735.87847  20728737.594    20728732.678    20728738.402

 129136152.99446 100625579.30345  24573791.506    24573787.813    24573791.379
  24573788.205
 127437334.75146  99301817.69146  24250514.708    24250515.950    24250514.793
  24250514.721
 120451742.58747  93858513.66947  22921200.930    22921201.933    22921201.633
  22921200.922
 123478177.08747  96216783.62246  23497095.764    23497091.428    23497096.186
  23497091.765
 105043885.69048  81852398.65447  19989162.247    19989158.951    19989163.452

 16  1  1  1 35  0.0000000  0  8G09G26G23G29G03G27G31G16
 118657635.69047  92460506.91047  22579793.324    22579792.646    22579793.775
  22579793.045
 110190062.90648  85862407.70948  20968451.924    20968452.483    20968452.593
  20968452.508
 108902129.04048  84858808.57747  20723382.614    20723377.639    20723383.387

 129220845.14046 100691573.19345  24589908.426    24589905.938    24589907.335
  24589906.107
 127532122.85446  99375678.43046  24268552.264    24268552.348    24268553.659
  24268553.574
 120347507.07347  93777291.28947  22901366.144    22901366.144    22901366.938
  22901366.537
 123561253.53547  96281518.52746  23512904.775    23512900.992    23512904.753
  23512900.296
 105046227.73648  81854223.68647  19989607.823    19989604.672    19989608.910

 16  1  1  1 35 30.0000000  0  8G09G26G23G29G03G27G31G16
 118574694.49147  92395877.39447  22564009.307    22564009.427    22564010.360
  22564009.816
 110246257.18548  85906195.44448  20979145.364    20979145.881    20979146.053
  20979145.515
 108874539.91348  84837310.55547  20718132.735    20718127.644    20718133.570

 129305893.95146 100757845.22145  24606090.906    24606091.686    24606092.774
  24606091.734
 127627009.94946  99449616.33446  24286609.118    24286609.249    24286608.802
  24286609.886
 120243498.57347  93696245.81347  22881573.023    22881574.253    22881573.780
  22881574.555
 123644439.70447  96346338.94746  23528734.428    23528730.316    23528733.857
  23528731.014
 105049098.52148  81856460.62547  19990154.180    19990151.094    19990155.114

 16  1  1  1 36  0.0000000  0  8G09G26G23G29G03G27G31G16
 118492097.69547  92331516.19847  22548291.745    22548291.543    22548292.648
  22548291.949
 110302807.15448  85950260.31848  20989906.523    20989907.072    20989907.164
  20989907.260
 108847503.13048  84816242.94747  20712987.690    20712982.664    20712988.543

 129391295.81246 100824392.36545  24622343.029    24622340.323    24622344.674
  24622341.887
 127721992.83846  99523628.86846  24304683.521    24304684.942    24304684.379
  24304686.606
 120139720.03847  93615379.47947  22861825.451    22861824.638    22861825.924
  22861825.072
 123727735.32447  96411244.64846  23544584.804    23544580.235    23544585.056
  23544582.856
 105052496.85348  81859108.55047  19990800.977    19990797.883    19990801.990

 16  1  1  1 36 30.0000000  0  8G09G26G23G29G03G27G31G16
 118409848.03947  92267425.58347  22532640.445    22532639.921    22532641.377
  22532640.001
 110359711.08848  85994601.06648  21000735.098    21000735.495    21000735.871
  21000735.581
 108821019.86648  84795606.61647  20707948.050    20707943.047    20707948.912

 129477048.03846 100891212.36945  24638659.870    24638658.241    24638661.741
  24638660.023
 127817068.55446  99597713.71946  24322776.297    24322776.806    24322776.080
  24322778.004
 120036174.70947  93534694.91747  22842121.067    22842121.114    22842122.303
  22842121.816
 123811139.77847  96476235.14346  23560455.670    23560451.915    23560456.840
  23560452.194
 105056422.47348  81862167.57447  19991547.850    19991544.644    19991548.941

 16  1  1  1 37  0.0000000  0  8G09G26G23G29G03G27G31G16
 118327947.80947  92203607.20847  22517055.737    22517055.765    22517056.355
  22517055.219
 110416966.90248  86039215.99448  21011630.461    21011630.869    21011631.138
  21011631.345
 108795091.68048  84775402.78947  20703014.280    20703009.186    20703015.042

 129563148.09746 100958303.36445  24655046.774    24655043.124    24655046.806
  24655042.892
 127912233.96146  99671868.51146  24340886.266    24340886.216    24340887.054
  24340886.518
 119932865.47747  93454194.30347  22822461.231    22822461.981    22822463.441
  22822461.936
 123894652.85647  96541310.30046  23576348.693    23576344.402    23576349.069
  23576343.736
 105060873.96548  81865636.38547  19992394.724    19992391.608    19992395.828

 16  1  1  1 37 30.0000000  0  8G09G26G23G29G03G27G31G16
 118246399.55447  92140063.04847  22501537.877    22501537.036    22501538.564
  22501537.071
 110474572.76648  86084103.72048  21022592.483    21022593.079    21022593.285
  21022593.199
 108769720.22648  84755632.94147  20698186.033    20698181.177    20698186.708

 129649593.67746 101025663.58445  24671495.335    24671493.892    24671496.253
  24671494.011
 128007486.05446  99746090.76346  24359011.814    24359012.161    24359012.116
  24359013.297
 119829795.34647  93373880.00347  22802848.224    22802847.889    22802849.434
  22802848.185
 123978274.09647  96606469.74446  23592260.743    23592257.128    23592261.191
  23592258.823
 105065849.98848  81869513.78147  19993341.748    19993338.563    19993342.666

 16  1  1  1 38  0.0000000  0  9G09G26G23G29G03G27G31G16G08
 118165205.82447  92076795.14547  22486086.592    22486086.154    22486087.277
  22486086.914
 110532526.43148  86129262.32948  21033621.030    21033621.359    21033621.642
  21033621.261
 108744906.71548  84736297.83747  20693464.280    20693459.250    20693464.911

 129736381.72745 101093290.51545  24688011.005    24688008.995    24688012.239
  24688008.945
 128102821.70946  99820378.24346  24377153.142    24377154.943    24377153.181
  24377153.856
 119726967.59347  93293754.61547  22783280.817    22783280.726    22783282.162
  22783280.379
 124062002.95247  96671713.03646  23608193.639    23608189.913    23608192.844
  23608189.744
 105071349.16548  81873798.85447  19994388.294    19994385.058    19994389.459

 131283748.85545 102299020.68444  24982462.538    24982465.814    24982465.185
  24982464.772
 16  1  1  1 38 30.0000000  0  9G09G26G23G29G03G27G31G16G08
 118084369.48647  92013805.88147  22470703.957    22470703.603    22470704.758
  22470704.000
 110590826.42748  86174690.87148  21044714.914    21044715.325    21044715.501
  21044715.186
 108720652.50148  84717398.49047  20688848.714    20688843.801    20688849.410

 129823510.28345 101161182.85645  24704589.816    24704588.059    24704591.396
  24704590.281
 128198237.90646  99894728.45546  24395310.921    24395310.220    24395310.654
  24395310.512
 119624384.93547  93213820.13547  22763760.051    22763760.259    22763761.233
  22763760.289
 124145838.91447  96737039.82546  23624148.003    23624143.849    23624147.896
  23624142.977
 105077371.15848  81878491.31747  19995534.276    19995530.949    19995535.396

 131169985.09646 102210373.57744  24960816.639    24960816.970    24960816.631
  24960816.911
 16  1  1  1 39  0.0000000  0  9G09G26G23G29G03G27G31G16G08
 118003892.68747  91951096.76247  22455389.838    22455389.362    22455390.771
  22455389.595
 110649470.69148  86220387.69848  21055874.553    21055875.045    21055875.212
  21055875.038
 108696958.48748  84698935.49247  20684339.858    20684335.113    20684340.908

 129910975.83545 101229337.83545  24721232.606    24721232.932    24721235.692
  24721231.793
 128293731.63946  99969139.09246  24413482.071    24413482.816    24413482.796
  24413483.772
 119522050.60647  93134079.15447  22744286.376    22744285.836    22744287.232
  22744287.270
 124229781.79547  96802449.89946  23640120.664    23640117.837    23640121.284
  23640118.465
 105083914.88048  81883590.37847  19996779.327    19996776.152    19996780.505

 131056186.73145 102121699.52945  24939161.864    24939162.235    24939160.755
  24939159.797
 16  1  1  1 39 30.0000000  0  9G09G26G23G29G03G27G31G16G08
 117923777.80148  91888669.53347  22440144.929    22440143.995    22440145.689
  22440143.721
 110708457.26848  86266351.24948  21067099.235    21067099.893    21067099.870
  21067100.063
 108673826.46448  84680910.49047  20679938.037    20679933.212    20679938.958

 129998776.31045 101297753.76445  24737943.561    24737940.108    24737943.992
  24737939.683
 128389299.69946 100043607.67146  24431668.681    24431669.540    24431669.356
  24431669.534
 119419967.69747  93054534.10347  22724860.765    22724860.218    22724860.996
  22724860.630
 124313830.90947  96867942.72646  23656114.312    23656111.378    23656114.649
  23656111.531
 105090978.83048  81889094.66847  19998123.667    19998120.580    19998124.622

 130942355.90745 102033000.15445  24917498.081    24917499.801    24917500.867
  24917499.694
 16  1  1  1 40  0.0000000  0  9G09G26G23G29G03G27G31G16G08
 117844027.57148  91826526.45947  22424968.516    22424967.754    22424968.976
  22424968.197
 110767784.17048  86312579.96648  21078388.689    21078389.392    21078389.470
  21078389.333
 108651257.82048  84663324.57547  20675643.284    20675638.610    20675644.185

 130086909.60245 101366429.01345  24754714.081    24754709.714    24754715.582
  24754711.687
 128484939.08446 100118131.76646  24449867.778    24449868.914    24449867.942
  24449869.956
 119318139.18247  92975187.30947  22705482.924    22705482.362    22705483.182
  22705482.889
 124397985.85347  96933518.04446  23672128.880    23672125.054    23672129.189
  23672126.166
 105098561.75848  81895003.37247  19999566.579    19999563.604    19999567.848

 130828495.39245 101944277.68045  24895832.197    24895833.270    24895833.692
  24895834.485
 16  1  1  1 40 30.0000000  0  9G09G26G23G29G03G27G31G16G08
 117764644.28248  91764669.23047  22409862.606    22409861.919    22409863.326
  22409862.288
 110827449.55548  86359072.43848  21089742.729    21089743.392    21089743.248
  21089743.380
 108629253.99648  84646178.77747  20671456.210    20671451.234    20671457.038

 130175371.99744 101435360.89845  24771545.102    24771544.842    24771546.126
  24771546.431
 128580646.85446 100192709.21946  24468080.827    24468081.755    24468080.128
  24468083.271
 119216568.08147  92896041.08747  22686155.177    22686154.256    22686155.619
  22686154.343
 124482246.45947  96999175.70246  23688163.490    23688160.115    23688163.711
  23688160.108
 105106663.08748  81901316.14347  20001108.297    20001105.110    20001109.453

 130714607.97246 101855534.21545  24874159.632    24874160.627    24874161.103
  24874162.260
 16  1  1  1 41  0.0000000  0  9G09G26G23G29G03G27G31G16G08
 117685630.80847  91703100.25347  22394826.885    22394826.357    22394827.611
  22394827.015
 110887451.54248  86405827.23048  21101160.829    21101161.292    21101161.433
  21101161.465
 108607815.87348  84629473.69147  20667376.563    20667371.897    20667377.328

 130264160.51645 101504546.78045  24788444.532    24788440.143    24788444.176
  24788442.093
 128676419.89746 100267337.49546  24486305.302    24486306.489    24486306.307
  24486307.663
 119115257.36147  92817097.74047  22666875.543    22666875.483    22666876.589
  22666875.888
 124566612.17547  97064915.25746  23704216.979    23704213.505    23704217.050
  23704213.740
 105115280.80048  81908031.09647  20002748.288    20002745.159    20002749.381

 130600695.57846 101766771.24845  24852483.694    24852484.141    24852485.552
  24852486.040
 16  1  1  1 41 30.0000000  0  9G09G26G23G29G03G27G31G16G08
 117606989.61748  91641821.43347  22379861.870    22379861.364    22379862.165
  22379861.477
 110947788.15448  86452842.77148  21112642.535    21112643.120    21112643.018
  21112643.382
 108586945.05548  84613210.76747  20663404.951    20663400.193    20663405.664

 130353273.78345 101573985.71045  24805402.103    24805399.434    24805403.277
  24805402.698
 128772255.13846 100342014.26346  24504543.124    24504543.280    24504542.824
  24504544.006
 119014210.17547  92738359.77147  22647647.682    22647647.657    22647647.648
  22647647.807
 124651082.50947  97130736.32946  23720291.932    23720288.344    23720291.402
  23720288.695
 105124414.24048  81915148.00747  20004486.464    20004483.310    20004487.444

 130486761.11746 101677991.11245  24830802.720    24830804.511    24830803.552
  24830805.783
 16  1  1  1 42  0.0000000  0 10G09G26G23G29G03G27G31G16G08G07
 117528723.18147  91580834.68547  22364967.901    22364967.602    22364968.606
  22364967.810
 111008457.54348  86500117.64848  21124187.590    21124188.109    21124188.199
  21124187.872
 108566642.55649  84597390.71147  20659541.480    20659536.613    20659542.303

 130442708.38045 101643674.95045  24822414.881    24822408.011    24822421.370
  24822418.055
 128868149.57746 100416737.11446  24522790.392    24522791.576    24522790.838
  24522792.575
 118913429.48047  92659829.45247  22628469.010    22628468.995    22628469.959
  22628469.132
 124735656.90547  97196638.48146  23736385.182    23736381.357    23736385.575
  23736381.843
 105134062.42648  81922666.02847  20006322.437    20006319.260    20006323.568

 130372806.92946 101589195.60646  24809117.356    24809121.103    24809117.980
  24809120.396
 132626895.55745                                                  25238056.128
  25238053.275
 16  1  1  1 42 30.0000000  0 10G09G26G23G29G03G27G31G16G08G07
 117450833.79948  91520141.71347  22350146.197    22350145.898    22350146.789
  22350146.448
 111069457.67048  86547650.23348  21135795.405    21135795.760    21135796.069
  21135796.166
 108546909.73848  84582014.48147  20655786.577    20655781.791    20655787.264

 130532462.86445                                                  24839501.461

 128964100.16946 100491503.71746  24541050.691    24541050.795    24541049.961
  24541051.444
 118812918.25848  92581509.05747  22609342.594    22609342.016    22609343.068
  22609342.147
 124820334.96847  97262621.41246  23752499.047    23752495.155    23752498.630
  23752496.482
 105144224.01048  81930584.24147  20008256.166    20008252.725    20008257.415

 130258835.52246 101500386.65346  24787428.641    24787432.359    24787430.027
  24787433.459
 132534357.58945                                                  25220449.513
  25220446.358
 16  1  1  1 43  0.0000000  0 10G09G26G23G29G03G27G31G16G08G07
 117373323.97148  91459744.43547  22335396.410    22335396.403    22335397.126
  22335396.326
 111130786.53248  86595438.91548  21147465.985    21147466.378    21147466.530
  21147466.394
 108527747.61848  84567082.94447  20652140.060    20652135.519    20652140.820

 130622533.41344                                                  24856640.561

 129060103.92246 100566311.74546  24559318.992    24559319.515    24559317.994
  24559321.126
 118712679.53647  92503401.02347  22590267.929    22590267.050    22590268.399
  22590267.299
 124905116.53747  97328684.98346  23768632.741    23768628.724    23768632.378
  23768628.599
 105154897.88148  81938901.66847  20010287.321    20010283.883    20010288.405

 130144849.84446 101411566.56346  24765738.898    24765740.911    24765739.475
  24765741.788
 132441789.25445                                                  25202833.237
  25202830.802
 16  1  1  1 43 30.0000000  0 10G09G26G23G29G03G27G31G16G08G07
 117296196.26848  91399644.89247  22320719.965    22320719.342    22320720.879
  22320719.808
 111192442.42448  86643482.47848  21159198.715    21159199.078    21159199.344
  21159199.009
 108509157.36848  84552596.92047  20648602.514    20648597.933    20648603.353

 130712916.73945                                                  24873839.801
  24873837.681
 129156157.84446 100641158.93246  24577598.603    24577598.106    24577597.568
  24577598.982
 118612716.43848  92425507.77947  22571245.492    22571244.388    22571246.021
  22571244.863
 124990000.96247  97394828.70846  23784784.922    23784781.264    23784785.096
  23784781.250
 105166082.28048  81947616.81347  20012415.346    20012412.279    20012416.507

 130030851.98146 101322737.02546  24744045.872    24744048.081    24744046.878
  24744048.235
 132349190.75545                                                  25185211.928
  25185207.259
 16  1  1  1 44  0.0000000  0 10G09G26G23G29G03G27G31G16G08G07
 117219453.08248  91339844.96347  22306116.600    22306115.979    22306117.220
  22306116.312
 111254423.29948  86691779.28948  21170993.276    21170993.712    21170993.946
  21170993.898
 108491140.48048  84538557.75647  20645174.067    20645169.368    20645175.144

 130803610.99945                                                  24891098.151
  24891096.549
 129252258.86146 100716042.76546  24595885.319    24595886.550    24595884.581
  24595886.749
 118513031.94447  92347831.64447  22552275.361    22552275.466    22552275.994
  22552275.449
 125074987.94147  97461052.34046  23800958.080    23800954.798    23800958.036
  23800954.879
 105177775.33748  81956727.89147  20014640.794    20014637.825    20014641.819

 129916844.71146 101233900.15646  24722351.828    24722353.021    24722352.546
  24722353.809
 132256562.85146 103057062.26245  25167586.214    25167582.755    25167586.082
  25167584.308
 16  1  1  1 44 30.0000000  0 10G09G26G23G29G03G27G31G16G08G07
 117143097.00847  91280346.69947  22291586.033    22291585.386    22291586.900
  22291586.133
 111316727.15648  86740327.70648  21182849.398    21182849.938    21182850.068
  21182849.943
 108473697.83148  84524966.00147  20641854.936    20641850.212    20641855.694

 130894611.64444 101995808.3994   24908411.474    24908412.046    24908412.811

 129348404.06346 100790961.06146  24614179.357    24614181.609    24614180.255
  24614181.914
 118413629.05447  92270374.97147  22533359.951    22533359.770    22533360.256
  22533360.023
 125160076.96647  97527355.47146  23817149.625    23817146.881    23817150.366
  23817146.954
 105189977.26748  81966235.82447  20016962.787    20016959.725    20016963.708

 129802830.70746 101145058.04746  24700654.786    24700655.750    24700655.107
  24700658.043
 132163906.22746 102984862.22645  25149952.627    25149951.575    25149953.102
  25149951.002
 16  1  1  1 45  0.0000000  0  9G09G26G23G03G27G31G16G08G07
 117067130.60748  91221152.12347  22277129.954    22277129.374    22277130.901
  22277129.870
 111379352.27848  86789126.52248  21194766.525    21194767.037    21194767.011
  21194767.133
 108456830.66548  84511822.70447  20638645.277    20638640.551    20638646.024

 129444590.29446 100865911.32846  24632485.174    24632485.051    24632484.404
  24632486.575
 118314510.57147  92193139.79447  22514498.853    22514497.388    22514499.431
  22514498.069
 125245267.52747  97593737.73846  23833361.475    23833357.427    23833362.280
  23833358.356
 105202686.61948  81976139.34747  20019381.216    20019378.149    20019382.514

 129688812.24746 101056212.48846  24678958.463    24678959.540    24678958.037
  24678960.941
 132071221.44146 102912640.27545  25132316.600    25132313.842    25132317.001
  25132315.363
 16  1  1  1 45 30.0000000  0  9G09G26G23G03G27G31G16G08G07
 116991556.13147  91162262.90047  22262748.687    22262748.192    22262749.292
  22262748.557
 111442296.73748  86838174.22448  21206744.244    21206744.882    21206744.759
  21206745.322
 108440539.94648  84499128.64447  20635545.358    20635540.552    20635545.865

 129540814.64546 100940891.30746  24650794.560    24650795.821    24650795.280
  24650796.453
 118215679.79547  92116128.85447  22495691.281    22495691.055    22495691.805
  22495691.337
 125330559.21447  97660198.81246  23849591.167    23849587.996    23849592.008
  23849587.463
 105215901.81348  81986437.06747  20021895.933    20021892.761    20021897.043

 129574792.17146 100967365.67646  24657260.057    24657262.674    24657260.632
  24657262.804
 131978508.95446 102840396.80945  25114672.317    25114671.761    25114673.371
  25114672.439
 16  1  1  1 46  0.0000000  0  9G09G26G23G03G27G31G16G08G07
 116916376.34848  91103681.31047  22248442.344    22248442.014    22248443.046
  22248442.295
 111505558.39048  86887469.02748  21218782.567    21218783.027    21218783.020
  21218783.290
 108424826.60549  84486884.40947  20632555.309    20632550.474    20632556.250

 129637074.13146 101015898.66546  24669113.542    24669114.134    24669113.594
  24669114.049
 118117139.62348  92039344.39647  22476939.825    22476939.360    22476940.436
  22476939.511
 125415951.50247  97726738.25946  23865841.772    23865837.112    23865841.669
  23865838.291
 105229621.22948  81997127.58347  20024506.431    20024503.424    20024507.501

 129460772.87646 100878519.50346  24635562.257    24635565.918    24635564.275
  24635566.321
 131885768.93746 102768131.82745  25097026.237    25097022.116    25097026.197
  25097020.970
 16  1  1  1 46 30.0000000  0  9G09G26G23G03G27G31G16G08G07
 116841593.42648  91045408.90347  22234211.957    22234211.258    22234212.560
  22234211.021
 111569135.35048  86937009.48948  21230880.911    21230881.462    21230881.612
  21230881.489
 108409692.17348  84475091.33847  20629675.063    20629670.414    20629676.009

 129733365.74546 101090931.05346  24687436.799    24687437.443    24687436.845
  24687438.214
 118018892.96048  91962788.61247  22458244.485    22458242.957    22458244.888
  22458243.566
 125501444.21047  97793355.95446  23882110.060    23882106.412    23882110.635
  23882106.552
 105243843.20748  82008209.41447  20027212.988    20027210.024    20027214.123

 129346757.00246 100789675.98846  24613867.442    24613869.279    24613868.174
  24613870.596
 131793002.37646 102695846.15845  25079371.584    25079371.642    25079373.084
  25079372.146
 16  1  1  1 47  0.0000000  0  9G09G26G23G03G27G31G16G08G07
 116767209.92448  90987447.72047  22220057.065    22220056.307    22220057.437
  22220055.807
 111633025.84648  86986794.29348  21243038.943    21243039.349    21243039.658
  21243039.267
 108395137.76848  84463750.29947  20626905.534    20626900.759    20626906.246

 129829686.43846 101165986.10646  24705765.347    24705766.746    24705766.440
  24705767.048
 117920942.99248  91886464.05847  22439604.970    22439604.303    22439605.764
  22439604.134
 125587036.79147  97860051.44646  23898397.317    23898394.001    23898398.398
  23898393.834
 105258567.42548  82019682.90047  20030014.882    20030011.755    20030015.886

 129232747.02446 100700837.03646  24592171.902    24592173.844    24592172.897
  24592175.543
 131700209.73346 102623540.21845  25061715.249    25061711.450    25061715.643
  25061712.913
 16  1  1  1 47 30.0000000  0  9G09G26G23G03G27G31G16G08G07
 116693228.37647  90929799.80447  22205978.278    22205978.235    22205979.051
  22205978.393
 111697228.00348  87036822.01348  21255256.088    21255256.627    21255256.610
  21255256.640
 108381164.20148  84452861.93147  20624246.422    20624241.520    20624247.154

 129926033.37346 101241061.60446  24724098.476    24724100.950    24724099.676
  24724101.249
 117823292.38748  91810372.69547  22421022.302    22421022.114    22421023.028
  22421022.276
 125672728.78547  97926824.42446  23914705.126    23914701.159    23914705.426
  23914701.748
 105273791.96148  82031546.17247  20032912.122    20032908.947    20032913.070

 129118745.74246 100612004.88546  24570477.852    24570479.934    24570478.508
  24570481.682
 131607391.51146 102551214.32945  25044052.079    25044050.210    25044051.927
  25044050.224
 16  1  1  1 48  0.0000000  0  9G09G26G23G03G27G31G16G08G07
 116619651.21747  90872467.02047  22191977.570    22191977.093    22191978.173
  22191977.200
 111761739.70948  87087090.89748  21267532.209    21267532.622    21267532.716
  21267532.810
 108367771.68748  84442426.14547  20621697.879    20621693.132    20621698.817

 130022403.44546 101316155.11746  24742437.940    24742439.110    24742438.788
  24742440.654
 117725944.44747  91734517.23347  22402497.733    22402496.773    22402498.410
  22402496.770
 125758519.95347  97993674.63646  23931029.228    23931026.768    23931029.898
  23931026.727
 105289515.32948  82043798.00847  20035904.207    20035901.025    20035905.547

 129004755.71146 100523181.51146  24548786.853    24548788.107    24548786.850
  24548788.336
 131514548.40446 102478869.09745  25026384.827    25026381.919    25026385.708
  25026381.667
 16  1  1  1 48 30.0000000  0  9G09G26G23G03G27G31G16G08G07
 116546480.77948  90815451.15647  22178053.618    22178052.918    22178053.998
  22178053.586
 111826559.02548  87137599.43248  21279866.985    21279867.402    21279867.740
  21279867.577
 108354961.75948  84432444.29147  20619260.147    20619255.557    20619261.094

 130118793.78546 101391264.42446  24760780.278    24760781.011    24760781.079
  24760782.308
 117628901.98047  91658899.77047  22384031.048    22384030.812    22384032.138
  22384031.454
 125844409.55947  98060601.56946  23947374.434    23947371.080    23947374.043
  23947370.988
 105305736.68948  82056438.01047  20038991.089    20038987.959    20038992.269

 128890779.20046 100434368.67146  24527097.859    24527098.634    24527098.713
  24527099.305
 131421680.70947 102406504.79246  25008712.004    25008710.940    25008713.145
  25008709.482
 16  1  1  1 49  0.0000000  0  9G09G26G23G03G27G31G16G08G07
 116473719.40748  90758753.97047  22164207.518    22164206.717    22164208.348
  22164206.876
 111891684.11448  87188346.20648  21292260.017    21292260.391    21292260.459
  21292260.468
 108342735.89149  84422917.59947  20616933.986    20616929.230    20616934.985

 130215201.37246 101466387.17046  24779126.447    24779127.806    24779127.126
  24779128.871
 117532167.98648  91583522.66447  22365623.126    22365622.602    22365624.008
  22365622.970
 125930397.19147  98127604.86346  23963737.594    23963733.612    23963736.924
  23963733.844
 105322454.58348  82069465.11247  20042172.355    20042169.157    20042173.223

 128776819.13247 100345568.64946  24505412.204    24505413.524    24505412.357
  24505414.226
 131328789.07446 102334121.85946  24991035.952    24991033.451    24991035.054
  24991033.085
 16  1  1  1 49 30.0000000  0  9G09G26G23G03G27G31G16G08G07
 116401369.78248  90702377.68347  22150439.816    22150438.875    22150440.369
  22150439.545
 111957113.18248  87239329.90948  21304710.743    21304711.206    21304711.146
  21304711.334
 108331094.65848  84413846.48347  20614718.616    20614713.783    20614719.351

 130311623.33046 101541521.16846  24797475.136    24797476.721    24797475.641
  24797475.838
 117435745.56447  91508388.41947  22347274.825    22347274.171    22347275.436
  22347275.013
 126016482.44747  98194684.20246  23980118.498    23980115.506    23980119.107
  23980115.507
 105339667.23248  82082877.65447  20045447.744    20045444.511    20045448.817

 128662878.12046 100256783.45346  24483730.785    24483730.753    24483730.150
  24483730.304
 131235873.92546 102261720.49646  24973354.511    24973353.253    24973354.773
  24973353.140
 16  1  1  1 50  0.0000000  0  9G09G26G23G03G27G31G16G08G07
 116329434.18048  90646323.99147  22136751.032    22136750.220    22136751.810
  22136750.543
 112022844.20048  87290548.88348  21317219.076    21317219.292    21317219.662
  21317219.174
 108320038.48748  84405231.20447  20612614.754    20612609.943    20612615.632

 130408056.59746 101616663.95546  24815826.403    24815824.884    24815826.105
  24815826.691
 117339637.41347  91433498.97047  22328985.911    22328985.269    22328986.662
  22328986.349
 126102665.03547  98261839.39146  23996517.945    23996514.525    23996519.690
  23996515.975
 105357373.24248  82096674.54647  20048817.054    20048813.861    20048818.144

 128548958.46346 100168014.94646  24462051.635    24462053.000    24462052.007
  24462052.760
 131142935.86646 102189301.21246  24955668.075    24955666.600    24955668.760
  24955667.364
 16  1  1  1 50 30.0000000  0  9G09G26G23G03G27G31G16G08G07
 116257915.14548  90590594.93747  22123141.689    22123140.970    22123142.114
  22123140.990
 112088875.23948  87342001.63248  21329784.414    21329784.679    21329784.957
  21329784.928
 108309569.04448  84397073.19347  20610622.520    20610617.526    20610623.525

 130504498.33246 101691813.34346  24834177.070    24834178.454    24834177.110
  24834179.377
 117243846.66748  91358856.89747  22310757.313    22310756.920    22310757.977
  22310757.731
 126188944.47747  98329070.05646  24012936.290    24012933.922    24012938.011
  24012934.237
 105375571.35948  82110854.88847  20052279.874    20052276.945    20052280.897

 128435063.06446 100079265.29546  24440378.529    24440378.397    24440378.773
  24440379.626
 131049975.79246 102116864.82046  24937978.691    24937977.018    24937979.094
  24937977.354
 16  1  1  1 51  0.0000000  0  9G09G26G23G03G27G31G16G08G07
 116186814.82648  90535192.08247  22109611.518    22109610.865    22109611.704
  22109611.056
 112155204.44348  87393686.70848  21342406.312    21342406.614    21342406.803
  21342406.519
 108299687.19948  84389373.11347  20608741.787    20608737.032    20608742.677

 130600945.50746 101766966.93146  24852531.594    24852532.492    24852532.093
  24852532.477
 117148376.30247  91284464.48047  22292590.278    22292589.486    22292590.648
  22292590.589
 126275320.21447  98396375.74046  24029375.028    24029370.324    24029374.400
  24029371.255
 105394259.90448  82125417.30347  20055836.192    20055833.344    20055837.299

 128321194.52246  99990536.59446  24418708.785    24418711.516    24418709.944
  24418712.567
 130956993.76446 102044411.22846  24920284.956    24920283.724    24920285.556
  24920282.915
 16  1  1  1 51 30.0000000  0  9G09G26G23G03G27G31G16G08G07
 116116135.74547  90480117.43447  22096161.577    22096160.935    22096162.176
  22096161.316
 112221829.72048  87445602.42148  21355084.760    21355085.297    21355085.372
  21355085.298
 108290393.22549  84382131.05947  20606973.121    20606968.474    20606974.052

 130697395.26446 101842122.56546  24870885.494    24870886.513    24870885.552
  24870887.341
 117053229.13148  91210323.84247  22274484.074    22274483.436    22274484.547
  22274484.030
 126361791.98547  98463756.30346  24045829.084    24045825.807    24045829.573
  24045825.821
 105413438.05548  82140361.35947  20059485.818    20059482.688    20059487.083

 128207355.38047  99901830.76046  24397046.499    24397047.164    24397047.123
  24397048.361
 130863991.00346 101971941.44146  24902587.953    24902585.830    24902588.671
  24902585.695
 16  1  1  1 52  0.0000000  0  9G09G26G23G03G27G31G16G08G07
 116045880.32148  90425372.89247  22082792.451    22082791.983    22082793.388
  22082791.958
 112288749.51348  87497747.70648  21367818.893    21367819.542    21367819.473
  21367819.560
 108281687.99348  84375347.73647  20605316.842    20605312.116    20605317.608

 130793844.65646 101917277.91546  24889238.784    24889240.105    24889238.916
  24889241.057
 116958408.23248  91136437.49147  22256439.860    22256439.339    22256440.739
  22256440.138
 126448359.32347  98531211.35246  24062302.915    24062298.293    24062303.025
  24062299.412
 105433103.96348  82155685.45647  20063228.004    20063225.123    20063229.088

 128093548.39346  99813149.98146  24375389.853    24375390.755    24375389.369
  24375392.455
 130770967.82446 101899455.80845  24884886.238    24884883.657    24884886.301
  24884884.894
 16  1  1  1 52 30.0000000  0  9G09G26G23G03G27G31G16G08G07
 115976050.97448  90370960.37047  22069504.219    22069504.028    22069504.619
  22069504.180
 112355961.72348  87550120.84548  21380609.008    21380609.511    21380609.577
  21380609.609
 108273572.54149  84369024.04047  20603772.448    20603767.785    20603773.474

 130890290.75446 101992430.70146  24907593.068    24907592.685    24907592.013
  24907594.263
 116863916.42848  91062807.54147  22238458.814    22238458.120    22238459.802
  22238458.744
 126535021.45147  98598740.18846  24078793.898    24078790.213    24078794.241
  24078789.775
 105453256.00348  82171388.29647  20067062.757    20067059.915    20067063.738

 127979775.86546  99724496.12746  24353738.249    24353741.501    24353739.214
  24353741.865
 130677925.49146 101826955.28945  24867180.628    24867177.804    24867181.517
  24867178.049
 16  1  1  1 53  0.0000000  0  9G09G26G23G03G27G31G16G08G07
 115906650.10848  90316881.71647  22056297.952    22056297.533    22056298.654
  22056297.459
 112423464.42248  87602720.31848  21393454.347    21393455.001    21393454.939
  21393455.125
 108266047.53048  84363160.39047  20602340.508    20602335.663    20602341.251

 130986730.65146 102067578.65346  24925944.585    24925945.111    24925943.913
  24925945.504
 116769756.73748  90989436.39347  22220540.415    22220539.983    22220541.424
  22220540.545
 126621778.41247  98666342.95246  24095303.385    24095299.899    24095303.795
  24095298.676
 105473893.06648  82187469.16947  20070989.882    20070987.074    20070990.706

 127866040.58046  99635871.22846  24332095.281    24332098.679    24332096.668
  24332099.424
 130584863.69546 101754439.61245  24849470.826    24849469.280    24849471.928
  24849470.062
 16  1  1  1 53 30.0000000  0  9G09G26G23G03G27G31G16G08G07
 115837680.19848  90263138.94047  22043172.919    22043172.946    22043173.815
  22043173.430
 112491255.78648  87655544.74548  21406354.679    21406355.277    21406355.406
  21406355.530
 108259113.84649  84357757.50347  20601021.319    20601016.293    20601022.168

 131083161.42646 102142719.51446  24944294.494    24944295.422    24944294.191
  24944294.530
 116675932.03448  90916326.26947  22202686.167    22202685.566    22202687.422
  22202685.471
 126708629.72347  98734019.27446  24111830.790    24111826.517    24111830.972
  24111827.575
 105495013.43048  82203926.61047  20075008.829    20075005.953    20075009.922

 127752345.32646  99547277.55446  24310460.745    24310462.941    24310460.413
  24310462.358
 130491783.21547 101681909.46145  24831758.961    24831756.958    24831759.282
  24831756.834
 16  1  1  1 54  0.0000000  0  9G09G26G23G03G27G31G16G08G07
 115769143.48248  90209733.69747  22030131.516    22030130.782    22030131.867
  22030131.070
 112559333.89548  87708592.60648  21419309.500    21419310.049    21419310.239
  21419310.016
 108252771.86949  84352815.62047  20599814.425    20599809.732    20599815.083

 131179580.16646 102217850.99246  24962642.818    24962643.278    24962642.730
  24962641.876
 116582445.23348  90843479.45847  22184896.649    22184895.762    22184897.305
  22184895.998
 126795574.84547  98801768.69146  24128375.523    24128371.679    24128376.181
  24128371.565
 105516615.43548  82220759.26847  20079119.650    20079116.652    20079120.728

 127638692.58946  99458716.98146  24288832.604    24288834.781    24288832.836
  24288836.314
 130398684.82546 101609365.41445  24814042.535    24814039.800    24814042.058
  24814040.108
 16  1  1  1 54 30.0000000  0  9G09G26G23G03G27G31G16G08G07
 115701042.30448  90156667.83947  22017172.223    22017171.240    22017172.948
  22017171.658
 112627696.74848  87761862.31448  21432318.628    21432319.104    21432319.275
  21432319.004
 108247022.88148  84348335.92447  20598720.419    20598715.420    20598721.327

 131275983.97346 102292970.87245  24980986.586    24980988.003    24980987.311
  24980988.210
 116489299.23347  90770898.17747  22167171.405    22167170.544    22167172.221
  22167171.115
 126882613.00647  98869590.59846  24144938.172    24144933.625    24144939.151
  24144935.349
 105538697.93448  82237966.46047  20083321.902    20083318.863    20083323.087

 127525084.94947  99370191.51946  24267214.119    24267215.228    24267214.490
  24267217.054
 130305569.05646 101536807.67145  24796324.112    24796320.726    24796324.311
  24796320.465
 16  1  1  1 55  0.0000000  0  9G09G26G23G03G27G31G16G08G07
 115633379.15948  90103943.34247  22004296.168    22004295.390    22004296.780
  22004295.364
 112696342.66548  87815352.63648  21445381.338    21445381.930    21445382.164
  21445381.945
 108241867.01548  84344318.34947  20597739.357    20597734.232    20597740.194

 131372370.00146 102368076.82546  24999328.540    24999330.140    24999329.223
  24999328.916
 116396497.02848  90698584.83747  22149511.895    22149511.040    22149512.661
  22149511.520
 126969744.01047  98937484.82646  24161518.286    24161515.877    24161518.268
  24161516.413
 105561259.40948  82255546.94047  20087614.984    20087611.920    20087616.161

 127411525.02746  99281703.29846  24245604.867    24245606.150    24245605.650
  24245606.694
 130212436.91946 101464237.23645  24778600.946    24778596.920    24778601.141
  24778598.989
 16  1  1  1 55 30.0000000  0  9G09G26G23G03G27G31G16G08G07
 115566156.16548  90051561.77247  21991504.210    21991503.550    21991504.981
  21991503.940
 112765269.61348  87869061.95648  21458497.889    21458498.507    21458498.487
  21458498.542
 108237305.44249  84340763.94747  20596871.222    20596866.248    20596871.955

 131468735.31346 102443166.64145  25017665.342    25017668.025    25017666.573
  25017666.966
 116304041.40348  90626541.51747  22131917.984    22131917.033    22131918.575
  22131917.281
 127056967.54447  99005451.19346  24178116.898    24178113.027    24178116.831
  24178113.748
 105584297.79948  82273498.88147  20091999.044    20091995.976    20092000.204

 127298015.54247  99193254.30746  24224004.480    24224006.035    24224005.562
  24224006.718
 130119288.81146 101391654.39845  24760874.918    24760872.725    24760875.645
  24760873.327
 16  1  1  1 56  0.0000000  0  9G09G26G23G03G27G31G16G08G07
 115499375.79248  89999525.10747  21978796.186    21978795.589    21978796.870
  21978796.145
 112834475.60748  87922988.63748  21471667.151    21471667.841    21471667.713
  21471667.915
 108233338.34748  84337672.73147  20596116.303    20596111.356    20596117.091

 131565077.13246 102518238.15245  25036000.527    25036001.110    25036000.268
  25035999.604
 116211935.33448  90554770.59047  22114390.893    22114389.895    22114391.771
  22114390.705
 127144282.90747  99073489.10746  24194732.200    24194727.893    24194732.753
  24194729.267
 105607812.11048  82291821.73947  20096473.729    20096470.633    20096474.827

 127184558.84847  99104846.49346  24202414.781    24202415.593    24202416.166
  24202416.916
 130026125.28546 101319059.45345  24743147.266    24743144.183    24743147.120
  24743143.909
 16  1  1  1 56 30.0000000  0  9G09G26G23G03G27G31G16G08G07
 115433040.31447  89947835.07847  21966172.965    21966172.497    21966173.507
  21966172.815
 112903958.90848  87977131.42048  21484889.643    21484890.308    21484890.224
  21484890.112
 108229966.59648  84335045.41347  20595474.531    20595469.592    20595475.347

 131661392.45846 102593289.04545  25054327.580    25054328.805    25054328.354
  25054331.135
 116120181.61248  90483274.21747  22096930.599    22096930.241    22096931.841
  22096930.773
 127231689.74847  99141598.27246  24211366.029    24211361.399    24211366.083
  24211361.894
 105631800.53848  82310514.04347  20101038.631    20101035.615    20101039.880

 127071158.41646  99016482.52346  24180835.316    24180835.758    24180835.853
  24180836.596
 129932946.99546 101246453.08545  24725415.178    24725412.754    24725415.528
  24725412.746
 16  1  1  1 57  0.0000000  0  9G09G26G23G03G27G31G16G08G07
 115367152.15748  89896493.64847  21953634.886    21953634.645    21953635.847
  21953634.496
 112973717.73048  88031488.94548  21498164.457    21498164.895    21498164.912
  21498164.914
 108227190.93349  84332882.61847  20594946.365    20594941.335    20594947.149

 131757678.65146 102668317.26145  25072650.393    25072651.130    25072650.129
  25072653.786
 116028783.22748  90412054.73247  22079538.163    22079537.639    22079539.437
  22079537.979
 127319187.86047  99209778.57446  24228014.474    24228011.887    24228016.137
  24228012.568
 105656261.43148  82329574.44247  20105693.420    20105690.492    20105694.232

 126957816.00846  98928163.74446  24159265.366    24159268.294    24159266.591
  24159268.972
 129839754.56146 101173835.69546  24707682.328    24707678.325    24707682.909
  24707679.494
 16  1  1  1 57 30.0000000  0  9G09G26G23G03G27G31G16G08G07
 115301713.72848  89845502.74747  21941182.305    21941182.023    21941183.146
  21941182.511
 113043749.94148  88086059.44248  21511491.137    21511491.632    21511491.543
  21511491.840
 108225011.49348  84331184.36047  20594531.485    20594526.638    20594532.236

 131853932.61545 102743320.29345  25090966.203    25090968.033    25090966.706
  25090970.871
 115937742.99648  90341114.33547  22062213.458    22062212.941    22062214.251
  22062213.545
 127406776.58247  99278029.45746  24244683.620    24244679.910    24244683.998
  24244680.582
 105681193.63048  82349002.11547  20110437.769    20110435.108    20110439.028

 126844534.99647  98839892.83446  24137710.639    24137712.694    24137710.424
  24137712.779
 129746549.03546 101101208.10846  24689945.219    24689942.732    24689944.647
  24689942.080
 16  1  1  1 58  0.0000000  0  9G09G26G23G03G27G31G16G08G07
 115236726.94348  89794863.64947  21928815.875    21928815.162    21928816.817
  21928815.220
 113114053.72648  88140841.52148  21524869.598    21524870.108    21524870.068
  21524870.341
 108223428.98548  84329951.24647  20594230.442    20594225.598    20594231.277

 131950151.66945 102818296.16345  25109277.305    25109278.085    25109278.382
  25109280.189
 115847063.69948  90270455.17747  22044957.807    22044957.292    22044957.878
  22044957.511
 127494455.45447  99346350.61146  24261367.402    24261364.023    24261367.721
  24261365.658
 105706595.44348  82368795.77247  20115271.649    20115268.746    20115272.590

 126731317.43347  98751671.33946  24116164.987    24116167.688    24116166.174
  24116168.039
 129653330.42046 101028570.22046  24672204.899    24672203.259    24672206.190
  24672203.977
 16  1  1  1 58 30.0000000  0  9G09G26G23G03G27G31G16G08G07
 115172194.37448  89744578.51247  21916535.818    21916535.363    21916536.619
  21916535.660
 113184627.38548  88195833.94448  21538299.220    21538299.721    21538299.745
  21538299.499
 108222444.21848  84329183.90147  20594043.248    20594038.072    20594043.735

 132046332.97745 102893242.60945  25127577.675    25127580.368    25127579.079
  25127582.175
 115756748.31447  90200079.59747  22027771.319    22027770.839    22027771.640
  22027770.567
 127582223.93947  99414741.62046  24278070.552    24278067.176    24278070.428
  24278067.698
 105732465.15848  82388954.06647  20120194.290    20120191.496    20120195.322

 126618166.36947  98663501.65946  24094634.089    24094634.608    24094634.888
  24094636.470
 129560099.90146 100955923.07845  24654465.069    24654462.627    24654465.595
  24654462.495
 16  1  1  1 59  0.0000000  0  9G09G26G23G03G27G31G16G08G07
 115108118.31447  89694649.13347  21904342.400    21904342.065    21904343.412
  21904342.421
 113255468.94648  88251035.12348  21551780.022    21551780.788    21551780.621
  21551780.801
 108222057.38448  84328882.49747  20593969.547    20593964.500    20593969.992

 132142473.57345 102968157.31645  25145875.187    25145874.386    25145874.258
  25145876.152
 115666799.56148  90129989.67547  22010654.429    22010653.844    22010655.576
  22010653.898
 127670082.02647  99483202.46446  24294788.930    24294785.473    24294789.436
  24294786.058
 105758800.46648  82409474.78547  20125206.102    20125203.289    20125207.389

 126505084.47247  98575385.91446  24073115.239    24073115.566    24073115.902
  24073115.990
 129466858.01446 100883267.03646  24636721.542    24636718.283    24636721.871
  24636718.932
 16  1  1  1 59 30.0000000  0 10G09G26G23G21G03G27G31G16G08G07
 115044501.04448  89645077.26347  21892236.623    21892236.009    21892237.231
  21892236.308
 113326576.59648  88306443.65948  21565311.503    21565312.074    21565312.041
  21565312.325
 108222269.12948  84329047.48647  20594009.618    20594004.776    20594010.435

 135539304.77446 105615044.39442  25792269.723    25792268.248    25792272.372

 132238570.76545 103043038.24445  25164160.013    25164163.172    25164161.023
  25164166.204
 115577220.46048  90060187.82147  21993608.553    21993607.706    21993609.597
  21993608.662
 127758028.82847  99551732.40746  24311523.970    24311521.904    24311524.996
  24311521.824
 105785600.96648  82430358.23047  20130306.065    20130303.391    20130307.257

 126392074.08246  98487325.86646  24051609.281    24051611.395    24051609.529
  24051613.311
 129373605.52647 100810602.64345  24618976.500    24618974.209    24618977.420
  24618974.781
 16  1  1  2  0  0.0000000  0  9G09G26G23G21G27G31G16G08G07
 114981344.59548  89595864.40447  21880218.039    21880217.829    21880218.924
  21880217.981
 113397948.43448  88362058.08347  21578893.123    21578893.597    21578893.694
  21578893.572
 108223079.72348  84329679.05447  20594164.127    20594158.999    20594164.889

 135495305.81546 105580759.22642  25783896.761    25783897.552    25783899.325

 115488013.65648  89990676.05847  21976633.061    21976632.218    21976633.819
  21976633.102
 127846063.55147  99620330.82446  24328277.178    24328273.947    24328278.140
  24328273.306
 105812864.75648  82451602.81047  20135494.044    20135491.332    20135495.221

 126279137.91147  98399323.69746  24030119.401    24030120.837    24030119.245
  24030119.498
 129280343.12647 100737930.65945  24601229.738    24601225.929    24601229.943
  24601226.988
 16  1  1  2  0 30.0000000  0  9G09G26G23G21G27G31G16G08G07
 114918651.57048  89547012.73347  21868288.100    21868287.392    21868288.691
  21868287.631
 113469582.62648  88417876.94647  21592524.268    21592524.971    21592525.095
  21592524.780
 108224489.63549  84330777.66247  20594432.283    20594427.368    20594433.245

 135451585.09946 105546690.81042  25775578.570    25775574.750    25775580.736

 115399182.05848  89921456.65347  21959728.954    21959727.845    21959729.104
  21959728.469
 127934186.38947  99688997.94046  24345046.101    24345041.022    24345046.157
  24345041.515
 105840590.13648  82473207.06547  20140769.835    20140767.075    20140771.240

 126166278.68446  98311381.46146  24008642.267    24008644.419    24008642.802
  24008645.139
 129187071.62646 100665251.56045  24583479.479    24583477.907    24583479.991
  24583477.146
 16  1  1  2  1  0.0000000  0  9G09G26G23G21G27G31G16G08G07
 114856423.99848  89498523.72747  21856446.416    21856446.060    21856447.099
  21856445.704
 113541477.22148  88473898.69448  21606205.428    21606206.038    21606206.155
  21606206.285
 108226499.29649  84332343.64947  20594814.873    20594809.750    20594815.681

 135408145.00446 105512841.24742  25767312.340    25767309.920    25767314.624

 115310728.44748  89852531.79347  21942896.491    21942895.515    21942896.882
  21942895.767
 128022396.90847  99757733.40046  24361832.183    24361828.744    24361831.673
  24361832.625
 105868775.14048  82495169.39747  20146133.571    20146130.695    20146134.773

 126053499.36447  98223501.50046  23987180.862    23987182.329    23987180.930
  23987183.335
 129093791.68046 100592565.96345  24565729.470    24565726.649    24565729.673
  24565727.260
 16  1  1  2  1 30.0000000  0  9G09G26G23G21G27G31G16G08G07
 114794664.11848  89450399.14947  21844693.984    21844693.097    21844694.400
  21844693.663
 113613630.47748  88530122.03247  21619935.883    21619936.275    21619936.504
  21619936.052
 108229109.15949  84334377.34347  20595311.357    20595306.299    20595312.062

 135364987.02046 105479211.52342  25759098.945    25759096.534    25759100.322

 115222655.58548  89783903.60647  21926136.952    21926135.777    21926137.525
  21926135.557
 128110694.37147  99826536.62046  24378636.222    24378631.554    24378636.275
  24378632.209
 105897418.18148  82517488.61247  20151584.020    20151581.215    20151585.367

 125940802.27347  98135685.62446  23965735.445    23965736.336    23965735.614
  23965738.035
 129000503.72147 100519874.06245  24547977.395    24547974.794    24547977.926
  24547974.489
 16  1  1  2  2  0.0000000  0  9G09G26G23G21G27G31G16G08G07
 114733374.35748  89402640.96547  21833030.782    21833030.004    21833031.560
  21833030.267
 113686040.40548  88586545.33447  21633715.028    21633715.534    21633715.382
  21633715.349
 108232319.48748  84336878.89047  20595922.379    20595917.367    20595923.047

 135322113.34446 105445803.31742  25750939.893    25750939.948    25750942.711

 115134966.35848  89715574.32147  21909450.443    21909449.570    21909451.190
  21909449.438
 128199078.26647  99895407.21046  24395453.324    24395450.475    24395453.834
  24395449.475
 105926517.53148  82540163.31647  20157121.669    20157118.784    20157122.769

 125828190.26046  98047936.02346  23944305.490    23944307.549    23944306.748
  23944307.749
 128907208.71546 100447176.64546  24530223.566    24530221.235    24530224.080
  24530222.515
 16  1  1  2  2 30.0000000  0  9G09G26G23G21G27G31G16G08G07
 114672556.73948  89355250.66847  21821457.555    21821456.990    21821458.108
  21821457.176
 113758705.00148  88643166.94948  21647542.539    21647543.244    21647543.359
  21647543.535
 108236130.78648  84339848.70147  20596647.427    20596642.403    20596648.433

 135279525.93946 105412618.14142  25742836.434    25742833.381    25742837.703

 115047663.59048  89647546.23347  21892837.469    21892836.052    21892837.984
  21892836.379
 128287548.22647  99964344.85646  24412289.049    24412285.432    24412289.059
  24412284.452
 105956071.94048  82563192.83947  20162745.478    20162742.663    20162746.655

 125715665.78347  97960254.71646  23922893.746    23922895.397    23922894.391
  23922895.289
 128813907.11246 100374474.14446  24512469.040    24512467.380    24512469.518
  24512467.867
 16  1  1  2  3  0.0000000  0  9G09G26G23G21G27G31G16G08G07
 114612213.38948  89308229.88547  21809974.684    21809973.838    21809975.358
  21809973.903
 113831622.91148  88699986.08547  21661418.136    21661419.192    21661418.955
  21661419.251
 108240543.15548  84343286.89547  20597487.251    20597482.207    20597487.903

 135237227.48646 105379658.21942  25734787.591    25734783.947    25734788.629

 114960749.89748  89579821.29747  21876297.777    21876297.101    21876298.463
  21876297.984
 128376103.87847 100033349.29846  24429140.843    24429136.810    24429141.564
  24429137.065
 105986079.66448  82586575.48747  20168455.784    20168453.003    20168456.992

 125603231.95747  97872643.96346  23901497.366    23901500.347    23901497.962
  23901499.944
 128720599.98747 100301767.27646  24494712.950    24494710.312    24494714.400
  24494710.893
 16  1  1  2  3 30.0000000  0  9G09G26G23G21G27G31G16G08G07
 114552346.74748  89261580.61847  21798582.319    21798581.759    21798583.008
  21798582.356
 113904792.22148  88757001.19647  21675341.956    21675342.847    21675342.457
  21675342.837
 108245556.98948  84347193.82247  20598441.374    20598436.511    20598442.458

 135195219.17946 105346924.43842  25726792.919    25726792.576    25726795.142

 114874228.16948  89512401.77847  21859833.361    21859832.305    21859834.461
  21859832.878
 128464744.57146 100102419.94446  24446007.447    24446005.305    24446008.559
  24446004.950
 106016539.14648  82610310.18947  20174252.104    20174249.192    20174253.175

 125490891.14247  97785105.73146  23880120.276    23880121.924    23880120.669
  23880121.937
 128627288.03046 100229056.69746  24476956.798    24476955.328    24476956.930
  24476954.690
 16  1  1  2  4  0.0000000  0  9G09G26G23G21G27G31G16G08G07
 114492958.84648  89215304.37147  21787281.358    21787280.657    21787282.019
  21787280.877
 113978210.93448  88814210.65548  21689313.110    21689313.709    21689313.751
  21689313.899
 108251172.61649  84351569.73947  20599509.710    20599504.782    20599510.499

 135153502.93145 105314418.21442  25718855.783    25718853.842    25718856.520

 114788101.11248  89445289.79747  21843443.625    21843442.858    21843444.875
  21843442.708
 128553469.80747 100171556.40346  24462892.721    24462888.514    24462892.596
  24462888.481
 106047447.96048  82634394.81747  20180134.014    20180131.124    20180135.035

 125378646.26347  97697642.24946  23858760.603    23858761.274    23858761.314
  23858762.057
 128533971.75146 100156342.69346  24459198.871    24459197.601    24459199.458
  24459197.721
 16  1  1  2  4 30.0000000  0  9G09G26G23G21G27G31G16G08G07
 114434051.83948  89169402.85347  21776071.397    21776070.676    21776071.995
  21776070.919
 114051877.02548  88871612.81247  21703331.532    21703332.081    21703331.888
  21703332.001
 108257390.35648  84356414.77747  20600692.964    20600688.113    20600693.924

 135112081.04845 105282141.37741  25710972.930    25710970.051    25710974.827

 114702371.51748  89378487.54147  21827130.091    21827129.256    21827130.683
  21827129.068
 128642279.27946 100240758.56846  24479792.427    24479788.755    24479791.641
  24479787.128
 106078805.37948  82658829.19347  20186101.158    20186098.108    20186102.506

 125266499.80947  97610255.44446  23837419.954    23837421.733    23837420.150
  23837421.894
 128440652.36247 100083626.20546  24441441.100    24441438.471    24441441.594
  24441439.152
 16  1  1  2  5  0.0000000  0  9G09G26G23G21G27G31G16G08G07
 114375627.90748  89123877.73947  21764953.787    21764953.179    21764954.620
  21764953.081
 114125788.82648  88929206.39147  21717396.339    21717396.917    21717396.894
  21717396.902
 108264210.17448  84361728.97047  20601990.869    20601985.866    20601991.528

 135070955.94645 105250095.87741  25703146.862    25703144.816    25703147.510

 114617042.04648  89311997.05547  21810892.155    21810891.347    21810892.678
  21810892.361
 128731172.56547 100310026.06646  24496707.826    24496704.055    24496707.231
  24496705.709
 106110608.96248  82683611.17547  20192153.095    20192150.224    20192154.102

 125154454.30047  97522947.34846  23816097.822    23816098.692    23816099.172
  23816098.381
 128347330.33946 100010907.64946  24423682.376    24423680.636    24423683.540
  24423680.204
 16  1  1  2  5 30.0000000  0  9G09G26G23G21G27G31G16G08G07
 114317689.20848  89078730.72847  21753928.580    21753927.611    21753929.184
  21753928.213
 114199944.49148  88986989.97047  21731507.961    21731508.152    21731508.603
  21731508.066
 108271632.31348  84367512.51647  20603403.028    20603398.163    20603404.015

 135030129.37645 105218283.06441  25695378.219    25695374.803    25695379.061

 114532115.49348  89245820.51447  21794731.223    21794730.123    21794732.505
  21794730.628
 128820148.99247 100379358.30746  24513639.174    24513636.122    24513639.169
  24513636.370
 106142857.67248  82708740.12747  20198289.825    20198286.893    20198290.920

 125042512.71147  97435720.16646  23794796.449    23794797.014    23794796.807
  23794798.447
 128254006.23646  99938187.48946  24405924.248    24405921.217    24405924.740
  24405921.662
 16  1  1  2  6  0.0000000  0  9G09G26G23G21G27G31G16G08G07
 114260237.81548  89033963.40347  21742995.701    21742995.130    21742996.153
  21742995.214
 114274342.39848  89044962.38947  21745665.242    21745665.775    21745665.580
  21745665.516
 108279656.86848  84373765.46447  20604930.034    20604925.146    20604930.903

 134989602.86846 105186704.06941  25687666.413    25687664.216    25687667.752

 114447594.61948  89179960.11647  21778647.428    21778646.552    21778648.161
  21778646.865
 128909208.38047 100448755.18846  24530587.378    24530583.518    24530587.528
  24530582.830
 106175549.23248  82734214.07147  20204510.716    20204507.784    20204511.884

 124930677.69147  97348576.08346  23773514.063    23773515.502    23773515.136
  23773517.084
 128160681.15046  99865466.61546  24388164.889    24388162.074    24388164.843
  24388161.426
 16  1  1  2  6 30.0000000  0  9G09G26G23G21G27G31G16G08G07
 114203275.97848  88989577.56247  21732156.239    21732155.803    21732157.211
  21732155.820
 114348980.60448  89103122.06547  21759868.533    21759868.873    21759869.107
  21759869.015
 108288284.05748  84380487.97047  20606571.533    20606566.756    20606572.345

 134949378.42846 105155360.34741  25680010.990    25680009.046    25680013.745

 114363482.11548  89114417.94547  21762641.440    21762640.724    21762641.653
  21762640.806
 128998349.96947 100518216.14946  24547549.714    24547546.488    24547552.584
  24547545.361
 106208681.96148  82760031.74547  20210815.592    20210812.803    20210816.753

 124818951.82047  97261517.06346  23752252.593    23752255.058    23752253.576
  23752255.081
 128067355.96947  99792745.65446  24370406.806    24370403.781    24370406.366
  24370403.986
 16  1  1  2  7  0.0000000  0  9G09G26G23G21G27G31G16G08G07
 114146805.85448  88945574.94347  21721410.474    21721409.508    21721410.885
  21721410.235
 114423857.15748  89161467.41047  21774117.072    21774117.643    21774117.465
  21774117.767
 108297514.05748  84387680.21047  20608328.100    20608323.101    20608328.857

 134909458.31246 105124253.83442  25672415.691    25672413.298    25672416.477

 114279780.59148  89049196.01447  21746713.761    21746712.502    21746714.789
  21746713.055
 129087573.45747 100587740.86546  24564527.987    24564525.139    24564529.864
  24564525.495
 106242254.25348  82786191.97447  20217204.215    20217201.482    20217205.478

 124707337.94747  97174545.31346  23731013.938    23731015.187    23731014.425
  23731016.619
 127974031.24947  99720025.16046  24352645.253    24352644.044    24352646.685
  24352644.433
 16  1  1  2  7 30.0000000  0  9G09G26G23G21G27G31G16G08G07
 114090829.49748  88901957.11347  21710758.398    21710757.748    21710758.829
  21710758.010
 114498970.43648  89219997.21947  21788410.742    21788411.202    21788411.362
  21788411.168
 108307346.99148  84395342.27447  20610199.257    20610194.150    20610200.208

 134869843.38746 105093385.12642  25664876.487    25664873.128    25664878.077

 114196492.83348  88984296.49447  21730864.490    21730863.472    21730865.148
  21730864.115
 129176878.28746 100657328.92546  24581522.789    24581520.918    24581523.231
  24581520.720
 106276264.26348  82812693.15047  20223676.402    20223673.579    20223677.645

 124595838.62347  97087662.82646  23709795.641    23709796.712    23709797.216
  23709798.392
 127880707.81746  99647305.66846  24334887.425    24334884.969    24334887.714
  24334885.704
 16  1  1  2  8  0.0000000  0  9G09G26G23G21G27G31G16G08G07
 114035348.67548  88858725.26847  21700200.540    21700200.094    21700201.106
  21700200.493
 114574318.82948  89278710.37747  21802748.844    21802749.271    21802749.503
  21802749.688
 108317782.62848  84403473.98947  20612184.710    20612179.808    20612185.406

 134830536.20646 105062756.09141  25657396.552    25657394.124    25657398.052

 114113621.47748  88919721.47547  21715094.716    21715093.575    21715094.660
  21715093.843
 129266263.90847 100726979.98146  24598532.196    24598529.109    24598533.618
  24598529.468
 106310710.34848  82839534.21047  20230231.283    20230228.315    20230232.444

 124484456.49747  97000871.66146  23688601.285    23688603.093    23688601.140
  23688603.862
 127787386.78247  99574587.99545  24317129.153    24317126.878    24317129.990
  24317126.448
 16  1  1  2  8 30.0000000  0  9G09G26G23G21G27G31G16G08G07
 113980365.91948  88815881.60747  21689737.646    21689737.061    21689738.529
  21689737.687
 114649900.14348  89337604.96247  21817131.337    21817131.887    21817131.904
  21817131.904
 108328821.35248  84412075.62147  20614285.567    20614280.620    20614286.393

 134791539.06946 105032368.60241  25649975.780    25649974.143    25649978.032

 114031169.10348  88855472.89847  21699404.357    21699403.303    21699405.105
  21699402.916
 129355730.04347 100796693.75246  24615556.514    24615553.187    24615558.065
  24615553.833
 106345591.07848  82866714.03047  20236868.985    20236865.874    20236870.027

 124373194.03247  96914173.72746  23667428.865    23667429.391    23667429.782
  23667430.215
 127694068.54546  99501872.55445  24299370.710    24299368.052    24299370.965
  24299368.984
 16  1  1  2  9  0.0000000  0  9G09G26G23G21G27G31G16G08G07
 113925883.07248  88773427.48047  21679369.947    21679369.419    21679370.772
  21679369.514
 114725712.74048  89396679.77547  21831558.078    21831558.499    21831558.455
  21831558.750
 108340463.12248  84421147.15947  20616501.002    20616495.841    20616501.777

 134752853.88346 105002224.15741  25642614.305    25642611.506    25642616.698

 113949138.50448  88791552.99947  21683793.955    21683793.036    21683795.334
  21683794.133
 129445276.14747 100866469.88246  24632597.981    24632594.227    24632598.330
  24632593.498
 106380904.14348  82894230.65547  20243588.692    20243585.873    20243589.899

 124262054.55747  96827571.65046  23646278.890    23646280.442    23646280.726
  23646281.408
 127600754.05047  99429160.10346  24281613.921    24281611.011    24281614.749
  24281610.182
 16  1  1  2  9 30.0000000  0  9G09G26G23G21G27G31G16G08G07
 113871902.12748  88731364.40947  21669097.800    21669097.047    21669098.200
  21669097.205
 114801754.76048  89455933.32047  21846028.253    21846028.773    21846028.623
  21846029.195
 108352707.82548  84430688.51147  20618830.863    20618825.708    20618831.657

 134714482.20846 104972324.04542  25635312.067    25635310.137    25635314.700

 113867532.19648  88727963.69047  21668265.164    21668264.193    21668265.780
  21668264.763
 129534901.65446 100936307.88046  24649653.124    24649649.981    24649651.667
  24649649.707
 106416648.50748  82922083.48447  20250390.501    20250387.697    20250391.676

 124151040.26847  96741067.12946  23625154.260    23625155.877    23625154.958
  23625157.284
 127507443.99947  99356451.05246  24263856.734    24263853.940    24263858.457
  24263854.927
 16  1  1  2 10  0.0000000  0  9G09G26G23G21G27G31G16G08G07
 113818425.21648  88689694.09647  21658921.454    21658920.960    21658922.272
  21658921.125
 114878024.36248  89515364.13447  21860541.967    21860542.505    21860542.404
  21860541.992
 108365555.39248  84440699.61647  20621275.858    20621270.716    20621276.653

 134676426.48146 104942670.28842  25628070.705    25628069.261    25628072.626

 113786352.81648  88664707.05447  21652817.181    21652816.165    21652818.363
  21652816.194
 129624606.18246 101006207.43046  24666723.408    24666720.745    24666723.281
  24666721.500
 106452822.07748  82950270.74147  20257274.306    20257271.292    20257275.315

 124040154.17347  96654662.49246  23604052.754    23604055.020    23604054.005
  23604054.738
 127414139.38446  99283746.31046  24246101.508    24246099.376    24246102.001
  24246098.616
 16  1  1  2 10 30.0000000  0  9G09G26G23G21G27G31G16G08G07
 113765454.37648  88648418.14547  21648841.482    21648840.780    21648842.250
  21648841.365
 114954520.03348  89574971.17947  21875098.486    21875099.123    21875098.729
  21875099.240
 108379005.53948  84451180.26147  20623835.207    20623830.197    20623835.991

 134638687.93746 104913263.78942  25620889.184    25620888.144    25620890.906

 113705603.08748  88601785.20047  21637451.188    21637450.216    21637451.798
  21637450.374
 129714389.31547 101076168.25246  24683808.795    24683804.509    24683808.510
  24683805.036
 106489422.81048  82978790.85247  20264238.928    20264236.043    20264239.981

 123929399.01347  96568359.90146  23582975.932    23582977.810    23582977.946
  23582978.328
 127320841.20746  99211046.61846  24228346.963    24228345.233    24228348.287
  24228346.045
 16  1  1  2 11  0.0000000  0  9G09G26G23G21G27G31G16G08G07
 113712991.62348  88607538.11347  21638858.161    21638857.587    21638858.888
  21638858.011
 115031239.74648  89634752.75247  21889697.898    21889698.249    21889698.523
  21889698.089
 108393058.51248  84462130.65547  20626509.317    20626504.280    20626510.228

 134601268.30446 104884105.68542  25613768.302    25613766.268    25613769.448

 113625285.38048  88539199.92147  21622167.260    21622166.230    21622167.811
  21622167.247
 129804250.37446 101146189.78046  24700908.489    24700903.955    24700907.898
  24700906.041
 106526449.00748  83007642.50347  20271284.749    20271281.964    20271286.061

 123818777.36147  96482161.33546  23561926.132    23561926.779    23561926.807
  23561927.728
 127227549.66146  99138352.00646  24210593.474    24210591.046    24210595.686
  24210592.699
 16  1  1  2 11 30.0000000  0  9G09G26G23G21G27G31G16G08G07
 113661038.85648  88567055.45947  21628971.648    21628971.119    21628972.282
  21628971.583
 115108181.90448  89694707.68147  21904339.617    21904340.010    21904340.444
  21904339.457
 108407714.25248  84473550.72947  20629298.249    20629293.379    20629298.975

 134564169.32546 104855197.34242  25606709.408    25606706.866    25606711.933

 113545402.62248  88476953.62747  21606966.086    21606964.884    21606967.207
  21606965.008
 129894189.05247 101216271.82246  24718023.492    24718019.296    24718023.444
  24718019.913
 106563898.86348  83036824.22847  20278411.175    20278408.190    20278412.208

 123708291.66247  96396068.71146  23540900.827    23540902.660    23540902.063
  23540904.188
 127134266.19546  99065663.68546  24192843.163    24192841.580    24192843.898
  24192842.055
 16  1  1  2 12  0.0000000  0  9G09G26G23G21G27G31G16G08G07
 113609598.17948  88526971.85747  21619183.131    21619182.024    21619183.785
  21619182.642
 115185344.75448  89754834.59747  21919022.831    21919023.322    21919023.803
  21919023.794
 108422972.63448  84485440.38247  20632201.864    20632196.909    20632202.554

 134527392.82846 104826540.04842  25599709.949    25599708.379    25599712.355

 113465957.27048  88415048.20247  21591848.079    21591847.110    21591848.762
  21591846.615
 129984204.70546 101286413.84546  24735153.111    24735149.600    24735153.083
  24735150.266
 106601770.67048  83066334.71747  20285617.745    20285614.971    20285618.802

 123597944.92747  96310084.39547  23519902.298    23519904.100    23519903.334
  23519905.022
 127040991.58646  98992982.31246  24175093.792    24175091.724    24175093.386
  24175091.168
 16  1  1  2 12 30.0000000  0  9G09G26G23G21G27G31G16G08G07
 113558671.45748  88487288.73647  21609491.989    21609491.117    21609492.598
  21609491.412
 115262726.47748  89815132.10047  21933748.153    21933748.784    21933748.856
  21933748.664
 108438833.58648  84497799.59747  20635219.973    20635215.127    20635220.886

 134490941.65146 104798136.49242  25592774.753    25592773.018    25592776.073

 113386951.82948  88353485.52448  21576813.791    21576813.012    21576814.474
  21576814.103
 130074297.00346 101356615.56846  24752296.199    24752294.314    24752296.906
  24752296.162
 106640062.75948  83096172.72847  20292904.592    20292901.725    20292905.677

 123487739.67047  96224210.27446  23498931.056    23498932.893    23498931.791
  23498933.832
 126947726.54847  98920308.31946  24157345.887    24157343.144    24157346.719
  24157344.085
 16  1  1  2 13  0.0000000  0  9G09G26G23G21G27G31G16G08G07
 113508260.73048  88448007.70148  21599899.266    21599898.491    21599899.669
  21599898.827
 115340325.33548  89875598.77347  21948514.953    21948515.243    21948515.409
  21948515.392
 108455296.56548  84510627.91647  20638352.829    20638347.808    20638353.486

 134454816.84345 104769987.31842  25585901.175    25585898.286    25585901.528

 113308388.99648  88292267.77748  21561863.323    21561862.514    21561864.052
  21561863.320
 130164465.22746 101426876.47246  24769456.032    24769452.483    24769455.665
  24769452.935
 106678773.15948  83126336.69747  20300270.935    20300268.073    20300271.927

 123377678.68147  96138448.62946  23477986.871    23477988.694    23477988.339
  23477988.731
 126854471.70547  98847642.23846  24139600.208    24139597.366    24139600.894
  24139597.916
 16  1  1  2 13 30.0000000  0  9G09G26G23G21G27G31G16G08G07
 113458367.83248  88409130.14447  21590404.729    21590403.701    21590405.501
  21590403.938
 115418139.54548  89936233.27047  21963322.269    21963322.740    21963323.144
  21963323.112
 108472361.44448  84523925.23947  20641600.144    20641595.220    20641601.065

 134419019.80245 104742093.47542  25579088.470    25579086.617    25579089.264

 113230271.20148  88231396.81647  21546998.260    21546997.272    21546998.804
  21546996.478
 130254708.97446 101497196.21646  24786627.645    24786624.962    24786629.087
  24786625.091
 106717900.26848  83156825.38447  20307716.529    20307713.534    20307717.743

 123267764.61947  96052801.43246  23457070.992    23457071.722    23457071.541
  23457073.145
 126761228.44747  98774985.30946  24121856.144    24121854.352    24121857.348
  24121855.153
 16  1  1  2 14  0.0000000  0  9G09G26G23G21G27G31G16G08G07
 113408994.63448  88370657.51047  21581009.477    21581008.611    21581010.203
  21581009.064
 115496167.39048  89997034.22347  21978170.474    21978170.871    21978170.914
  21978170.963
 108490028.05748  84537691.45147  20644961.917    20644957.009    20644962.764

 134383552.50245 104714456.26542  25572339.253    25572338.115    25572340.755

 113152601.06748  88170874.68947  21532218.033    21532217.129    21532218.737
  21532217.833
 130345027.71346 101567574.44146  24803814.823    24803812.600    24803816.057
  24803813.157
 106757441.95648  83187637.09847  20315241.092    20315237.982    20315242.181

 123158000.36547  95967270.99247  23436183.840    23436184.972    23436184.500
  23436186.635
 126667997.14847  98702337.62646  24104115.564    24104111.858    24104116.582
  24104112.695
 16  1  1  2 14 30.0000000  0  9G09G26G23G21G27G31G16G08G07
 113360143.20648  88332591.45847  21571713.091    21571712.552    21571713.663
  21571712.766
 115574407.06648  90058000.22647  21993058.695    21993059.589    21993059.540
  21993060.207
 108508296.25148  84551926.41947  20648438.496    20648433.261    20648438.987

 134348417.41246 104687078.09841  25565653.959    25565651.601    25565656.610

 113075380.98848  88110703.24247  21517523.460    21517522.383    21517524.324
  21517523.242
 130435421.14746 101638010.84046  24821016.809    24821013.617    24821018.166
  24821013.746
 106797396.57248  83218770.57947  20322844.211    20322841.217    20322845.203

 123048388.35147  95881859.17547  23415325.731    23415326.513    23415326.557
  23415327.723
 126574778.99447  98629700.12646  24086377.245    24086371.988    24086376.555
  24086372.950
 16  1  1  2 15  0.0000000  0  9G09G26G23G21G27G31G16G08G07
 113311815.33648  88294933.35347  21562516.735    21562515.912    21562517.294
  21562516.247
 115652856.84248  90119129.92247  22007987.110    22007988.206    22007987.961
  22007987.805
 108527165.55048  84566629.76747  20652028.875    20652023.994    20652029.896

 134313615.63746 104659959.67141  25559031.290    25559029.009    25559033.023

 112998613.49248  88050884.42447  21502915.073    21502914.208    21502916.176
  21502914.062
 130525888.63446 101708504.93846  24838231.754    24838228.701    24838232.721
  24838229.465
 106837762.51448  83250224.61147  20330525.749    20330522.678    20330526.726

 122938931.29347  95796568.08446  23394496.324    23394497.406    23394496.949
  23394497.990
 126481575.06847  98557073.70846  24068640.379    24068637.392    24068640.682
  24068637.983
 16  1  1  2 15 30.0000000  0  9G09G26G23G21G27G31G16G08G07
 113264012.96648  88257684.72847  21553420.153    21553419.430    21553420.809
  21553419.773
 115731515.03748  90180422.00847  22022955.532    22022955.942    22022956.131
  22022955.905
 108546635.73348  84581801.33747  20655733.961    20655729.037    20655734.684

 134279149.20146 104633102.42442  25552473.268    25552471.054    25552474.600

 112922301.11748  87991420.27448  21488393.439    21488392.619    21488393.876
  21488393.400
 130616429.52046 101779056.23346  24855461.450    24855457.173    24855462.546
  24855458.638
 106878537.80348  83281997.59247  20338284.911    20338281.956    20338286.047

 122829632.28847  95711400.17446  23373696.636    23373697.963    23373697.097
  23373698.722
 126388385.86747  98484458.78946  24050905.721    24050904.716    24050907.619
  24050903.881
 16  1  1  2 16  0.0000000  0  9G09G26G23G21G27G31G16G08G07
 113216737.78148  88220846.82547  21544424.156    21544423.253    21544425.006
  21544423.381
 115810380.02448  90241875.28747  22037962.885    22037963.631    22037963.453
  22037963.708
 108566706.56949  84597440.95647  20659553.444    20659548.464    20659554.172

 134245019.63146 104606507.75342  25545978.128    25545976.770    25545979.236

 112846446.23648  87932312.57248  21473958.731    21473957.817    21473959.707
  21473958.273
 130707043.55347 101849664.52845  24872705.961    24872701.562    24872706.627
  24872702.088
 106919720.48048  83314088.02447  20346121.356    20346118.741    20346122.573

 122720493.54447  95626357.16946  23352929.058    23352930.154    23352929.469
  23352930.583
 126295212.48046  98411856.21746  24033177.112    24033173.463    24033176.651
  24033173.596
 16  1  1  2 16 30.0000000  0  9G09G26G23G21G27G31G16G08G07
 113169992.03248  88184421.59248  21535528.313    21535527.918    21535529.085
  21535528.344
 115889450.04048  90303488.33847  22053009.698    22053009.952    22053010.385
  22053010.303
 108587377.52849  84613548.20347  20663487.157    20663482.101    20663487.798

 134211229.44246 104580177.65041  25539547.620    25539545.537    25539549.919

 112771051.45548  87873563.40647  21459611.354    21459610.712    21459611.946
  21459610.684
 130797730.24146 101920329.46746  24889960.797    24889958.944    24889962.069
  24889958.761
 106961308.85348  83346494.56247  20354035.421    20354032.763    20354036.804

 122611518.14847  95541441.40746  23332191.058    23332192.301    23332191.770
  23332192.954
 126202055.59046  98339266.43346  24015448.090    24015447.092    24015449.677
  24015447.861
 16  1  1  2 17  0.0000000  0  9G09G26G23G21G27G31G16G08G07
 113123777.34648  88148410.20748  21526733.981    21526733.647    21526734.699
  21526733.754
 115968723.15348  90365259.56047  22068094.689    22068095.212    22068095.338
  22068094.972
 108608648.44949  84630122.95947  20667534.614    20667529.632    20667535.737

 134177779.61146 104554112.77342  25533182.324    25533180.231    25533183.604

 112696119.18648  87815174.63748  21445352.758    21445351.380    21445353.563
  21445352.327
 130888488.90347 101991050.44646  24907232.611    24907228.448    24907233.135
  24907228.111
 107003301.01048  83379215.70047  20362026.608    20362023.564    20362027.646

 122502708.63147  95456654.92247  23311484.974    23311487.003    23311486.091
  23311487.977
 126108916.53346  98266690.60146  23997725.072    23997723.158    23997725.502
  23997723.052
 16  1  1  2 17 30.0000000  0  9G09G26G23G21G27G31G16G08G07
 113078095.47948  88112814.00448  21518041.280    21518040.540    21518041.657
  21518040.854
 116048197.89448  90427187.94347  22083218.600    22083219.108    22083218.977
  22083219.217
 108630518.65948  84647164.69747  20671696.485    20671691.378    20671697.030

 134144671.94046 104528314.56242  25526883.022    25526880.942    25526884.860

 112621651.81948  87757148.11047  21431181.821    21431180.687    21431182.499
  21431180.661
 130979319.18947 102061827.24045  24924516.866    24924513.196    24924518.439
  24924513.167
 107045694.73348  83412249.73047  20370093.683    20370090.827    20370094.973

 122394067.68047  95371999.78846  23290811.586    23290812.466    23290812.238
  23290813.666
 126015796.07047  98194129.22546  23980005.226    23980002.096    23980006.087
  23980002.410
 16  1  1  2 18  0.0000000  0  9G09G26G23G21G27G31G16G08G07
 113032948.12048  88077634.23247  21509449.925    21509449.408    21509450.581
  21509449.793
 116127872.49448  90489272.02847  22098379.741    22098380.499    22098380.060
  22098381.166
 108652987.86848  84664673.18247  20675972.460    20675967.216    20675973.254

 134111908.22346 104502784.47242  25520648.052    25520646.864    25520648.586

 112547651.82948  87699485.78948  21417100.054    21417098.868    21417101.091
  21417099.464
 131070220.23646 102132659.16345  24941814.738    24941811.934    24941815.913
  24941811.201
 107088488.92948  83445595.91747  20378237.200    20378234.184    20378238.448

 122285598.03247  95287478.11746  23270169.866    23270171.102    23270170.850
  23270171.585
 125922695.17047  98121583.11046  23962288.109    23962286.056    23962288.934
  23962285.932
 16  1  1  2 18 30.0000000  0  9G09G26G23G21G27G31G16G08G07
 112988337.12948  88042872.37947  21500960.890    21500960.130    21500961.484
  21500960.174
 116207745.22848  90551510.48647  22113579.330    22113579.468    22113579.902
  22113579.847
 108676055.69948  84682648.12447  20680361.942    20680356.870    20680362.763

 134079489.94146 104477523.53142  25514479.139    25514477.555    25514480.514

 112474121.56648  87642189.45848  21403107.964    21403106.730    21403108.482
  21403107.547
 131161191.73846 102203545.96546  24959126.308    24959122.362    24959126.238
  24959124.432
 107131681.53848  83479252.49947  20386456.662    20386453.382    20386457.708

 122177302.39947  95203092.07947  23249561.921    23249563.497    23249563.181
  23249563.220
 125829615.02147  98049053.29346  23944576.564    23944572.575    23944576.437
  23944574.244
 16  1  1  2 19  0.0000000  0  9G09G26G23G21G27G31G16G08G07
 112944264.44048  88008530.06548  21492573.804    21492573.207    21492574.569
  21492573.748
 116287814.46548  90613902.07447  22128815.952    22128816.537    22128816.332
  22128816.888
 108699721.73448  84701089.19947  20684865.382    20684860.361    20684866.106

 134047418.95346 104452533.24042  25508376.483    25508374.489    25508377.978

 112401063.50448  87585261.09948  21389205.372    21389204.055    21389206.358
  21389204.173
 131252233.30847 102274487.42146  24976451.191    24976448.382    24976452.311
  24976448.038
 107175270.56248  83513217.99447  20394751.018    20394747.917    20394752.062

 122069183.26947  95118843.58047  23228987.893    23228989.113    23228988.095
  23228990.231
 125736556.12347  97976539.88046  23926867.669    23926864.775    23926868.010
  23926865.729
 16  1  1  2 19 30.0000000  0  9G09G26G23G21G27G31G16G08G07
 112900731.47248  87974608.19547  21484289.891    21484289.281    21484290.560
  21484289.991
 116368078.47848  90676445.42647  22144089.557    22144090.396    22144090.531
  22144090.026
 108723985.17948  84719995.77447  20689482.346    20689477.652    20689483.091

 134015697.01146 104427814.95242  25502339.503    25502338.162    25502340.054

 112328479.95348  87528702.46848  21375393.250    21375392.042    21375393.325
  21375392.532
 131343344.21946 102345482.89145  24993788.070    24993786.612    24993788.848
  24993788.079
 107219254.03248  83547490.84547  20403120.903    20403117.939    20403122.155

 121961243.64947  95034734.93347  23208447.732    23208448.852    23208448.983
  23208449.089
 125643519.74447  97904044.09446  23909163.009    23909161.166    23909162.933
  23909161.994
 16  1  1  2 20  0.0000000  0  9G09G26G23G21G27G31G16G08G07
 112857740.24648  87941108.49447  21476109.284    21476108.301    21476109.837
  21476108.448
 116448535.59148  90739139.22647  22159400.114    22159400.507    22159400.675
  22159401.283
 108748845.53948  84739367.48547  20694213.136    20694208.419    20694214.049

 133984325.48146 104403369.74042  25496370.123    25496367.520    25496370.674

 112256373.32348  87472515.47048  21361671.545    21361670.543    21361672.680
  21361670.961
 131434523.96546 102416531.98145  25011139.734    25011136.183    25011139.395
  25011137.065
 107263630.33848  83582069.78247  20411565.314    20411562.434    20411566.514

 121853485.93347  94950767.99647  23187941.826    23187942.096    23187941.929
  23187943.373
 125550506.30147  97831566.03146  23891463.147    23891460.683    23891463.183
  23891461.652
 16  1  1  2 20 30.0000000  0  9G09G26G23G21G27G31G16G08G07
 112815292.53948  87908032.39748  21468031.579    21468030.933    21468032.440
  21468031.299
 116529184.19348  90801982.27747  22174747.081    22174747.702    22174748.101
  22174747.381
 108774302.38948  84759203.99047  20699057.700    20699052.667    20699058.596

 133953305.63646 104379198.49142  25490466.839    25490464.426    25490467.983

 112184746.00148  87416701.97248  21348041.515    21348040.086    21348041.966
  21348040.703
 131525772.12946 102487634.37345  25028502.645    25028501.437    25028503.394
  25028502.805
 107308397.45848  83616953.27447  20420084.289    20420081.312    20420085.289

 121745913.15047  94866945.15847  23167469.942    23167471.262    23167471.524
  23167470.806
 125457517.49747  97759107.14946  23873767.885    23873765.151    23873768.425
  23873766.066
 16  1  1  2 21  0.0000000  0  9G09G26G23G21G27G31G16G08G07
 112773389.81648  87875380.91948  21460057.876    21460057.219    21460058.387
  21460057.296
 116610022.69448  90864973.31647  22190129.963    22190130.677    22190130.570
  22190130.761
 108800355.13248  84779504.83347  20704015.067    20704010.227    20704015.870

 133922639.40946 104355302.74042  25484632.232    25484628.472    25484632.838

 112113600.20848  87361263.68148  21334502.603    21334501.853    21334503.879
  21334502.482
 131617088.54746 102558789.95046  25045880.494    25045878.055    25045881.605
  25045879.449
 107353553.49448  83652139.79947  20428677.231    20428674.283    20428678.420

 121638527.81447  94783268.44147  23147036.195    23147036.712    23147036.900
  23147037.113
 125364554.24747  97686668.25646  23856078.378    23856075.794    23856078.588
  23856076.449
 16  1  1  2 21 30.0000000  0  9G09G26G23G21G27G31G16G08G07
 112732033.79948  87843155.42648  21452188.009    21452187.289    21452188.604
  21452187.778
 116691049.28547  90928110.92747  22205548.790    22205549.380    22205549.805
  22205549.554
 108827003.03648  84800269.42347  20709086.171    20709081.345    20709086.810

 133892328.35546 104331683.79942  25478862.234    25478860.960    25478862.922

 112042938.34548  87306202.47448  21321056.182    21321055.268    21321056.365
  21321055.076
 131708472.20446 102629997.90846  25063270.003    25063267.956    25063271.886
  25063268.389
 107399096.70648  83687627.95747  20437343.845    20437340.906    20437344.922

 121531332.81647  94699740.04247  23126637.009    23126638.653    23126637.961
  23126639.601
 125271617.21647  97614249.78646  23838392.920    23838389.605    23838393.039
  23838390.290
 16  1  1  2 22  0.0000000  0  9G09G26G23G21G27G31G16G08G07
 112691226.24348  87811357.31448  21444422.637    21444422.008    21444423.378
  21444422.172
 116772262.38948  90991393.88547  22221003.424    22221004.181    22221004.085
  22221004.594
 108854245.79948  84821497.54847  20714270.281    20714265.198    20714271.096

 133862374.59546 104308343.38542  25473162.286    25473161.406    25473163.552

 111972762.70648  87251520.16348  21307702.144    21307701.372    21307703.485
  21307701.961
 131799922.46446 102701257.71846  25080671.812    25080669.567    25080673.017
  25080669.742
 107445025.39848  83723416.57947  20446083.746    20446080.607    20446084.791

 121424330.32247  94616361.59847  23106275.406    23106276.127    23106276.429
  23106276.817
 125178707.27147  97541852.58246  23820712.132    23820708.492    23820712.916
  23820709.200
 16  1  1  2 22 30.0000000  0  9G09G26G23G21G27G31G16G08G07
 112650968.86348  87779987.99248  21436762.033    21436761.208    21436762.610
  21436761.260
 116853660.29548  91054820.83447  22236492.832    22236493.459    22236493.546
  22236494.166
 108882082.72348  84843188.64947  20719567.334    20719562.556    20719568.196

 133832779.46646 104285282.39642  25467531.648    25467528.267    25467533.131

 111903075.60448  87197218.53147  21294441.146    21294440.103    21294441.805
  21294439.788
 131891439.22847 102772569.38646  25098088.623    25098084.800    25098089.084
  25098086.080
 107491337.12548  83759503.60247  20454896.539    20454893.491    20454897.767

 121317523.48347  94533135.56847  23085950.979    23085951.362    23085951.465
  23085952.186
 125085825.56247  97469477.31246  23803037.764    23803035.135    23803038.107
  23803034.471
 16  1  1  2 23  0.0000000  0  9G09G26G23G21G27G31G16G08G07
 112611263.15948  87749048.52748  21429206.304    21429205.408    21429206.721
  21429205.390
 116935241.25547  91118390.34847  22252017.040    22252017.738    22252017.987
  22252017.224
 108910512.78648  84865341.96547  20724977.370    20724972.351    20724978.180

 133803544.32146 104262501.89342  25461967.134    25461966.020    25461967.862

 111833879.26348  87143299.29148  21281273.562    21281272.371    21281274.602
  21281273.224
 131983021.57346 102843932.15346  25115515.050    25115512.526    25115516.851
  25115514.572
 107538030.55948  83795888.09047  20463782.149    20463779.169    20463783.064

 121210914.93847  94450064.09447  23065663.041    23065665.086    23065664.480
  23065664.964
 124992973.33747  97397124.91546  23785368.210    23785365.318    23785369.186
  23785364.496
 16  1  1  2 23 30.0000000  0  9G09G26G23G21G27G31G16G08G07
 112572110.69748  87718540.15648  21421755.371    21421754.897    21421756.039
  21421755.332
 117017003.83348  91182101.43847  22267576.022    22267576.644    22267577.323
  22267576.598
 108939535.42448  84887957.00847  20730500.256    20730495.357    20730501.053

 133774670.51646 104240002.93243  25456473.824    25456470.873    25456473.654

 111765175.92948  87089764.23148  21268199.940    21268198.857    21268200.694
  21268198.688
 132074669.22546 102915345.83846  25132955.458    25132953.114    25132955.555
  25132953.009
 107585103.69748  83832568.45147  20472739.876    20472736.994    20472740.750

 121104507.14147  94367149.01846  23045415.166    23045415.459    23045415.580
  23045415.647
 124900151.58947  97324796.38646  23767705.373    23767701.709    23767705.139
  23767701.927
 16  1  1  2 24  0.0000000  0  9G09G26G23G21G27G31G16G08G07
 112533513.10148  87688464.11648  21414410.243    21414410.086    21414411.017
  21414410.834
 117098946.60248  91245953.04247  22283169.301    22283169.784    22283169.932
  22283169.825
 108969149.85548  84911033.18847  20736135.535    20736130.941    20736136.393

 133746159.78246 104217786.91243  25451046.895    25451044.613    25451048.976

 111696967.92848  87036615.14048  21255220.391    21255219.486    21255220.839
  21255219.835
 132166381.50946 102986809.86945  25150408.593    25150404.826    25150409.703
  25150405.361
 107632554.43748  83869543.04347  20481769.271    20481766.418    20481770.569

 120998303.24247  94284392.82647  23025205.540    23025205.526    23025206.426
  23025206.456
 124807360.69747  97252491.75046  23750047.210    23750043.953    23750047.368
  23750044.589
 16  1  1  2 24 30.0000000  0  9G09G26G23G21G27G31G16G08G07
 112495471.91848  87658821.62448  21407171.286    21407170.825    21407172.217
  21407171.269
 117181067.47148  91309943.37147  22298796.173    22298796.997    22298796.768
  22298797.004
 108999355.40848  84934570.00647  20741883.778    20741878.897    20741884.431

 133718014.30246 104195855.64943  25445690.465    25445689.359    25445692.029

 111629257.32948  86983853.62248  21242335.474    21242334.410    21242336.658
  21242334.591
 132258157.96346 103058323.88945  25167872.607    25167869.990    25167873.609
  25167870.576
 107680381.25048  83906810.70847  20490870.471    20490867.500    20490871.633

 120892305.50447  94201797.26447  23005034.731    23005034.280    23005035.157
  23005035.600
 124714602.46047  97180212.58446  23732395.373    23732393.144    23732396.345
  23732393.809
 16  1  1  2 25  0.0000000  0  9G09G26G23G21G27G31G16G08G07
 112457988.86148  87629614.09648  21400038.748    21400037.875    21400039.408
  21400038.234
 117263364.84447  91374071.11447  22314457.295    22314457.730    22314457.514
  22314457.373
 109030151.24248  84958566.78847  20747743.942    20747738.839    20747744.712

 133690234.68046 104174209.45343  25440405.347    25440402.873    25440406.336

 111562046.47348  86931481.53848  21229545.758    21229544.723    21229546.354
  21229545.343
 132349998.08346 103129887.49546  25185349.174    25185346.582    25185348.724
  25185347.198
 107728582.34348  83944370.05847  20500042.684    20500039.865    20500043.901

 120786516.78547  94119364.58347  22984903.160    22984903.894    22984903.878
  22984905.028
 124621877.99847  97107959.75246  23714750.682    23714748.912    23714751.350
  23714749.293
 16  1  1  2 25 30.0000000  0  9G09G26G23G21G27G31G16G08G07
 112421065.28948  87600842.50648  21393012.342    21393011.746    21393012.819
  21393011.815
 117345837.09247  91438335.04547  22330151.018    22330151.468    22330151.592
  22330151.848
 109061536.91348  84983023.15147  20753716.264    20753711.349    20753717.094

 133662822.52146 104152849.48143  25435188.817    25435187.043    25435189.947

 111495337.47248  86879500.47448  21216851.295    21216850.350    21216851.965
  21216850.004
 132441901.21146 103201500.23445  25202837.611    25202835.691    25202838.048
  25202836.842
 107777155.21848  83982218.98547  20509285.873    20509283.054    20509287.077

 120680939.67647  94037096.76347  22964813.203    22964813.913    22964813.992
  22964814.860
 124529187.65347  97035733.49046  23697113.384    23697110.218    23697113.634
  23697110.531
 16  1  1  2 26  0.0000000  0  9G09G26G23G21G27G31G16G08G07
 112384702.79148  87572508.12348  21386092.707    21386092.026    21386093.596
  21386092.146
 117428482.95547  91502734.32747  22345878.254    22345878.755    22345878.463
  22345878.740
 109093511.42048  85007938.35447  20759800.688    20759796.112    20759801.611

 133635779.12546 104131776.77643  25430041.415    25430039.836    25430043.930

 111429132.55048  86827912.22948  21204252.907    21204251.883    21204254.101
  21204252.716
 132533867.07046 103273161.82245  25220338.281    25220335.628    25220339.986
  25220336.722
 107826098.33448  84020356.45647  20518599.576    20518596.541    20518600.554

 120575576.83347  93954995.94247  22944762.827    22944762.524    22944763.793
  22944763.530
 124436533.03247  96963535.12046  23679481.083    23679479.076    23679481.408
  23679479.022
 16  1  1  2 26 30.0000000  0  9G09G26G23G21G27G31G16G08G07
 112348902.87048  87544612.12648  21379280.224    21379279.539    21379280.893
  21379280.144
 117511300.91947  91567267.84247  22361637.374    22361638.374    22361638.332
  22361638.912
 109126073.53248  85033311.41847  20765997.317    20765992.232    20765998.049

 133609106.21546 104110992.82943  25424966.445    25424963.640    25424967.860

 111363433.82948  86776718.42148  21191750.805    21191749.695    21191751.578
  21191749.331
 132625894.88846 103344871.72245  25237850.876    25237848.815    25237851.241
  25237847.435
 107875409.93448  84058781.12047  20527983.124    20527980.275    20527984.436

 120470430.98447  93873064.19847  22924753.817    22924755.119    22924753.953
  22924756.030
 124343915.09047  96891365.38946  23661857.179    23661853.716    23661857.630
  23661855.188
 16  1  1  2 27  0.0000000  0  9G09G26G23G21G27G31G16G08G07
 112313666.86448  87517155.46948  21372575.224    21372574.455    21372575.937
  21372575.074
 117594289.07147  91631933.92047  22377429.909    22377430.533    22377430.400
  22377431.212
 109159222.70848  85059141.93647  20772305.319    20772300.289    20772306.212

 133582805.89146 104090499.21743  25419962.260    25419958.489    25419962.421

 111298243.53448  86725920.80348  21179345.506    21179344.590    21179346.323
  21179345.232
 132717984.11846 103416629.46945  25255375.540    25255372.005    25255375.773
  25255371.916
 107925088.06848  84097491.34547  20537436.670    20537433.781    20537437.754

 120365504.99947  93791303.78447  22904786.722    22904787.003    22904787.663
  22904788.664
 124251334.87747  96819225.11546  23644238.177    23644235.387    23644238.751
  23644235.723
 16  1  1  2 27 30.0000000  0  9G09G26G23G21G27G31G16G08G07
 112278996.37448  87490139.50648  21365977.685    21365976.985    21365978.181
  21365977.037
 117677445.78247  91696731.30947  22393254.400    22393254.345    22393254.897
  22393254.480
 109192958.01948  85085429.19447  20778724.993    20778719.883    20778725.906

 133556879.12446 104070296.72643  25415027.270    25415024.264    25415029.421

 111233563.66949  86675520.92348  21167037.464    21167036.368    21167038.201
  21167035.539
 132810134.00246 103488434.48945  25272909.016    25272907.187    25272910.559
  25272909.094
 107975130.75248  84136485.63547  20546959.557    20546956.565    20546960.555

 120260801.18547  93709716.47347  22884862.664    22884862.581    22884863.533
  22884864.059
 124158793.55447  96747115.15046  23626629.211    23626625.541    23626629.492
  23626626.628
 16  1  1  2 28  0.0000000  0  9G09G26G23G21G27G31G16G08G07
 112244892.87748  87463565.37848  21359488.108    21359487.108    21359488.941
  21359487.364
 117760769.70647  91761659.03447  22409109.564    22409111.054    22409110.329
  22409111.170
 109227278.64048  85112172.52847  20785256.110    20785251.006    20785256.857

 133531327.40346 104050386.56342  25410165.553    25410162.224    25410167.106

 111169396.37648  86625520.43848  21154826.826    21154825.937    21154827.344
  21154826.888
 132902344.33446 103560286.64745  25290457.831    25290455.338    25290458.978
  25290455.125
 108025536.27148  84175762.70547  20556551.313    20556548.412    20556552.402

 120156322.36847  93628304.48047  22864981.076    22864981.135    22864981.075
  22864980.874
 124066292.10347  96675036.21746  23609026.856    23609023.722    23609026.758
  23609024.008
 16  1  1  2 28 30.0000000  0  8G09G26G23G21G27G16G08G07
 112211357.64548  87437434.01948  21353106.451    21353105.576    21353107.001
  21353106.041
 117844259.36647  91826716.00347  22424997.650    22424998.306    22424998.616
  22424998.415
 109262183.23248  85139370.91147  20791898.187    20791893.295    20791899.031

 133506151.43846 104030769.22742  25405374.669    25405371.547    25405376.310

 111105743.72448  86575920.96348  21142714.156    21142712.868    21142714.990
  21142712.761
 108076302.60948  84215320.86447  20566211.842    20566208.864    20566212.949

 120052071.40847  93547070.03047  22845143.296    22845143.092    22845143.546
  22845143.796
 123973831.42647  96602989.03546  23591432.221    23591428.771    23591431.952
  23591429.863
 16  1  1  2 29  0.0000000  0  8G09G26G23G21G27G16G08G07
 112178392.26048  87411746.74148  21346833.164    21346832.738    21346833.891
  21346832.972
 117927912.88647  91891900.62047  22440916.466    22440917.694    22440917.089
  22440917.761
 109297671.15948  85167023.83247  20798651.180    20798646.237    20798651.967

 133481353.25046 104011446.18542  25400654.271    25400651.754    25400656.387

 111042607.77348  86526724.09848  21130699.736    21130698.670    21130700.490
  21130699.189
 108127427.66448  84255158.51747  20575940.799    20575937.620    20575941.725

 119948050.84447  93466015.15847  22825348.115    22825347.805    22825349.301
  22825349.510
 123881412.71847  96530974.46746  23573844.717    23573841.950    23573845.158
  23573842.499
 16  1  1  2 29 30.0000000  0  8G09G26G23G21G27G16G08G07
 112145998.02748  87386504.53948  21340668.681    21340668.139    21340669.493
  21340668.342
 118011728.70047  91957211.62847  22456866.135    22456866.632    22456866.229
  22456866.192
 109333741.32748  85195130.44447  20805515.278    20805510.295    20805516.181

 133456934.48146 103992418.67542  25396007.585    25396006.274    25396009.827

 110979990.64548  86477931.54348  21118784.157    21118782.994    21118785.032
  21118782.685
 108178909.78448  84295274.45947  20585737.438    20585734.320    20585738.506

 119844263.09847  93385141.66347  22805598.167    22805597.246    22805597.875
  22805598.055
 123789036.87647  96458993.26546  23556265.669    23556262.936    23556266.343
  23556263.853
 16  1  1  2 30  0.0000000  0  8G09G26G23G21G27G16G08G07
 112114176.29348  87361708.45348  21334613.289    21334612.654    21334613.875
  21334613.077
 118095705.37747  92022648.03247  22472845.923    22472846.699    22472846.635
  22472846.806
 109370392.77248  85223690.01647  20812489.937    20812484.854    20812490.693

 133432895.75346 103973687.34242  25391434.087    25391430.545    25391435.663

 110917894.24848  86429544.71848  21106967.385    21106966.539    21106968.322
  21106966.569
 108230747.08848  84335667.08047  20595601.717    20595598.793    20595602.936

 119740711.09247  93304451.85347  22785893.000    22785892.392    22785893.137
  22785892.425
 123696705.51947  96387046.81346  23538696.141    23538692.750    23538697.148
  23538693.071
 16  1  1  2 30 30.0000000  0  8G09G26G23G21G27G16G08G07
 112082928.36348  87337359.46648  21328666.866    21328666.385    21328667.539
  21328666.764
 118179841.40847  92088208.64147  22488856.420    22488857.216    22488856.991
  22488857.209
 109407624.47748  85252701.71747  20819574.908    20819569.625    20819575.675

 133409238.77446 103955253.40142  25386932.249    25386927.817    25386933.086

 110856320.75348  86381565.36848  21095250.479    21095249.516    21095250.922
  21095250.020
 108282937.49448  84376334.95847  20605533.305    20605530.347    20605534.547

 119637397.60847  93223947.90047  22766232.303    22766232.953    22766233.500
  22766232.998
 123604419.66947  96315135.88146  23521135.083    23521131.947    23521134.997
  23521132.236
 16  1  1  2 31  0.0000000  0  8G09G26G23G21G27G16G08G07
 112052255.54648  87313458.59248  21322830.062    21322829.484    21322830.687
  21322829.989
 118264135.14047  92153892.09847  22504897.157    22504897.849    22504897.603
  22504898.140
 109445435.57949  85282164.92047  20826769.767    20826764.893    20826770.692

 133385964.98546 103937118.03742  25382502.934    25382500.407    25382505.074

 110795272.03848  86333994.93548  21083633.456    21083632.287    21083634.574
  21083632.288
 108335479.63648  84417276.94347  20615531.814    20615528.729    20615532.984

 119534325.02147  93143631.68547  22746618.890    22746618.842    22746618.911
  22746619.833
 123512180.30847  96243261.12846  23503581.864    23503578.131    23503583.075
  23503578.388
 16  1  1  2 31 30.0000000  0  8G09G26G23G21G27G16G08G07
 112022159.15948  87290006.87848  21317102.662    21317102.176    21317103.411
  21317102.380
 118348584.99347  92219697.15647  22520967.803    22520968.347    22520968.383
  22520968.387
 109483824.69748  85312078.55247  20834075.068    20834069.990    20834075.849

 133363075.62245 103919282.28342  25378146.446    25378144.238    25378148.015

 110734750.13348  86286835.02048  21072116.484    21072115.297    21072117.031
  21072116.262
 108388370.85348  84458490.93647  20625596.517    20625593.548    20625597.600

 119431496.22747  93063505.41147  22727050.275    22727051.189    22727050.661
  22727051.749
 123419988.82447  96171423.63646  23486038.128    23486034.383    23486039.117
  23486035.299
 16  1  1  2 32  0.0000000  0  8G09G26G23G21G27G16G08G07
 111992640.37348  87267005.20148  21311485.655    21311484.909    21311486.292
  21311485.193
 118433189.64747  92285622.90947  22537067.229    22537068.109    22537067.953
  22537068.432
 109522790.72748  85342441.70647  20841490.287    20841485.114    20841490.973

 133340571.79646 103901746.89942  25373864.886    25373862.001    25373866.839

 110674756.99048  86240087.11848  21060699.997    21060699.062    21060700.164
  21060698.868
 108441609.70848  84499975.75447  20635727.434    20635724.472    20635728.603

 119328913.64447  92983571.00547  22707529.463    22707529.871    22707530.554
  22707530.754
 123327845.99847  96099624.11646  23468504.597    23468501.907    23468504.911
  23468502.067
 16  1  1  2 32 30.0000000  0  8G09G26G23G21G27G16G08G07
 111963700.50648  87244454.60148  21305978.592    21305977.892    21305979.310
  21305978.238
 118517947.18447  92351667.66847  22553196.327    22553197.102    22553197.171
  22553196.776
 109562332.62148  85373253.58547  20849014.851    20849009.650    20849015.657

 133318455.06546 103884513.12142  25369656.474    25369653.342    25369656.186

 110615294.54948  86193752.74848  21049384.446    21049383.610    21049385.166
  21049384.882
 108495194.35248  84541729.98647  20645924.312    20645921.271    20645925.273

 119226579.96847  92903830.56247  22688056.564    22688056.250    22688057.408
  22688056.561
 123235753.10047  96027863.43246  23450979.516    23450976.303    23450980.413
  23450976.118
 16  1  1  2 33  0.0000000  0  8G09G26G23G21G27G16G08G07
 111935340.88048  87222356.14048  21300582.017    21300581.167    21300582.669
  21300581.893
 118602856.58147  92417830.83647  22569353.900    22569354.021    22569354.524
  22569354.500
 109602449.15248  85404513.22847  20856648.618    20856643.558    20856649.394

 133296727.04445 103867582.26542  25365520.412    25365517.461    25365521.809

 110556364.65948  86147833.34648  21038170.820    21038169.832    21038172.268
  21038169.851
 108549122.94348  84583752.23147  20656186.664    20656183.626    20656187.809

 119124497.85847  92824286.13047  22668630.682    22668630.841    22668630.867
  22668631.540
 123143711.21647  95956142.48746  23433464.579    23433461.338    23433464.682
  23433461.803
 16  1  1  2 33 30.0000000  0  8G09G26G23G21G27G16G08G07
 111907562.74548  87200710.82848  21295296.017    21295295.124    21295296.670
  21295295.292
 118687916.18147  92484111.11147  22585539.306    22585541.160    22585540.171
  22585541.023
 109643139.17248  85436219.74147  20864391.520    20864386.682    20864392.355

 133275388.52146 103850954.87442  25361460.108    25361458.029    25361463.215

 110497969.29848  86102330.47448  21027058.711    21027057.828    21027059.839
  21027058.153
 108603393.55048  84626041.00447  20666514.025    20666511.077    20666515.178

 119022669.85047  92744939.68947  22649252.829    22649252.938    22649253.515
  22649254.623
 123051721.53647  95884462.14846  23415959.418    23415956.107    23415959.836
  23415956.098
 16  1  1  2 34  0.0000000  0  8G09G26G23G21G27G16G08G07
 111880367.13748  87179519.39248  21290120.809    21290120.125    21290121.297
  21290120.598
 118773124.40847  92550507.17947  22601754.390    22601755.129    22601755.431
  22601755.018
 109684401.28148  85468372.04147  20872243.481    20872238.550    20872244.448

 133254440.50145 103834631.74642  25357473.341    25357471.641    25357475.676

 110440110.32148  86057245.54848  21016048.153    21016047.225    21016048.496
  21016048.245
 108658003.93448  84668594.56247  20676905.885    20676903.170    20676907.033

 118921098.85047  92665793.53147  22629925.037    22629925.476    22629925.546
  22629927.040
 122959785.32947  95812823.53346  23398464.397    23398461.420    23398464.413
  23398462.410
 16  1  1  2 34 30.0000000  0  8G09G26G23G21G27G16G08G07
 111853755.38148  87158782.93948  21285056.824    21285056.240    21285057.432
  21285056.436
 118858479.70047  92617017.82247  22617997.009    22617997.647    22617997.476
  22617997.672
 109726234.65948  85500969.48247  20880203.980    20880199.187    20880204.876

 133233884.81346 103818614.38042  25353562.935    25353559.953    25353564.294

 110382789.61348  86012580.05448  21005140.461    21005139.615    21005141.129
  21005139.906
 108712952.50448  84711411.65247  20687362.232    20687359.465    20687363.460

 118819787.18847  92586849.43747  22610646.239    22610646.235    22610647.113
  22610647.346
 122867903.77947  95741227.48546  23380980.064    23380976.598    23380980.785
  23380977.892
 16  1  1  2 35  0.0000000  0  8G09G26G23G21G27G16G08G07
 111827728.66548  87138502.41248  21280103.995    21280103.403    21280104.790
  21280103.968
 118943980.62847  92683641.96947  22634267.184    22634267.899    22634268.165
  22634268.280
 109768637.76048  85534010.86547  20888273.142    20888268.154    20888274.202

 133213722.75645 103802903.69042  25349725.536    25349724.776    25349726.386

 110326009.00348  85968335.43248  20994335.418    20994334.572    20994336.483
  20994335.077
 108768237.00548  84754490.45347  20697882.680    20697879.809    20697883.876

 118718737.61047  92508109.58747  22591416.723    22591416.721    22591417.447
  22591417.576
 122776078.46347  95669675.29146  23363506.109    23363503.819    23363506.396
  23363504.257
 16  1  1  2 35 30.0000000  0  8G09G26G23G21G27G16G08G07
 111802288.05048  87118678.61048  21275262.899    21275262.277    21275263.642
  21275262.427
 119029625.72547  92750378.41647  22650565.491    22650566.187    22650566.433
  22650566.522
 109811609.48048  85567495.32647  20896450.581    20896445.453    20896451.272

 133193955.14846 103787500.39242  25345964.371    25345960.541    25345965.359

 110269770.25548  85924513.03048  20983633.579    20983632.667    20983634.809
  20983633.091
 108823856.09548  84797830.05847  20708466.670    20708463.676    20708467.927

 118617953.08647  92429576.26547  22572238.511    22572238.597    22572238.958
  22572239.389
 122684309.86447  95598167.27746  23346043.100    23346041.214    23346043.653
  23346040.695
 16  1  1  2 36  0.0000000  0  8G09G26G23G21G27G16G08G07
 111777434.53348  87099312.25348  21270533.838    21270532.758    21270534.356
  21270533.208
 119115413.43947  92817225.98547  22666890.086    22666890.488    22666890.416
  22666890.772
 109855148.54548  85601421.87547  20904735.584    20904730.649    20904736.430

 133174583.33046 103772405.49042  25342277.967    25342275.413    25342279.594

 110214075.18448  85881114.25348  20973035.220    20973034.318    20973036.055
  20973034.134
 108879807.38348  84841428.43747  20719113.829    20719110.799    20719115.152

 118517435.69647  92351251.09047  22553110.027    22553110.945    22553110.739
  22553111.751
 122592600.01447  95526705.13746  23328591.358    23328588.641    23328591.980
  23328588.820
 16  1  1  2 36 30.0000000  0  8G09G26G23G21G27G16G08G07
 111753169.28348  87080404.28748  21265916.225    21265915.064    21265916.620
  21265915.280
 119201342.40947  92884183.63347  22683241.493    22683241.794    22683241.806
  22683242.207
 109899253.58248  85635789.44247  20913128.606    20913123.578    20913129.464

 133155607.83746 103757619.28943  25338667.370    25338664.322    25338669.173

 110158925.67048  85838140.60048  20962540.726    20962539.766    20962540.947
  20962540.356
 108936089.51248  84885284.64747  20729823.978    20729820.903    20729824.946

 118417188.16747  92273136.15847  22534033.459    22534033.639    22534034.521
  22534034.808
 122500949.12047  95455288.80646  23311150.611    23311148.432    23311151.563
  23311147.236
 16  1  1  2 37  0.0000000  0  8G09G26G23G21G27G16G08G07
 111729493.33748  87061955.50148  21261410.609    21261409.822    21261411.457
  21261410.082
 119287411.07447  92951250.15547  22699619.987    22699620.736    22699620.724
  22699620.228
 109943923.01749  85670596.79847  20921628.989    20921623.879    20921629.785

 133137030.77146 103743143.54643  25335132.919    25335128.846    25335133.408

 110104323.39348  85795593.35548  20952150.266    20952149.357    20952151.078
  20952149.983
 108992700.38848  84929397.08647  20740596.559    20740593.533    20740597.662

 118317213.23547  92195233.67247  22515009.326    22515009.494    22515010.566
  22515010.408
 122409359.03347  95383919.92746  23293722.266    23293719.041    23293723.173
  23293719.816
 16  1  1  2 37 30.0000000  0  8G09G26G23G21G27G16G08G07
 111706407.61848  87043966.58948  21257017.608    21257016.988    21257018.274
  21257017.137
 119373618.05047  93018424.43247  22716024.590    22716025.302    22716025.350
  22716025.156
 109989155.64848  85705843.00447  20930236.392    20930231.233    20930237.086

 133118853.04046 103728979.02043  25331673.073    25331670.818    25331674.391

 110050270.05248  85753473.84148  20941864.145    20941863.408    20941864.936
  20941862.635
 109049638.08648  84973764.16947  20751431.518    20751428.620    20751432.291

 118217513.39848  92117545.53447  22496036.929    22496037.104    22496037.817
  22496037.968
 122317831.45147  95312599.76546  23276304.223    23276301.569    23276305.162
  23276302.173
 16  1  1  2 38  0.0000000  0  8G09G26G23G21G27G16G08G07
 111683913.40948  87026438.64948  21252736.797    21252736.255    21252737.643
  21252736.503
 119459961.84047  93085705.29147  22732455.680    22732455.664    22732456.393
  22732455.904
 110034950.33849  85741527.17047  20938950.876    20938945.686    20938951.787

 133101076.08246 103715126.90343  25328291.085    25328287.413    25328291.562

 109996767.51148  85711783.55348  20931682.906    20931682.135    20931683.301
  20931682.755
 109106900.57248  85018384.22047  20762328.109    20762325.364    20762329.057

 118118091.52048  92040074.00447  22477117.646    22477117.872    22477118.013
  22477118.751
 122226366.43947  95241328.26746  23258899.396    23258896.050    23258900.393
  23258897.015
 16  1  1  2 38 30.0000000  0  8G09G26G23G21G27G16G08G07
 111662011.53348  87009372.26248  21248569.267    21248568.609    21248569.959
  21248569.178
 119546441.05147  93153091.71547  22748911.599    22748913.037    22748912.454
  22748913.110
 110081305.11248  85777647.77747  20947771.797    20947766.737    20947772.491

 133083700.30646 103701587.38043  25324983.809    25324980.402    25324984.941

 109943817.33748  85670523.64848  20921606.926    20921605.828    20921607.622
  20921606.508
 109164486.00448  85063256.00847  20773286.338    20773283.247    20773287.598

 118018949.82148  91962820.79147  22458251.535    22458251.272    22458251.869
  22458251.960
 122134966.05447  95170107.14346  23241506.699    23241504.989    23241507.295
  23241504.605
 16  1  1  2 39  0.0000000  0  8G09G26G23G21G27G16G08G07
 111640703.08748  86992768.31448  21244514.326    21244513.650    21244514.963
  21244513.404
 119633054.26947  93220582.57047  22765393.662    22765394.045    22765394.793
  22765394.413
 110128218.89148  85814203.96147  20956699.287    20956694.191    20956700.041

 133066727.12446 103688361.54143  25321753.675    25321751.795    25321754.756

 109891421.29548  85629695.57348  20911636.347    20911635.227    20911637.145
  20911634.986
 109222392.57948  85108378.03447  20784305.590    20784302.698    20784306.690

 117920091.09547  91885788.06947  22439439.244    22439439.136    22439439.732
  22439439.757
 122043631.39447  95098937.31846  23224126.648    23224123.223    23224127.178
  23224123.882
 16  1  1  2 39 30.0000000  0  8G09G26G23G21G27G16G08G07
 111619988.91648  86976627.44548  21240572.228    21240571.557    21240572.916
  21240572.000
 119719799.92447  93288176.58147  22781901.617    22781901.739    22781901.871
  22781902.187
 110175690.20348  85851194.58947  20965732.715    20965727.448    20965733.363

 133050157.64346 103675450.19743  25318601.420    25318598.800    25318601.808

 109839580.84948  85589300.34748  20901771.545    20901770.476    20901772.546
  20901771.149
 109280618.42248  85153748.80647  20795385.492    20795382.710    20795386.528

 117821517.86748  91808977.80547  22420681.322    22420681.460    22420681.933
  22420681.878
 121952363.91447  95027819.85746  23206758.152    23206755.582    23206758.546
  23206755.680
 16  1  1  2 40  0.0000000  0  8G09G26G23G21G27G16G08G07
 111599869.73148  86960950.09648  21236743.934    21236743.362    21236744.725
  21236743.551
 119806676.78047  93355872.86647  22798432.667    22798433.581    22798433.235
  22798433.625
 110223717.83148  85888618.70947  20974872.123    20974867.234    20974872.962

 133033993.01746 103662854.28543  25315524.764    25315522.530    25315526.947

 109788297.98849  85549339.69548  20892012.773    20892011.610    20892014.008
  20892012.328
 109339161.40048  85199366.74247  20806525.799    20806523.172    20806526.908

 117723232.52848  91732391.86447  22401978.179    22401978.598    22401979.200
  22401979.302
 121861164.86347  94956755.71246  23189403.343    23189401.255    23189403.781
  23189401.266
 16  1  1  2 40 30.0000000  0  8G09G26G23G21G27G16G08G07
 111580346.82848  86945737.44048  21233028.737    21233028.369    21233029.394
  21233028.794
 119893683.27647  93423670.14047  22814989.645    22814990.998    22814990.874
  22814990.384
 110272300.05248  85926474.97047  20984116.941    20984111.877    20984117.758

 133018234.16946 103650574.59143  25312526.433    25312523.673    25312525.510

 109737574.12948  85509814.62348  20882360.529    20882359.026    20882361.345
  20882359.223
 109398019.55348  85245230.19247  20817726.329    20817723.333    20817727.433

 117625237.87048  91656032.42747  22383330.807    22383330.351    22383331.876
  22383331.137
 121770035.02247  94885745.44546  23172062.628    23172060.143    23172062.940
  23172060.076
 16  1  1  2 41  0.0000000  0  8G09G26G23G21G27G16G08G07
 111561420.95948  86930990.03248  21229427.245    21229426.830    21229427.756
  21229426.764
 119980817.89947  93491567.20447  22831571.119    22831571.911    22831571.613
  22831571.518
 110321435.37948  85964762.23747  20993467.220    20993462.314    20993468.140

 133002882.13146 103638611.98442  25309605.653    25309602.176    25309606.564

 109687410.81948  85470726.33148  20872814.738    20872813.389    20872815.097
  20872813.228
 109457191.95948  85291338.58347  20828986.384    20828983.424    20828987.415

 117527536.73147  91579901.73047  22364737.951    22364738.194    22364738.903
  22364739.528
 121678976.07047  94814790.39846  23154734.300    23154732.288    23154734.972
  23154732.000
 16  1  1  2 41 30.0000000  0  8G09G26G23G21G27G16G08G07
 111543092.92848  86916708.44948  21225939.729    21225939.069    21225940.502
  21225939.408
 120068079.45147  93559563.18247  22848176.169    22848176.978    22848176.708
  22848176.887
 110371121.97949  86003479.07647  21002922.329    21002917.087    21002923.120

 132987938.08546 103626967.32542  25306761.194    25306756.915    25306761.256

 109637809.66148  85432076.06148  20863375.701    20863374.653    20863376.310
  20863375.022
 109516676.17448  85337689.95247  20840305.702    20840302.880    20840306.717

 117430131.18347  91504001.34947  22346202.744    22346202.901    22346203.245
  22346203.822
 121587989.12447  94743891.45446  23137420.640    23137417.957    23137420.532
  23137417.885
 16  1  1  2 42  0.0000000  0  8G09G26G23G21G27G16G08G07
 111525363.68048  86902893.50748  21222566.034    21222565.170    21222566.463
  21222565.529
 120155466.48147  93627656.94647  22864805.226    22864806.254    22864806.164
  22864806.327
 110421358.60748  86042624.49747  21012482.072    21012476.955    21012482.813

 132973402.70646 103615641.03042  25303994.823    25303993.555    25303996.872

 109588772.19149  85393865.02048  20854044.207    20854043.505    20854044.603
  20854044.032
 109576470.24048  85384282.76347  20851684.086    20851681.178    20851685.305

 117333023.97148  91428333.42847  22327723.722    22327723.688    22327724.379
  22327724.959
 121497075.84647  94673050.01146  23120120.724    23120117.197    23120121.293
  23120117.469
 16  1  1  2 42 30.0000000  0  8G09G26G23G21G27G16G08G07
 111508233.78048  86889545.51148  21219306.211    21219305.482    21219307.280
  21219305.591
 120242977.63347  93695847.42147  22881458.744    22881459.263    22881459.472
  22881459.717
 110472143.55148  86082197.16747  21022146.046    21022140.959    21022146.734

 132959277.35946 103604634.20442  25301306.586    25301304.250    25301307.740

 109540300.01848  85356094.48648  20844820.244    20844819.239    20844820.523
  20844819.724
 109636572.00848  85431115.29347  20863121.212    20863118.135    20863122.349

 117236217.58747  91352899.91547  22309302.326    22309302.113    22309302.820
  22309303.981
 121406237.15547  94602266.65946  23102834.230    23102832.114    23102835.148
  23102832.570
 16  1  1  2 43  0.0000000  0  8G09G26G23G21G27G16G08G07
 111491704.26048  86876665.37448  21216160.593    21216159.992    21216161.032
  21216160.139
 120330611.51747  93764133.56347  22898134.618    22898135.489    22898135.216
  22898135.838
 110523475.38748  86122195.99847  21031913.977    21031908.902    21031914.854

 132945562.87446 103593947.54042  25298696.858    25298693.867    25298698.482

 109492394.64748  85318765.63348  20835704.173    20835703.314    20835704.718
  20835703.694
 109696979.90848  85478186.35147  20874616.541    20874613.484    20874617.753

 117139714.72247  91277702.89647  22290938.479    22290937.694    22290938.619
  22290939.014
 121315474.51047  94531542.53546  23085562.706    23085560.122    23085563.295
  23085559.504
 16  1  1  2 43 30.0000000  0  8G09G26G23G21G27G16G08G07
 111475775.81048  86864253.62148  21213129.548    21213129.079    21213130.033
  21213129.070
 120418366.75647  93832514.28747  22914834.039    22914834.079    22914834.598
  22914834.628
 110575352.44148  86162619.67947  21041786.037    21041780.684    21041786.817

 132932260.64146 103583582.23942  25296165.619    25296162.777    25296166.748

 109445057.37048  85281879.37948  20826696.226    20826695.296    20826696.874
  20826695.971
 109757692.38148  85525494.77347  20886169.559    20886166.704    20886170.725

 117043517.86348  91202744.34647  22272632.121    22272632.382    22272632.707
  22272633.118
 121224789.15247  94460878.57946  23068305.693    23068302.957    23068305.947
  23068302.546
 16  1  1  2 44  0.0000000  0  8G09G26G23G21G27G16G08G07
 111460449.16248  86852310.80648  21210212.834    21210212.614    21210213.845
  21210212.855
 120506242.03647  93900988.56947  22931556.023    22931557.207    22931556.595
  22931557.101
 110627773.01248  86203466.88547  21051761.256    21051756.192    21051761.865

 132919370.77046 103573538.15942  25293712.451    25293709.294    25293715.098

 109398289.91548  85245437.20348  20817796.543    20817795.717    20817797.102
  20817795.979
 109818707.25648  85573038.82047  20897780.283    20897777.400    20897781.422

 116947629.46348  91128026.14547  22254385.887    22254385.633    22254386.392
  22254387.116
 121134182.99447  94390276.51946  23051064.368    23051061.063    23051064.301
  23051061.778
 16  1  1  2 44 30.0000000  0  8G09G26G23G21G27G16G08G07
 111445724.95148  86840837.37648  21207411.043    21207410.324    21207411.555
  21207410.865
 120594235.91447  93969555.25947  22948300.120    22948301.871    22948300.540
  22948301.746
 110680735.26048  86244736.16047  21061839.460    21061834.500    21061840.483

 132906894.60046 103563816.40142  25291338.183    25291336.756    25291340.263

 109352093.71149  85209440.22548  20809005.714    20809004.839    20809006.442
  20809005.566
 109880022.77948  85620817.16147  20909448.189    20909445.472    20909449.593

 116852052.14147  91053550.33547  22236197.732    22236197.884    22236198.319
  22236198.807
 121043656.82847  94319736.82046  23033837.148    23033834.451    23033837.922
  23033834.561
 16  1  1  2 45  0.0000000  0  8G09G26G23G21G27G16G08G07
 111431603.92048  86829833.95548  21204723.554    21204723.434    21204724.363
  21204723.576
 120682347.02647  94038213.30347  22965066.953    22965068.581    22965068.192
  22965068.189
 110734237.75648  86286426.42447  21072020.785    21072015.552    21072021.717

 132894833.32546 103554418.03142  25289042.991    25289039.423    25289045.063

 109306470.07248  85173889.37648  20800323.661    20800322.840    20800324.152
  20800322.948
 109941636.68848  85668828.02947  20921172.941    20921170.202    20921173.873

 116756788.34948  90979318.84747  22218069.435    22218069.532    22218070.191
  22218070.963
 120953211.74047  94249260.22046  23016626.599    23016623.115    23016626.763
  23016622.723
 16  1  1  2 45 30.0000000  0  8G09G26G23G21G27G16G08G07
 111418086.76548  86819301.08548  21202151.502    21202151.123    21202152.244
  21202151.742
 120770574.01547  94106961.61647  22981856.547    22981857.490    22981856.907
  22981856.844
 110788278.84648  86328536.36846  21082304.137    21082299.549    21082304.850

 132883187.71245 103545343.60742  25286827.413    25286824.413    25286826.759

 109261420.36548  85138785.73048  20791750.924    20791750.190    20791751.663
  20791750.034
 110003547.70948  85717070.45047  20932954.175    20932951.364    20932955.406

 116661840.85347  90905333.81747  22200001.654    22200001.681    22200002.504
  22200002.413
 120862849.64247  94178848.23446  22999431.042    22999428.078    22999431.370
  22999428.516
 16  1  1  2 46  0.0000000  0  8G09G26G23G21G27G16G08G07
 111405174.18148  86809239.33248  21199694.259    21199693.861    21199694.983
  21199694.151
 120858915.51447  94175799.16547  22998667.990    22998668.510    22998668.305
  22998668.490
 110842856.47448  86371064.39046  21092690.279    21092685.165    21092690.872

 132871958.52246 103536593.60842  25284690.381    25284686.497    25284691.270

 109216945.96348  85104130.35648  20783287.810    20783286.993    20783288.357
  20783287.602
 110065753.34848  85765542.41847  20944791.249    20944788.385    20944792.635

 116567211.68347  90831596.83147  22181994.292    22181994.419    22181994.772
  22181995.072
 120772571.44647  94108501.61046  22982251.470    22982248.647    22982251.832
  22982249.092
 16  1  1  2 46 30.0000000  0  8G09G26G23G21G27G16G08G07
 111392866.79148  86799649.17748  21197352.251    21197351.981    21197353.155
  21197352.264
 120947370.22747  94244724.89747  23015499.188    23015500.541    23015500.119
  23015500.444
 110897969.24548  86414009.40547  21103177.967    21103172.831    21103179.001

 132861146.61945 103528168.74342  25282632.044    25282629.488    25282634.711

 109173048.22848  85069924.32948  20774934.475    20774933.547    20774935.038
  20774934.153
 110128252.38248  85814242.99447  20956684.793    20956681.795    20956685.871

 116472903.75448  90758110.15647  22164048.171    22164048.080    22164048.580
  22164049.294
 120682378.51347  94038221.38346  22965087.465    22965085.485    22965088.729
  22965085.795
 16  1  1  2 47  0.0000000  0  8G09G26G23G21G27G16G08G07
 111381164.98348  86790530.83848  21195125.642    21195125.106    21195126.535
  21195125.026
 121035936.87547  94313737.87147  23032353.832    23032353.634    23032354.934
  23032353.607
 110953615.29748  86457369.97146  21113766.875    21113761.804    21113767.642

 132850752.85546 103520069.75342  25280654.222    25280651.378    25280656.207

 109129728.53148  85036168.71648  20766691.004    20766690.069    20766691.556
  20766690.532
 110191042.57548  85863170.43247  20968633.298    20968630.515    20968634.467

 116378919.19748  90684875.45347  22146163.682    22146162.949    22146164.078
  22146163.786
 120592272.67847  93968009.07346  22947941.261    22947938.320    22947941.370
  22947938.609
 16  1  1  2 47 30.0000000  0  8G09G26G23G21G27G16G08G07
 111370069.56348  86781885.04248  21193013.929    21193013.510    21193014.666
  21193013.980
 121124614.06947  94382837.00747  23049227.953    23049228.003    23049228.906
  23049228.196
 111009792.71448  86501144.58246  21124457.178    21124451.948    21124457.855

 132840778.02546 103512297.23142  25278755.989    25278754.847    25278757.517

 109086988.19848  85002864.57448  20758557.691    20758556.868    20758558.076
  20758557.173
 110254122.39948  85912323.54847  20980637.034    20980634.120    20980638.255

 116285260.56147  90611894.71547  22128340.947    22128340.606    22128341.493
  22128342.252
 120502255.45147  93897865.83246  22930811.834    22930808.976    22930812.561
  22930808.492
 16  1  1  2 48  0.0000000  0  8G09G26G23G21G27G16G08G07
 111359581.09548  86773712.23548  21191018.281    21191017.948    21191019.119
  21191018.584
 121213400.60247  94452021.35047  23066122.863    23066124.690    23066123.392
  23066124.807
 111066499.69448  86545331.83646  21135248.316    21135243.152    21135249.199

 132831222.65946 103504851.51942  25276937.737    25276934.857    25276939.119

 109044828.35948  84970012.71148  20750535.050    20750534.247    20750535.677
  20750534.720
 110317489.83148  85961700.76647  20992695.361    20992692.488    20992696.629

 116191930.68048  90539170.17047  22110580.506    22110580.603    22110581.362
  22110581.358
 120412327.95647  93827792.52046  22913698.792    22913695.605    22913699.603
  22913696.209
 16  1  1  2 48 30.0000000  0  8G09G26G23G21G27G16G08G07
 111349699.91848  86766012.60348  21189138.239    21189137.491    21189138.986
  21189138.049
 121302295.01347  94521289.71647  23083039.494    23083039.755    23083040.248
  23083039.806
 111123734.43148  86589930.33246  21146139.608    21146134.426    21146140.542

 132822088.55446 103497734.09542  25275199.887    25275197.494    25275200.956

 109003250.44148  84937614.29848  20742622.930    20742622.313    20742623.758
  20742622.641
 110381143.05648  86011300.67147  21004808.334    21004805.252    21004809.381

 116098931.79448  90466703.52647  22092883.624    22092883.440    22092883.807
  22092885.180
 120322491.52147  93757790.18446  22896604.066    22896600.364    22896604.423
  22896601.015
 16  1  1  2 49  0.0000000  0  8G09G26G23G21G27G16G08G07
 111340426.67848  86758786.72148  21187373.361    21187372.764    21187374.035
  21187372.968
 121391296.10847  94590641.24247  23099975.989    23099976.032    23099976.690
  23099976.335
 111181494.99748  86634938.56246  21157131.204    21157126.181    21157132.216

 132813375.78446 103490944.96542  25273541.936    25273538.909    25273542.965

 108962255.70349  84905670.34748  20734822.017    20734821.114    20734822.684
  20734821.378
 110445080.28548  86061121.85947  21016975.054    21016972.378    21016975.914

 116006266.40948  90394496.74647  22075249.909    22075249.875    22075250.620
  22075250.269
 120232747.61647  93687859.90546  22879525.686    22879522.332    22879526.387
  22879522.202
 16  1  1  2 49 30.0000000  0  8G09G26G23G21G27G16G08G07
 111331761.83448  86752034.92448  21185724.752    21185723.865    21185725.639
  21185724.092
 121480402.57347  94660074.85347  23116932.433    23116932.444    23116932.856
  23116932.766
 111239779.53248  86680355.07546  21168222.302    21168217.183    21168222.768

 132805084.83546 103484484.52442  25271964.430    25271962.380    25271966.580

 108921845.34048  84874181.79448  20727132.131    20727131.236    20727132.839
  20727131.694
 110509299.15448  86111162.50947  21029195.774    21029192.631    21029196.688

 115913936.81448  90322551.62247  22057680.641    22057679.589    22057680.836
  22057680.455
 120143097.61147  93618002.81446  22862466.423    22862462.815    22862466.698
  22862463.314
 16  1  1  2 50  0.0000000  0  8G09G26G23G21G27G16G08G07
 111323705.77148  86745757.49548  21184191.806    21184190.674    21184192.426
  21184191.153
 121569613.14347  94729589.61147  23133908.605    23133909.218    23133909.293
  23133910.094
 111298586.46148  86726178.65546  21179412.833    21179407.828    21179413.493

 132797216.53345 103478353.48742  25270467.049    25270463.021    25270466.092

 108882020.37748  84843149.32948  20719553.695    20719552.747    20719554.034
  20719553.419
 110573798.70448  86161421.90447  21041469.459    21041466.515    21041470.593

 115821945.63848  90250870.20047  22040174.716    22040174.351    22040175.169
  22040175.382
 120053542.94347  93548220.06246  22845424.636    22845421.561    22845425.209
  22845421.430
 16  1  1  2 50 30.0000000  0  8G09G26G23G21G27G16G08G07
 111316258.93148  86739954.78648  21182774.500    21182773.840    21182775.303
  21182773.885
 121658926.48647  94799184.44247  23150904.819    23150904.540    23150905.217
  23150905.479
 111357913.76548  86772407.72446  21190702.397    21190697.269    21190703.296

 132789771.59146 103472552.25142  25269050.279    25269047.982    25269052.109

 108842781.90049  84812573.77348  20712086.926    20712086.080    20712087.153
  20712086.838
 110638576.88848  86211898.40547  21053796.186    21053793.383    21053797.279

 115730295.18148  90179454.26847  22022734.230    22022734.341    22022734.715
  22022735.642
 119964085.01047  93478512.64946  22828401.000    22828398.530    22828401.833
  22828398.991
 16  1  1  2 51  0.0000000  0  8G09G26G23G21G27G16G08G07
 111309421.59848  86734626.94348  21181473.574    21181472.572    21181473.987
  21181472.721
 121748341.35447  94868858.38247  23167919.065    23167919.563    23167919.248
  23167919.790
 111417759.49348  86819040.75246  21202090.497    21202085.467    21202091.549

 132782751.36946 103467081.91142  25267713.768    25267711.983    25267715.631

 108804131.56748  84782456.67248  20704732.095    20704731.040    20704732.773
  20704731.679
 110703631.50348  86262590.34247  21066175.658    21066173.088    21066176.791

 115638987.89548  90108305.74447  22005359.170    22005358.995    22005359.980
  22005360.122
 119874725.02047  93408881.47246  22811396.408    22811393.288    22811396.571
  22811393.894
 16  1  1  2 51 30.0000000  0  8G09G26G23G21G27G16G08G07
 111303194.35448  86729774.54848  21180288.419    21180287.575    21180289.124
  21180288.082
 121837856.40147  94938610.32047  23184953.737    23184953.703    23184953.899
  23184953.955
 111478121.59348  86866076.15446  21213576.956    21213571.998    21213577.678

 132776155.97746 103461942.67542  25266458.976    25266456.885    25266459.802

 108766070.00148  84752798.24348  20697489.070    20697488.304    20697489.944
  20697488.504
 110768960.92948  86313496.39347  21078607.675    21078604.653    21078608.746

 115548026.37648  90037426.66147  21988049.843    21988049.866    21988050.860
  21988051.063
 119785464.86147  93339328.14046  22794410.535    22794407.877    22794410.908
  22794407.945
 16  1  1  2 52  0.0000000  0  8G09G26G23G21G27G16G08G07
 111297577.41848  86725397.69148  21179219.794    21179218.729    21179220.339
  21179218.495
 121927470.39747  95008439.39247  23202006.860    23202006.956    23202006.999
  23202007.320
 111538998.26848  86913512.50446  21225161.757    21225156.573    21225162.301

 132769986.30246 103457135.20742  25265285.448    25265282.863    25265287.047

 108728598.37848  84723599.46348  20690358.789    20690357.685    20690359.587
  20690357.780
 110834563.52948  86364615.27447  21091091.349    21091088.460    21091092.381

 115457413.07048  89966818.90047  21970806.268    21970806.438    21970807.284
  21970807.537
 119696305.99047  93269853.72346  22777444.409    22777441.282    22777444.899
  22777441.765
 16  1  1  2 52 30.0000000  0  8G09G26G23G21G27G16G08G07
 111292571.26848  86721496.82248  21178266.983    21178266.375    21178267.724
  21178266.202
 122017182.10247  95078344.52747  23219078.954    23219079.108    23219079.064
  23219078.463
 111600387.38248  86961348.16746  21236843.642    21236838.292    21236844.197

 132764243.31046 103452660.17042  25264192.578    25264189.401    25264193.984

 108691717.91549  84694861.33748  20683340.688    20683339.792    20683341.910
  20683339.577
 110900437.51948  86415945.67647  21103626.867    21103623.556    21103627.854

 115367150.17248  89896484.17447  21953629.554    21953629.842    21953630.766
  21953630.309
 119607250.52947  93200459.85746  22760497.489    22760494.470    22760498.067
  22760495.444
 16  1  1  2 53  0.0000000  0  8G09G26G23G21G27G16G08G07
 111288176.03048  86718071.96248  21177430.512    21177429.811    21177431.210
  21177430.249
 122106990.37947  95148324.95647  23236168.030    23236168.062    23236168.379
  23236168.729
 111662286.79648  87009581.45146  21248622.456    21248617.609    21248623.447

 132758927.05746 103448517.66642  25263180.580    25263178.155    25263182.275

 108655429.78648  84666584.86748  20676435.159    20676434.269    20676436.146
  20676434.598
 110966580.60448  86467485.76847  21116213.278    21116210.312    21116214.209

 115277239.97848  89826424.32247  21936520.429    21936520.491    21936521.242
  21936521.022
 119518298.76347  93131146.75146  22743570.159    22743567.178    22743571.017
  22743568.040
 16  1  1  2 53 30.0000000  0  8G09G26G23G21G27G16G08G07
 111284392.06348  86715123.42648  21176710.292    21176709.740    21176711.194
  21176710.072
 122196893.96647  95218379.68947  23253276.199    23253276.466    23253276.333
  23253276.685
 111724694.76048  87058211.00446  21260498.559    21260493.477    21260499.496

 132754038.53746 103444708.41942  25262251.270    25262246.503    25262251.526

 108619734.78548  84638770.54348  20669642.795    20669642.045    20669643.379
  20669642.278
 111032991.55648  86519234.58747  21128850.849    21128848.003    21128851.814

 115187685.23248  89756641.41347  21919478.963    21919478.696    21919479.433
  21919479.066
 119429452.28047  93061915.70846  22726663.599    22726660.222    22726664.404
  22726660.617
 16  1  1  2 54  0.0000000  0  8G09G26G23G21G27G16G08G07
 111281219.56548  86712651.33948  21176106.910    21176105.990    21176107.559
  21176106.453
 122286891.69347  95288507.84847  23270401.891    23270402.721    23270402.395
  23270403.464
 111787609.09048  87107235.14346  21272470.898    21272465.820    21272471.388

 132749578.39646 103441232.95842  25261401.520    25261398.876    25261403.444

 108584634.03848  84611419.29648  20662963.292    20662962.427    20662964.185
  20662962.996
 111099668.11248  86571190.37747  21141538.964    21141535.959    21141540.186

 115098488.25248  89687137.29947  21902505.327    21902505.170    21902505.764
  21902506.101
 119340713.00347  92992768.21746  22709777.619    22709774.289    22709777.408
  22709773.951
 16  1  1  2 54 30.0000000  0  8G09G26G23G21G27G16G08G07
 111278658.81148  86710655.93448  21175619.668    21175618.682    21175620.274
  21175618.966
 122376982.30647  95358708.37247  23287545.840    23287546.797    23287546.367
  23287547.137
 111851027.89148  87156652.38246  21284538.758    21284534.043    21284539.431

 132745547.17645 103438091.72142  25260634.283    25260632.932    25260635.191

 108550128.46348  84584531.82648  20656397.199    20656396.174    20656397.866
  20656396.586
 111166608.69448  86623351.90047  21154277.504    21154274.327    21154278.815

 115009651.30348  89617913.71147  21885600.503    21885599.909    21885601.029
  21885600.705
 119252082.33047  92923705.39846  22692911.272    22692908.485    22692911.547
  22692909.081
 16  1  1  2 55  0.0000000  0  8G09G26G23G21G27G16G08G07
 111276710.06348  86709137.44548  21175248.589    21175247.895    21175249.318
  21175248.221
 122467164.49447  95428980.29647  23304707.003    23304707.365    23304707.521
  23304707.578
 111914949.19248  87206461.19946  21296702.843    21296697.896    21296703.639

 132741945.32546 103435285.05742  25259949.572    25259947.064    25259951.457

 108516218.98748  84558108.83148  20649944.476    20649943.537    20649945.111
  20649943.956
 111233811.84448  86675717.97447  21167065.448    21167062.900    21167066.407

 114921176.74148  89548972.51447  21868763.946    21868764.064    21868764.544
  21868765.056
 119163561.92547  92854728.49146  22676066.213    22676063.592    22676066.708
  22676063.592
 16  1  1  2 55 30.0000000  0  8G09G26G23G21G27G16G08G07
 111275373.36948  86708095.88148  21174994.279    21174993.233    21174994.685
  21174993.469
 122557437.00947  95499322.53047  23321885.094    23321885.591    23321886.150
  23321886.318
 111979370.56048  87256659.68046  21308961.870    21308956.830    21308962.603

 132738773.53245 103432813.52342  25259346.063    25259342.328    25259345.851

 108482906.54449  84532151.05048  20643605.302    20643604.509    20643605.820
  20643605.124
 111301275.34348  86728286.94147  21179903.788    21179900.792    21179904.456

 114833067.07948  89480315.65547  21851997.164    21851997.272    21851997.855
  21851997.797
 119075153.42847  92785838.75146  22659242.906    22659240.497    22659243.329
  22659240.556
 16  1  1  2 56  0.0000000  0  8G09G26G23G21G27G16G08G07
 111274648.87748  86707531.34148  21174856.179    21174855.503    21174856.709
  21174856.080
 122647798.71747  95569734.24547  23339079.396    23339080.498    23339080.806
  23339080.501
 112044289.85948  87307246.12946  21321315.231    21321310.348    21321316.273

 132736032.53146 103430677.68042  25258824.707    25258822.094    25258826.776

 108450192.02548  84506659.15648  20637380.065    20637379.239    20637380.496
  20637380.205
 111368997.29748  86781057.28147  21192790.783    21192787.710    21192791.955

 114745324.52048  89411944.83247  21835300.623    21835300.003    21835301.566
  21835300.919
 118986857.89848  92717037.07347  22642440.690    22642437.701    22642441.226
  22642437.726
 16  1  1  2 56 30.0000000  0  8G09G26G23G21G27G16G08G07
 111274536.77748  86707443.99048  21174835.141    21174834.233    21174835.399
  21174834.460
 122738248.35047  95640214.52746  23356291.524    23356291.744    23356293.238
  23356293.095
 112109705.41448  87358219.27346  21333763.584    21333758.587    21333764.311

 132733722.65946 103428877.81142  25258384.395    25258382.985    25258385.404

 108418076.35449  84481633.90848  20631268.571    20631267.759    20631269.494
  20631268.115
 111436976.57048  86834028.14847  21205726.755    21205723.815    21205727.886

 114657951.27148  89343861.79247  21818673.815    21818673.634    21818674.201
  21818674.268
 118898676.90447  92648324.61046  22625660.666    22625657.632    22625660.963
  22625657.334
 16  1  1  2 57  0.0000000  0  8G09G26G23G21G27G16G08G07
 111275037.18148  86707833.91448  21174930.198    21174929.788    21174930.762
  21174930.135
 122828784.80247  95710762.45446  23373520.461    23373521.499    23373521.356
  23373521.229
 112175614.79648  87409577.23246  21346305.681    21346300.788    21346306.622

 132731844.25746 103427414.14142  25258026.902    25258024.274    25258028.935

 108386560.46548  84457076.05848  20625271.296    20625270.396    20625272.197
  20625271.311
 111505210.98048  86887197.87147  21218711.007    21218708.218    21218712.038

 114570949.58548  89276068.28847  21802117.961    21802117.572    21802118.504
  21802118.064
 118810612.20847  92579702.76746  22608903.084    22608899.469    22608903.366
  22608900.399
 16  1  1  2 57 30.0000000  0  8G09G26G23G21G27G16G08G07
 111276150.11948  86708701.13948  21175142.193    21175141.247    21175142.884
  21175141.354
 122919406.89347  95781377.09747  23390765.012    23390766.236    23390765.887
  23390765.960
 112242016.01548  87461318.41346  21358941.567    21358936.668    21358942.254

 132730398.08546 103426287.27742  25257752.173    25257749.308    25257753.418

 108355645.10748  84432986.15748  20619388.239    20619387.514    20619389.030
  20619388.257
 111573698.59148  86940564.85846  21231743.803    21231740.892    21231745.078

 114484322.23248  89208566.45747  21785633.473    21785633.151    21785634.020
  21785633.529
 118722665.52448  92511172.91846  22592167.059    22592163.900    22592167.410
  22592163.826
 16  1  1  2 58  0.0000000  0  8G09G26G23G21G27G16G08G07
 111277875.64648  86710045.69948  21175470.337    21175469.729    21175470.873
  21175470.381
 123010113.39447  95852057.49546  23408027.239    23408026.421    23408027.537
  23408026.402
 112308906.56348  87513440.89946  21371670.286    21371665.038    21371671.139

 132729384.10145 103425497.13442  25257559.423    25257555.605    25257560.494

 108325331.06348  84409364.81648  20613619.758    20613619.022    20613620.512
  20613619.702
 111642438.07848  86994128.11946  21244824.571    21244821.597    21244825.787

 114398071.12248  89141357.81947  21769220.465    21769219.878    21769220.649
  21769221.369
 118634838.22747  92442736.06647  22575453.732    22575450.616    22575454.605
  22575450.872
 16  1  1  2 58 30.0000000  0  8G09G26G23G21G27G16G08G07
 111280213.78248  86711867.61748  21175915.333    21175914.671    21175915.949
  21175914.953
 123100903.12147  95922802.74046  23425303.112    23425303.149    23425303.215
  23425302.978
 112376284.33448  87565943.05046  21384492.044    21384486.883    21384492.715

 132728803.65246 103425044.85842  25257448.962    25257445.650    25257450.326

 108295619.14048  84386212.65048  20607965.791    20607964.962    20607966.465
  20607965.683
 111711427.50648  87047886.13246  21257952.830    21257949.636    21257954.112

 114312198.79848  89074444.33247  21752879.356    21752878.928    21752880.022
  21752880.164
 118547131.75247  92374393.38846  22558764.170    22558760.086    22558764.698
  22558760.757
 16  1  1  2 59  0.0000000  0  8G09G26G23G21G27G16G08G07
 111283164.50648  86714166.87748  21176476.788    21176476.132    21176477.141
  21176476.229
 123191774.90747  95993611.93046  23442595.219    23442595.210    23442595.787
  23442594.749
 112444147.34948  87618823.31146  21397406.050    21397400.791    21397406.792

 132728657.15046 103424930.71642  25257421.019    25257416.474    25257422.242

 108266510.10349  84363530.27248  20602426.573    20602425.714    20602426.974
  20602426.212
 111780664.50948  87101837.03646  21271128.153    21271125.321    21271129.504

 114226707.43448  89007827.68847  21736610.835    21736610.454    21736611.584
  21736611.548
 118459548.00547  92306146.37546  22542097.144    22542093.274    22542097.723
  22542093.801
 16  1  1  2 59 30.0000000  0  8G09G26G23G21G27G16G08G07
 111286727.83748  86716943.49748  21177154.825    21177154.394    21177155.749
  21177154.889
 123282727.67147  96064484.20846  23459903.383    23459903.022    23459904.030
  23459904.370
 112512493.59848  87672080.12346  21410412.073    21410406.736    21410412.859

 132728944.34646 103425154.58142  25257475.147    25257472.217    25257477.036

 108238004.65848  84341318.22548  20597002.094    20597001.384    20597002.331
  20597001.868
 111850148.13848  87155980.13246  21284350.908    21284347.669    21284351.907

 114141599.24848  88941509.61747  21720415.356    21720415.247    21720415.827
  21720415.539
 118372088.13648  92237995.88146  22525453.842    22525450.427    22525454.684
  22525450.695
 16  1  1  3  0  0.0000000  0  8G09G26G23G21G27G16G08G07
 111290903.67348  86720197.38948  21177949.605    21177948.975    21177950.136
  21177949.200
 123373760.22447  96135418.66246  23477226.175    23477226.546    23477227.171
  23477226.800
 112581320.29948  87725711.31246  21423508.942    21423504.174    21423509.786

 132729665.67846 103425716.70242  25257611.704    25257609.074    25257612.805

 108210103.57948  84319577.12548  20591692.713    20591691.984    20591693.522
  20591692.715
 111919876.46248  87210313.90646  21297619.525    21297616.510    21297620.525

 114056876.58248  88875491.96647  21704293.125    21704292.873    21704294.014
  21704293.617
 118284753.80348  92169943.16846  22508834.882    22508831.442    22508835.110
  22508831.265
 16  1  1  3  0 30.0000000  0  8G09G26G23G21G27G16G08G07
 111295691.99448  86723928.55848  21178860.508    21178859.981    21178861.321
  21178860.465
 123464871.42947  96206414.41246  23494563.878    23494564.416    23494564.128
  23494564.570
 112650625.42448  87779715.30146  21436697.161    21436692.358    21436697.925

 132730821.35846 103426617.28542  25257831.887    25257830.031    25257833.968

 108182807.53448  84298307.50348  20586498.313    20586497.605    20586499.183
  20586498.113
 111989847.81648  87264837.04246  21310934.444    21310931.438    21310935.573

 113972541.78048  88809776.55847  21688244.913    21688244.627    21688245.717
  21688245.555
 118197547.22047  92101990.02147  22492239.961    22492236.820    22492240.549
  22492237.132
