     2.11           OBSERVATION DATA    G (GPS)             RINEX VERSION / TYPE
teqc  2016Apr1                          20181217 15:57:44UTCPGM / RUN BY / DATE
ZIMM                                                        MARKER NAME
14001M004                                                   MARKER NUMBER
TRIMBLE NETR9       SWISSTOPO                               OBSERVER / AGENCY
5429R49141          TRIMBLE NETR9       5.10                REC # / TYPE / VERS
99390               TRM29659.00     NONE                    ANT # / TYPE
  4331297.3480   567555.6400  4633133.7280                  APPROX POSITION XYZ
        0.0000        0.0000        0.0000                  ANTENNA: DELTA H/E/N
     1     1                                                WAVELENGTH FACT L1/2
     6    L1    L2    P1    P2    C1    C2                  # / TYPES OF OBSERV
    30.0000                                                 INTERVAL
Linux 2.4.20-8|Pentium IV|gcc -static|Linux|486/DX+         COMMENT
teqc  2016Apr1                          20181217 15:25:49UTCCOMMENT
teqc  2016Apr1                          20170829 22:11:47UTCCOMMENT
teqc  2015Nov6                          20160102 00:11:17UTCCOMMENT
Linux2.6.32-279.el6.x86_64|x86_64|gcc|Win64-MinGW64|=       COMMENT
     2.11           OBSERVATION DATA    M (MIXED)           COMMENT
NetR9 5.10          Receiver Operator   01-JAN-16 00:00:00  COMMENT
L2C CARRIER PHASE MEASUREMENTS: PHASE SHIFTS REMOVED        COMMENT
L2C PHASE MATCHES L2 P PHASE                                COMMENT
GLONASS C/A & P PHASE MATCH: PHASE SHIFTS REMOVED           COMMENT
GIOVE-A if present is mapped to satellite ID 51             COMMENT
GIOVE-B if present is mapped to satellite ID 52             COMMENT
Forced Modulo Decimation to 30 seconds                      COMMENT
teqc edited: all GLONASS satellites excluded                COMMENT
teqc edited: all Galileo satellites excluded                COMMENT
teqc edited: GLONASS # 1 - 24 excluded                      COMMENT
teqc edited: all Galileo satellites excluded                COMMENT
teqc edited: GLONASS # 1 - 24 excluded                      COMMENT
teqc edited: all Galileo satellites excluded                COMMENT
teqc edited: GLONASS # 1 - 24 excluded                      COMMENT
teqc edited: all Galileo satellites excluded                COMMENT
  2016     1     1     0     0    0.0000000     GPS         TIME OF FIRST OBS
                                                            END OF HEADER
 16  1  1  0  0  0.0000000  0  8G14G26G29G12G31G02G21G25
 125119647.621 7  97495831.61546                  23809482.98046  23809479.891 7

 128684316.350 6 100273525.89647                  24487816.62547  24487809.273 6
  24487816.996 7
 105817639.748 9  82455320.88749                  20136427.88749  20136423.922 9
  20136428.441 9
 120044196.739 8  93540967.07349                  22843650.03949  22843646.078 8
  22843650.664 7
 112464372.453 9  87634583.91249                  21401260.41049  21401257.313 9
  21401261.133 9
 121353038.175 8  94560842.53948                  23092714.88748  23092714.078 8

 131407068.484 5 102395138.48045                  25005936.95345  25005931.563 5

 107804174.107 9  84003295.34349                  20514452.23449  20514446.211 9
  20514453.305 9
 16  1  1  0  0 30.0000000  0  8G14G26G29G12G31G02G21G25
 125207089.274 6  97563967.98846                  23826122.10946  23826119.125 6

 128589884.897 7 100199942.96247                  24469846.96147  24469839.898 7
  24469846.871 7
 105792158.199 9  82435465.15149                  20131579.06349  20131574.883 9
  20131579.457 9
 120128395.169 8  93606576.21749                  22859673.11349  22859668.477 8
  22859673.414 7
 112416024.395 9  87596910.09249                  21392059.93449  21392057.109 9
  21392060.957 9
 121401044.133 8  94598249.77248                  23101850.35948  23101849.086 8

 131306263.772 3                                                  24986748.664 3

 107835482.389 9  84027691.40549                  20520409.93049  20520403.734 9
  20520411.066 9
 16  1  1  0  1  0.0000000  0  8G14G26G29G12G31G02G21G25
 125294730.282 6  97632259.66646                  23842800.40646  23842795.789 6

 128495487.896 6 100126386.88246                  24451882.94946  24451876.391 6
  24451883.371 6
 105767154.937 9  82415982.10249                  20126821.11749  20126816.953 9
  20126821.543 9
 120212751.857 8  93672308.67648                  22875725.16448  22875720.992 8
  22875726.090 7
 112368146.673 9  87559602.77149                  21382949.01249  21382946.242 9
  21382950.004 9
 121449500.349 8  94636007.86348                  23111071.60948  23111070.016 8

 131205465.139 6 102238037.00055                  24967572.65645  24967568.195 6

 107867136.323 9  84052356.80849                  20526433.35949  20526427.398 9
  20526434.516 9
 16  1  1  0  1 30.0000000  0  8G14G26G29G12G31G02G21G25
 125382567.675 5  97700704.43846                  23859514.82446  23859510.484 5

 128401125.834 6 100052857.99946                  24433926.07046  24433920.453 6
  24433926.770 6
 105742629.253 9  82396871.19249                  20122153.77349  20122149.805 9
  20122154.434 9
 120297265.660 8  93738163.57048                  22891807.44148  22891803.984 8
  22891808.473 7
 112320740.533 9  87522662.92249                  21373928.03949  21373925.000 9
  21373928.969 9
 121498405.010 8  94674115.38948                  23120377.82448  23120377.055 8

 131104674.963 6 102159499.25646                  24948393.12946  24948388.953 6

 107899135.334 9  84077291.09749                  20532522.28949  20532516.625 9
  20532523.547 9
 16  1  1  0  2  0.0000000  0  8G14G26G29G12G31G02G21G25
 125470598.220 6  97769299.64346                  23876266.75046  23876262.484 6

 128306799.809 6  99979357.22847                  24415977.25047  24415970.656 6
  24415977.914 6
 105718581.260 9  82378132.50649                  20117577.73049  20117573.625 9
  20117578.254 9
 120381935.944 8  93804140.41548                  22907919.42248  22907915.664 8
  22907920.316 7
 112273808.366 9  87486092.39849                  21364997.23849  21364994.336 9
  21364997.891 9
 121547756.984 8  94712571.48148                  23129768.33648  23129768.008 8

 131003895.06414 102080969.64155                  24929213.96945  24929210.078 4

 107931479.517 9  84102494.36249                  20538677.57849  20538671.375 9
  20538678.805 9
 16  1  1  0  2 30.0000000  0  8G14G26G29G12G31G02G21G25
 125558819.103 6  97838043.18246                  23893055.64846  23893051.313 6

 128212510.793 6  99905885.28247                  24398034.42247  24398027.367 6
  24398034.668 7
 105695011.320 9  82359766.33049                  20113092.60949  20113088.234 9
  20113093.012 9
 120466762.233 8  93870238.79148                  22924061.46948  22924058.078 8
  22924062.156 7
 112227352.009 9  87449892.63149                  21356156.98049  21356154.039 9
  21356158.078 9
 121597554.825 8  94751374.99848                  23139244.65248  23139244.367 8

 130903128.544 6 102002450.11945                  24910037.08245  24910035.953 6

 107964168.911 9  84127966.61549                  20544898.19949  20544891.969 9
  20544899.371 9
 16  1  1  0  3  0.0000000  0  8G14G26G29G12G31G02G21G25
 125647226.987 6  97906932.47746                  23909877.48446  23909874.344 6

 128118259.393 6  99832442.64047                  24380099.62947  24380091.453 6
  24380099.465 7
 105671919.091 9  82341772.39649                  20108698.68449  20108694.234 9
  20108698.809 9
 120551743.920 8  93936458.25648                  22940233.41448  22940229.039 8
  22940234.172 7
 112181372.922 9  87414064.77049                  21347407.10549  21347404.586 9
  21347408.078 9
 121647796.902 8  94790524.67548                  23148806.08248  23148804.703 8

 130802377.254 3 101923942.65645                  24890866.52745  24890862.234 3

 107997203.088 9  84153707.52649                  20551184.41449  20551178.164 9
  20551185.535 9
 16  1  1  0  3 30.0000000  0  8G14G26G29G12G31G02G21G25
 125735818.943 6  97975965.11646                  23926737.21146  23926732.461 6

 128024046.555 6  99759030.06247                  24362171.61347  24362164.453 6
  24362171.434 7
 105649304.138 9  82324150.36649                  20104394.89549  20104390.375 9
  20104395.262 9
 120636880.376 8  94002798.34448                  22956434.21148  22956430.906 8
  22956434.910 7
 112135873.414 9  87378610.59449                  21338748.91049  21338745.984 9
  21338750.066 9
 121698481.519 8  94830019.19148                  23158451.04748  23158450.594 8

 130701643.454 6 101845448.95045                  24871697.94145  24871694.531 6

 108030581.995 9  84179717.05949                  20557536.24649  20557530.117 9
  20557537.203 9
 16  1  1  0  4  0.0000000  0  8G14G26G29G12G31G02G21G25
 125824592.202 6  98045139.16546                  23943629.83246  23943625.391 6

 127929873.106 6  99685648.16346                  24344250.25046  24344243.148 6
  24344250.695 6
 105627166.404 9  82306900.18649                  20100182.00849  20100177.766 9
  20100182.555 9
 120722170.536 8  94069258.19348                  22972664.20348  22972660.719 8
  22972665.305 7
 112090854.769 9  87343531.12549                  21330182.40649  21330179.281 9
  21330183.340 9
 121749607.203 8  94869857.38048                  23168179.80548  23168178.969 8

 130600929.480 6 101766970.42645                  24852531.52745  24852529.016 6

 108064305.373 9  84205995.01549                  20563953.70749  20563947.414 9
  20563954.855 9
 16  1  1  0  4 30.0000000  0  8G14G26G29G12G31G02G21G25
 125913543.040 6  98114451.45346                  23960556.54746  23960552.852 6

 127835739.909 7  99612297.63046                  24326337.03946  24326330.461 7
  24326337.523 7
 105605505.665 9  82290021.70749                  20096060.35949  20096056.031 9
  20096060.762 9
 120807614.702 8  94135838.04849                  22988923.81349  22988920.266 8
  22988924.602 7
 112046318.759 9  87308827.72849                  21321707.36749  21321704.297 9
  21321708.117 9
 121801172.203 8  94910037.90248                  23177991.80548  23177991.211 8

 130500237.683 3 101688509.26645                  24833371.06645  24833367.055 3

 108098373.120 9  84232541.30849                  20570436.38349  20570430.258 9
  20570437.316 9
 16  1  1  0  5  0.0000000  0  8G14G26G29G12G31G02G21G25
 126002668.611 6  98183899.94146                  23977516.53546  23977512.906 6

 127741647.816 6  99538979.13247                  24308432.01647  24308425.930 6
  24308432.672 7
 105584321.310 9  82273514.41749                  20092028.91449  20092024.617 9
  20092029.414 9
 120893211.589 8  94202536.89348                  23005212.39548  23005208.906 8
  23005212.828 7
 112002267.358 9  87274501.95049                  21313324.57449  21313321.555 9
  21313325.516 9
 121853174.781 8  94950559.40148                  23187887.77348  23187887.148 8

 130399570.215 5 101610067.22246                  24814215.42646  24814212.242 5

 108132785.023 9  84259355.78649                  20576984.58249  20576978.695 9
  20576985.652 9
 16  1  1  0  5 30.0000000  0  8G14G26G29G12G31G02G21G25
 126091965.738 6  98253482.11545                  23994509.05545  23994504.492 6

 127647597.634 6  99465693.29946                  24290535.23446  24290528.094 6
  24290535.184 6
 105563613.265 9  82257378.29449                  20088088.36749  20088084.094 9
  20088088.844 9
 120978960.893 8  94269354.52148                  23021530.19948  23021526.422 8
  23021530.496 7
 111958702.296 9  87240555.14149                  21305034.72349  21305031.563 9
  21305035.641 9
 121905613.574 8  94991420.80648                  23197866.64548  23197866.078 8

 130298929.328 5 101531645.71745                  24795063.55545  24795060.727 5

 108167540.943 9  84286438.31549                  20583598.56349  20583592.508 9
  20583599.410 9
 16  1  1  0  6  0.0000000  0  8G14G26G29G12G31G02G21G25
 126181431.435 6  98323195.66846                  24011534.46546  24011530.203 6

 127553590.018 6  99392440.63347                  24272645.81347  24272639.406 6
  24272646.348 7
 105543381.199 9  82241613.05849                  20084238.13349  20084233.805 9
  20084238.453 9
 121064861.616 8  94336290.11048                  23037876.13348  23037872.703 8
  23037876.906 7
 111915625.196 9  87206988.56949                  21296837.29749  21296834.227 9
  21296838.031 9
 121958487.086 8  95032620.93248                  23207928.39548  23207927.594 8

 130198317.210 3 101453246.66245                  24775917.14145  24775913.430 3

 108202640.439 9  84313788.57149                  20590278.08649  20590271.789 9
  20590279.289 9
 16  1  1  0  6 30.0000000  0  8G14G26G29G12G31G02G21G25
 126271062.821 7  98393038.30246                  24028589.43446  24028586.719 7

 127459626.384 6  99319222.23347                  24254765.18847  24254757.961 6
  24254765.340 7
 105523625.319 9  82226218.88049                  20080478.94549  20080474.523 9
  20080479.492 9
 121150913.316 7  94403343.34948                  23054251.48048  23054247.914 7
  23054252.191 7
 111873037.945 9  87173803.69549                  21288733.16849  21288730.242 9
  21288734.051 9
 122011793.621 8  95074158.49448                  23218072.12948  23218071.070 8

 130097736.586 5 101374872.20146                  24756777.99246  24756774.578 5

 108238083.776 9  84341406.74549                  20597022.50049  20597016.469 9
  20597023.602 9
 16  1  1  0  7  0.0000000  0  8G14G26G29G12G31G02G21G25
 126360856.869 6  98463007.60946                  24045678.45746  24045672.797 6

 127365707.392 6  99246038.59847                  24236892.75047  24236886.891 6
  24236892.738 6
 105504344.905 9  82211195.18949                  20076809.82049  20076805.719 9
  20076810.480 9
 121237114.602 8  94470513.16948                  23070654.84448  23070651.484 8
  23070655.652 7
 111830941.843 9  87141001.52749                  21280722.39149  21280719.586 9
  21280723.398 9
 122065531.546 8  95116032.19048                  23228297.98448  23228297.383 8

 129997189.860 5 101296524.17645                  24737644.39845  24737640.344 5

 108273870.567 9  84369292.55049                  20603832.50849  20603826.477 9
  20603833.402 9
 16  1  1  0  7 30.0000000  0  8G14G26G29G12G31G02G21G25
 126450809.876 6  98533100.98246                  24062794.90246  24062790.984 6

 127271833.655 6  99172890.24447                  24219029.93047  24219023.250 6
  24219030.000 7
 105485539.805 9  82196541.87349                  20073231.27049  20073226.984 9
  20073231.844 9
 121323465.938 7  94537799.89548                  23087086.89548  23087083.125 7
  23087088.105 7
 111789338.735 9  87108583.50949                  21272805.96549  21272802.719 9
  21272806.945 9
 122119699.175 8  95158240.75448                  23238605.41048  23238605.367 8

 129896678.98715 101218204.00455                  24718517.48845  24718513.633 5

 108310000.433 9  84397445.68849                  20610707.57449  20610701.359 9
  20610709.012 9
 16  1  1  0  8  0.0000000  0  8G14G26G29G12G31G02G21G25
 126540919.230 6  98603315.98546                  24079942.23846  24079939.344 6

 127178006.146 7  99099777.91347                  24201175.46947  24201168.703 7
  24201175.207 7
 105467209.473 9  82182258.51049                  20069743.01649  20069739.000 9
  20069743.551 9
 121409966.941 7  94605203.23048                  23103548.23048  23103543.828 7
  23103548.785 7
 111748230.542 9  87076551.14349                  21264983.19549  21264980.102 9
  21264984.000 9
 122174294.532 8  95200782.59648                  23248994.13348  23248994.703 8

 129796206.013 6 101139913.35246                  24699398.39546  24699395.445 6

 108346473.138 9  84425865.97549                  20617648.05549  20617642.164 9
  20617649.348 9
 16  1  1  0  8 30.0000000  0  8G14G26G29G12G31G02G21G25
 126631182.021 6  98673650.60046                  24097119.51246  24097115.211 6

 127084225.943 7  99026702.44047                  24183328.87147  24183322.180 7
  24183328.992 6
 105449354.097 9  82168345.23849                  20066345.08249  20066341.148 9
  20066345.734 9
 121496616.407 7  94672722.26148                  23120037.09848  23120032.828 7
  23120037.539 7
 111707619.135 9  87044905.87849                  21257254.77749  21257252.047 9
  21257255.645 9
 122229316.176 8  95243656.61048                  23259465.30548  23259464.492 8

 129695773.359 5 101061654.18145                  24680287.27345  24680283.281 5

 108383288.744 9  84454553.44649                  20624654.14549  20624648.180 9
  20624655.234 9
 16  1  1  0  9  0.0000000  0  8G14G26G29G12G31G02G21G25
 126721595.004 6  98744102.25145                  24114323.33645  24114319.250 6

 126990493.846 7  98953664.45347                  24165491.83647  24165484.695 7
  24165492.332 7
 105431972.726 9  82154801.32749                  20063037.69149  20063033.766 9
  20063038.285 9
 121583413.312 7  94740356.19548                  23136553.62948  23136549.695 7
  23136554.098 7
 111667505.613 9  87013648.58649                  21249621.61749  21249618.680 9
  21249622.586 9
 122284762.411 7  95286861.46548                  23270016.82848  23270015.156 7

 129595383.35216 100983428.28355                  24661183.41845  24661179.656 6

 108420446.875 9  84483507.83449                  20631725.10949  20631718.758 9
  20631725.969 9
 16  1  1  0  9 30.0000000  0  8G14G26G29G12G31G02G21G25
 126812154.764 6  98814668.30846                  24131557.26646  24131552.648 6

 126896810.849 7  98880664.72647                  24147665.16847  24147658.438 7
  24147665.438 7
 105415065.328 9  82141626.74449                  20059820.19549  20059816.430 9
  20059820.977 9
 121670357.565 7  94808104.94148                  23153098.42248  23153094.484 7
  23153099.188 7
 111627891.946 9  86982780.78349                  21242083.42649  21242080.508 9
  21242084.457 9
 122340631.527 8  95330395.82248                  23280647.73448  23280647.023 8

 129495038.844 5 100905237.65945                  24642088.03545  24642084.938 5

 108457947.476 9  84512729.07249                  20638861.35549  20638855.211 9
  20638862.242 9
 16  1  1  0 10  0.0000000  0  8G14G26G29G12G31G02G21G25
 126902858.609 7  98885346.63846                  24148815.78546  24148813.961 7

 126803177.680 7  98807703.84047                  24129847.80547  24129840.477 7
  24129847.613 7
 105398631.493 9  82128821.17449                  20056692.81649  20056689.102 9
  20056693.543 9
 121757448.512 7  94875967.99148                  23169671.84848  23169667.703 7
  23169672.508 7
 111588779.485 9  86952303.53249                  21234640.44549  21234637.625 9
  21234641.270 9
 122396921.739 7  95374258.32248                  23291359.45348  23291358.516 7

 129394741.527 5 100827083.94245                  24623002.60545  24622998.625 5

 108495790.131 9  84542216.84849                  20646062.34449  20646056.133 9
  20646063.305 9
 16  1  1  0 10 30.0000000  0  8G14G26G29G12G31G02G21G25
 126993703.215 6  98956134.50546                  24166106.18846  24166100.297 6

 126709595.360 7  98734782.54847                  24112039.60547  24112032.289 7
  24112039.527 7
 105382670.634 9  82116384.14849                  20053655.64149  20053652.023 9
  20053656.344 9
 121844685.343 8  94943944.70748                  23186272.66448  23186268.625 8
  23186273.203 7
 111550170.101 9  86922218.28949                  21227293.58649  21227290.516 9
  21227294.477 9
 122453631.331 8  95418447.61048                  23302151.05948  23302150.031 8

 129294493.858 6 100748968.96445                  24603926.27745  24603923.156 6

 108533974.718 9  84571971.07349                  20653328.89849  20653322.516 9
  20653329.879 9
 16  1  1  0 11  0.0000000  0  8G14G26G29G12G31G02G21G25
 127084685.855 5  99027030.26645                  24183416.22745  24183413.398 5

 126616065.105 7  98661901.86147                  24094240.98847  24094234.328 7
  24094241.074 7
 105367182.905 9  82104315.79749                  20050708.26649  20050704.633 9
  20050709.023 9
 121932067.371 7  95012034.56848                  23202900.26248  23202896.813 7
  23202901.332 7
 111512065.707 9  86892526.54649                  21220042.37149  21220039.531 9
  21220043.285 9
 122510758.693 7  95462962.44848                  23313022.07848  23313021.133 7

 129194298.298 4 100670894.44445                  24584858.62545  24584854.797 4

 108572501.276 9  84601991.75849                  20660660.27349  20660653.977 9
  20660661.152 9
 16  1  1  0 11 30.0000000  0  8G14G26G29G12G31G02G21G25
 127175803.156 7  99098030.57846                  24200757.77746  24200753.430 7

 126522587.378 6  98589062.08547                  24076452.36347  24076444.984 6
  24076452.816 7
 105352167.323 9  82092615.35649                  20047851.57049  20047847.383 9
  20047852.152 9
 122019594.125 7  95080237.21448                  23219555.70748  23219552.430 7
  23219556.906 7
 111474467.360 9  86863229.12049                  21212887.78549  21212884.609 9
  21212889.020 9
 122568301.898 7  95507801.30848                  23323972.27348  23323970.313 7

 129094156.860 5 100592862.16446                  24565802.84446  24565799.305 5

 108611369.156 9  84632278.41549                  20668056.44549  20668050.484 9
  20668057.387 9
 16  1  1  0 12  0.0000000  0  8G14G26G29G12G31G02G21G25
 127267051.817 6  99169133.48946                  24218119.60546  24218116.891 6

 126429163.214 6  98516264.04747                  24058674.49647  24058668.383 6
  24058674.953 7
 105337623.499 9  82081282.51849                  20045083.96949  20045079.805 9
  20045084.727 9
 122107264.959 7  95148552.12048                  23236239.71948  23236235.875 7
  23236240.316 7
 111437376.392 9  86834327.06249                  21205829.81649  21205826.758 9
  21205830.582 9
 122626259.438 7  95552963.01048                  23335001.14548  23334999.688 7

 128994071.962 6 100514874.00845                  24546757.64845  24546754.047 6

 108650578.222 9  84662830.92149                  20675517.57049  20675511.555 9
  20675518.938 9
 16  1  1  0 12 30.0000000  0  8G14G26G29G12G31G02G21G25
 127358429.085 5  99240336.49446                  24235510.43446  24235504.820 5

 126335793.568 7  98443508.48547                  24040906.55547  24040900.422 7
  24040906.754 7
 105323551.137 9  82070317.05849                  20042405.44549  20042401.828 9
  20042406.070 9
 122195079.326 8  95216978.86648                  23252950.03148  23252946.258 8
  23252950.648 7
 111400794.784 9  86805821.90249                  21198868.81649  21198865.359 9
  21198869.684 9
 122684629.624 7  95598446.27648                  23346108.77348  23346107.180 7

 128894046.019 5 100436931.68045                  24527722.58645  24527719.750 5

 108690128.221 9  84693649.09549                  20683043.43049  20683037.758 9
  20683044.633 9
 16  1  1  0 13  0.0000000  0  8G14G26G29G12G31G02G21G25
 127449932.106 7  99311637.60846                  24252921.50446  24252919.047 7

 126242479.571 7  98370796.32947                  24023149.57447  24023143.414 7
  24023150.063 6
 105309949.785 9  82059718.61649                  20039817.43449  20039813.508 9
  20039817.945 9
 122283036.474 7  95285516.85848                  23269688.32848  23269684.273 7
  23269688.879 7
 111364724.078 9  86777714.85149                  21192004.51649  21192001.305 9
  21192005.199 9
 122743410.064 7  95644249.23048                  23357293.51248  23357293.227 7

 128794081.214 5 100359037.04246                  24508700.65246  24508696.828 5

 108730019.114 9  84724732.90049                  20690635.02049  20690628.570 9
  20690635.988 9
 16  1  1  0 13 30.0000000  0  8G14G26G29G12G31G02G21G25
 127541557.588 5  99383033.96046                  24270358.84446  24270353.156 5

 126149222.084 6  98298128.14047                  24005402.91047  24005396.625 6
  24005403.199 7
 105296819.197 9  82049487.00849                  20037318.55949  20037314.820 9
  20037319.047 9
 122371135.754 7  95354165.62948                  23286452.57848  23286448.797 7
  23286453.230 7
 111329165.659 9  86750006.99149                  21185237.48049  21185234.867 9
  21185238.613 9
 122802599.274 7  95690370.69548                  23368557.30548  23368556.398 7

 128694180.048 5 100281192.02746                  24489690.01646  24489686.430 5

 108770250.609 9  84756082.10749                  20698290.44949  20698284.164 9
  20698291.484 9
 16  1  1  0 14  0.0000000  0  8G14G26G29G12G31G02G21G25
 127633302.456 6  99454523.54546                  24287814.70746  24287812.484 6

 126056022.176 6  98225504.87547                  23987667.46947  23987661.453 6
  23987667.902 7
 105284158.767 9  82039621.75149                  20034909.39149  20034905.555 9
  20034910.027 9
 122459376.434 7  95422924.57147                  23303244.27747  23303240.148 7
  23303244.684 7
 111294121.292 9  86722699.68449                  21178569.23449  21178566.039 9
  21178570.141 9
 122862195.698 7  95736809.44848                  23379898.35948  23379897.664 7

 128594344.730 4 100203398.34345                  24470692.21145  24470688.000 4

 108810822.570 9  84787696.62149                  20706011.25449  20706004.977 9
  20706012.277 9
 16  1  1  0 14 30.0000000  0  8G14G26G29G12G31G02G21G25
 127725163.731 5  99526103.65945                  24305297.08245  24305291.828 5

 125962880.748 6  98152927.13147                  23969943.88347  23969937.367 6
  23969944.059 7
 105271968.031 9  82030122.48549                  20032589.80549  20032585.695 9
  20032590.031 9
 122547758.250 7  95491793.50548                  23320062.70348  23320058.914 7
  23320063.352 7
 111259592.408 9  86695794.05349                  21171998.32049  21171995.414 9
  21171999.160 9
 122922197.396 7  95783564.01048                  23391316.16448  23391315.258 7

 128494577.236 5 100125657.39245                  24451706.08245  24451703.664 5

 108851734.600 9  84819576.11749                  20713796.61349  20713790.219 9
  20713797.570 9
 16  1  1  0 15  0.0000000  0  8G14G26G29G12G31G02G21G25
 127817138.106 6  99597772.05645                  24322798.79745  24322795.734 6

 125869798.610 6  98080395.61247                  23952231.15247  23952224.055 6
  23952231.578 7
 105260246.454 9  82020988.80849                  20030359.04349  20030355.258 9
  20030359.449 9
 122636280.468 7  95560771.82548                  23336908.61348  23336904.273 7
  23336908.676 7
 111225580.218 9  86669291.04349                  21165526.38349  21165523.070 9
  21165527.324 9
 122982602.384 7  95830632.81548                  23402810.45348  23402809.883 7

 128394880.251 4 100047971.43045                  24432734.67245  24432731.414 4

 108892986.378 9  84851720.35149                  20721646.25049  20721640.367 9
  20721647.414 9
 16  1  1  0 15 30.0000000  0  8G14G26G29G12G31G02G21G25
 127909222.684 6  99669526.19146                  24340321.85946  24340318.227 6

 125776776.740 7  98007911.06447                  23934529.37547  23934522.453 7
  23934529.711 7
 105248993.178 9  82012220.03049                  20028217.64849  20028213.844 9
  20028218.246 9
 122724941.974 7  95629858.67048                  23353779.96948  23353775.594 7
  23353780.699 7
 111192086.146 9  86643191.75749                  21159152.91049  21159149.609 9
  21159153.648 9
 123043408.978 7  95878014.59948                  23414381.94148  23414381.523 7

 128295255.987 5  99970342.22846                  24413777.48846  24413773.586 5

 108934577.586 9  84884129.08149                  20729560.72749  20729554.906 9
  20729561.938 9
 16  1  1  0 16  0.0000000  0  8G14G26G29G12G31G02G21G25
 128001414.168 6  99741363.75446                  24357865.50446  24357862.141 6

 125683816.066 7  97935474.19847                  23916839.18047  23916832.711 7
  23916839.414 7
 105238207.653 9  82003815.74449                  20026165.14849  20026161.313 9
  20026165.773 9
 122813742.956 7  95699054.18748                  23370678.00848  23370673.938 7
  23370678.223 7
 111159111.782 9  86617497.44249                  21152877.73049  21152874.461 9
  21152878.707 9
 123104615.139 7  95925707.70848                  23426028.82448  23426027.766 7

 128195706.677 5  99892771.26045                  24394833.48445  24394828.859 5

 108976507.966 9  84916802.09949                  20737540.19549  20737533.961 9
  20737541.340 9
 16  1  1  0 16 30.0000000  0  8G14G26G29G12G31G02G21G25
 128093709.985 7  99813282.58646                  24375428.66046  24375426.258 7

 125590917.687 7  97863085.84747                  23899161.34047  23899155.117 7
  23899161.637 7
 105227890.054 9  81995776.06649                  20024202.03949  20024197.852 9
  20024202.465 9
 122902682.029 7  95768357.33248                  23387602.55148  23387597.766 7
  23387602.727 7
 111126658.477 9  86592209.14549                  21146702.27349  21146698.906 9
  21146703.113 9
 123166219.262 7  95973710.93348                  23437752.29748  23437751.125 7

 128096234.554 5  99815260.54645                  24375905.02745  24375901.078 5

 109018777.350 9  84949739.26749                  20745583.49649  20745577.297 9
  20745584.500 9
 16  1  1  0 17  0.0000000  0  8G14G26G29G12G31G02G21G25
 128186106.867 5  99885280.09445                  24393011.80545  24393006.305 5

 125498082.915 7  97790747.07247                  23881495.93847  23881489.125 7
  23881496.004 7
 105218039.594 9  81988100.39949                  20022327.65649  20022323.289 9
  20022328.297 9
 122991758.776 7  95837767.75048                  23404553.22748  23404549.375 7
  23404553.934 7
 111094727.952 9  86567328.20649                  21140626.23449  21140623.047 9
  21140627.109 9
 123228219.647 7  96022022.91948                  23449550.32048  23449549.375 7

 127996842.236 6  99737812.03846                  24356991.21946  24356988.141 6

 109061385.715 9  84982940.57949                  20753691.61349  20753685.391 9
  20753692.582 9
 16  1  1  0 17 30.0000000  0  8G14G26G29G12G31G02G21G25
 128278601.714 7  99957354.07046                  24410612.30546  24410609.766 7

 125405312.033 6  97718458.08547                  23863842.21147  23863834.906 6
  23863842.141 7
 105208654.774 9  81980787.56449                  20020541.77749  20020537.570 9
  20020542.250 9
 123080972.607 7  95907284.98248                  23421530.65648  23421526.328 7
  23421531.285 7
 111063321.374 9  86542855.54249                  21134649.44549  21134646.359 9
  21134650.422 9
 123290613.603 7  96070641.59448                  23461423.25448  23461422.750 7

 127897531.643 5  99660427.14045                  24338092.46545  24338090.805 5

 109104332.231 9  85016405.38549                  20761864.50849  20761858.102 9
  20761865.473 9
 16  1  1  0 18  0.0000000  0  8G14G26G29G12G31G02G21G25
 128371191.714 5 100029501.98446                  24428232.97346  24428227.203 5

 125312606.798 6  97646220.27347                  23846200.95347  23846194.602 6
  23846200.793 7
 105199736.644 9  81973838.39449                  20018844.69549  20018840.539 9
  20018845.082 9
 123170323.104 7  95976908.70747                  23438533.02747  23438529.141 7
  23438533.434 7
 111032440.466 9  86518792.48949                  21128772.85949  21128770.016 9
  21128773.801 9
 123353400.018 7  96119566.08147                  23473370.97747  23473370.711 7

 127798305.463 5  99583108.04145                  24319210.13745  24319206.508 5

 109147617.170 9  85050133.89849                  20770101.18849  20770095.031 9
  20770102.414 9
 16  1  1  0 18 30.0000000  0  8G14G26G29G12G31G02G21G25
 128463873.244 5 100101721.47445                  24445867.54345  24445865.352 5

 125219967.775 6  97574034.02547                  23828571.98047  23828565.141 6
  23828572.609 7
 105191283.512 9  81967251.54749                  20017235.90649  20017231.844 9
  20017236.328 9
 123259809.408 7  96046638.25748                  23455561.82048  23455558.141 7
  23455562.453 7
 111002085.957 9  86495139.62249                  21122996.64549  21122993.445 9
  21122997.566 9
 123416576.914 7  96168794.82848                  23485393.48448  23485392.391 7

 127699165.810 6  99505856.39746                  24300345.10946  24300341.977 6

 109191239.931 9  85084125.65549                  20778402.28949  20778396.266 9
  20778403.074 9
 16  1  1  0 19  0.0000000  0  8G14G26G29G12G31G02G21G25
 128556643.836 5 100174010.14646                  24463522.95346  24463518.305 5

 125127396.366 7  97501900.46547                  23810955.81347  23810949.781 7
  23810956.652 7
 105183295.224 9  81961026.92849                  20015716.00849  20015711.680 9
  20015716.418 9
 123349430.771 7  96116473.08047                  23472615.55147  23472612.500 7
  23472616.973 6
 110972259.823 9  86471898.46449                  21117321.07049  21117318.195 9
  21117321.938 9
 123480142.458 7  96218326.42448                  23497489.64848  23497489.055 7

 127600114.970 5  99428673.95645                  24281496.00045  24281492.547 5

 109235200.587 9  85118380.70549                  20786767.89849  20786761.805 9
  20786769.020 9
 16  1  1  0 19 30.0000000  0  8G14G26G29G12G31G02G21G25
 128649500.140 4 100246365.63145                  24481192.91845  24481187.969 4

 125034893.097 7  97429820.02847                  23793353.25847  23793346.703 7
  23793353.918 7
 105175770.694 9  81955163.67249                  20014283.75449  20014279.930 9
  20014284.223 9
 123439187.004 7  96186412.96448                  23489696.23448  23489692.188 7
  23489697.531 7
 110942962.697 9  86449069.53249                  21111745.78149  21111742.680 9
  21111746.816 9
 123544094.304 7  96268159.04247                  23509658.50447  23509657.859 7

 127501155.023 5  99351562.30645                  24262663.82845  24262661.359 5

 109279498.322 9  85152898.40349                  20795197.27049  20795191.070 9
  20795198.379 9
 16  1  1  0 20  0.0000000  0  8G14G26G29G12G31G02G21G25
 128742439.191 5 100318785.71946                  24498877.85246  24498873.641 5

 124942459.240 6  97357793.66447                  23775763.57847  23775756.930 6
  23775764.441 7
 105168709.649 9  81949661.57349                  20012939.91849  20012935.984 9
  20012940.348 9
 123529077.254 7  96256457.26448                  23506801.88748  23506798.055 7
  23506802.695 7
 110914196.681 9  86426654.44949                  21106271.62949  21106268.836 9
  21106272.441 9
 123608430.944 7  96318291.48947                  23521901.82047  23521901.063 7

 127402288.182 5  99274523.19546                  24243850.98846  24243846.703 5

 109324133.115 9  85187678.75649                  20803691.20349  20803684.891 9
  20803692.430 9
 16  1  1  0 20 30.0000000  0  8G14G26G29G12G31G02G21G25
 128835457.858 5 100391267.72146                  24516580.03546  24516574.672 5

 124850095.853 7  97285822.21447                  23758187.20747  23758180.969 7
  23758187.492 7
 105162111.592 9  81944520.24449                  20011684.48449  20011680.602 9
  20011685.000 9
 123619100.780 7  96326605.40748                  23523933.24248  23523929.180 7
  23523933.789 7
 110885962.375 9  86404653.67749                  21100899.31649  21100896.313 9
  21100899.887 9
 123673150.231 7  96368722.10947                  23534217.70747  23534217.531 7

 127303517.477 5  99197559.06346                  24225055.82446  24225051.391 5

 109369104.668 9  85222721.50849                  20812248.45749  20812242.500 9
  20812249.387 9
 16  1  1  0 21  0.0000000  0  8G14G26G29G12G31G02G21G25
 128928553.352 5 100463809.74345                  24534293.90245  24534289.469 5

 124757803.879 7  97213906.40347                  23740625.35247  23740617.922 7
  23740625.484 7
 105155975.397 9  81939738.81549                  20010516.90649  20010512.961 9
  20010517.488 9
 123709256.641 7  96396856.69948                  23541088.63348  23541084.398 7
  23541089.590 7
 110858261.584 9  86383068.63849                  21095628.16049  21095624.984 9
  21095628.906 9
 123738250.371 7  96419449.49647                  23546605.55147  23546604.672 7

 127204844.615 6  99120671.14346                  24206278.49646  24206276.086 6

 109414412.637 9  85258026.40749                  20820870.33649  20820864.383 9
  20820871.625 9
 16  1  1  0 21 30.0000000  0  8G14G26G29G12G31G02G21G25
 129021722.502 6 100536409.01546                  24552025.17246  24552020.102 6

 124665584.449 7  97142047.13947                  23723076.46147  23723069.219 7
  23723076.563 7
 105150300.651 9  81935316.94949                  20009436.99649  20009432.992 9
  20009437.465 9
 123799544.639 7  96467210.94547                  23558269.43447  23558266.258 7
  23558270.695 6
 110831095.133 9  86361899.97549                  21090457.89849  21090455.117 9
  21090459.078 9
 123803729.537 7  96470472.20747                  23559066.02347  23559064.938 7

 127106271.721 5  99043861.11246                  24187521.00446  24187516.922 5

 109460056.766 9  85293593.25349                  20829556.38349  20829550.352 9
  20829557.473 9
 16  1  1  0 22  0.0000000  0  8G14G26G29G12G31G02G21G25
 129114962.264 5 100609063.29645                  24569767.22745  24569762.758 5

 124573438.746 6  97070245.31647                  23705541.35247  23705534.703 6
  23705541.754 7
 105145087.313 9  81931254.62449                  20008444.84049  20008441.273 9
  20008445.469 9
 123889964.379 7  96537667.85047                  23575476.23047  23575471.922 7
  23575477.285 6
 110804464.840 9  86341149.08449                  21085390.65649  21085387.672 9
  21085391.785 9
 123869585.462 7  96521788.51248                  23571598.36348  23571597.359 7

 127007801.886 5  98967131.34446                  24168782.87546  24168778.758 5

 109506036.910 9  85329421.92349                  20838306.01249  20838300.055 9
  20838306.984 9
 16  1  1  0 22 30.0000000  0  8G14G26G29G12G31G02G21G25
 129208269.434 5 100681770.31946                  24587522.77046  24587519.289 5

 124481367.549 7  96998501.54947                  23688020.34047  23688014.672 7
  23688020.727 7
 105140333.743 9  81927550.55549                  20007540.72349  20007536.242 9
  20007541.227 9
 123980514.659 7  96608226.45848                  23592707.64148  23592703.461 7
  23592708.602 7
 110778371.877 9  86320816.89149                  21080425.31349  21080422.281 9
  21080426.328 9
 123935816.372 7  96573397.01147                  23584201.49247  23584200.445 7

 126909437.014 6  98890483.41246                  24150063.66846  24150061.336 6

 109552352.403 9  85365511.91249                  20847119.68849  20847113.313 9
  20847120.871 9
 16  1  1  0 23  0.0000000  0  8G14G26G29G12G31G02G21G25
 129301641.625 5 100754527.63845                  24605291.45745  24605285.969 5

 124389372.144 6  96926816.80447                  23670514.89147  23670508.453 6
  23670514.770 7
 105136039.912 9  81924204.72649                  20006723.29749  20006719.453 9
  20006723.645 9
 124071194.985 7  96678886.43148                  23609963.57448  23609959.766 7
  23609964.570 7
 110752816.956 9  86300903.95649                  21075562.66449  21075559.375 9
  21075563.539 9
 124002420.531 7  96625296.33947                  23596875.66047  23596874.953 7

 126811179.264 6  98813918.89646                  24131365.69946  24131362.563 6

 109599003.225 9  85401863.19149                  20855997.33649  20855990.695 9
  20855998.074 9
 16  1  1  0 23 30.0000000  0  8G14G26G29G12G31G02G21G25
 129395075.198 6 100827333.06646                  24623070.93046  24623067.352 6

 124297453.386 7  96855191.80447                  23653024.38347  23653016.695 7
  23653023.793 7
 105132204.594 9  81921216.17549                  20005993.30149  20005989.414 9
  20005993.840 9
 124162004.679 7  96749647.18647                  23627244.12147  23627240.344 7
  23627244.961 6
 110727801.199 9  86281411.14949                  21070802.03949  21070799.164 9
  21070802.535 9
 124069395.565 7  96677484.65647                  23609620.06647  23609619.523 7

 126713030.708 6  98737439.53746                  24112688.90246  24112685.727 6

 109645988.748 9  85438475.28149                  20864938.45349  20864931.781 9
  20864939.309 9
 16  1  1  0 24  0.0000000  0  8G14G26G29G12G31G02G21G25
 129488567.650 3 100900184.33545                  24640861.69545  24640855.836 3

 124205612.703 7  96783627.64347                  23635547.00847  23635539.625 7
  23635547.035 7
 105128827.798 9  81918584.91849                  20005350.59449  20005346.734 9
  20005351.145 9
 124252943.443 7  96820508.51748                  23644549.08648  23644545.227 7
  23644550.309 6
 110703326.385 9  86262339.84949                  21066144.76249  21066141.906 9
  21066145.395 9
 124136739.854 7  96729960.73447                  23622435.34047  23622435.609 7

 126614994.107 6  98661047.42246                  24094033.88746  24094030.484 6

 109693309.059 9  85475348.23049                  20873942.98049  20873936.688 9
  20873943.785 9
 16  1  1  0 24 30.0000000  0  9G14G26G29G05G12G31G02G21G25
 129582115.564 5 100973078.78646                  24658663.87146  24658659.242 5

 124113850.927 7  96712124.97147                  23618084.19947  23618078.117 7
  23618085.375 6
 105125908.148 9  81916309.88149                  20004795.08649  20004791.008 9
  20004795.457 9
 132218557.33315                                                  25160353.289 5

 124344010.596 7  96891469.92048                  23661878.41048  23661875.406 7
  23661879.031 7
 110679393.388 9  86243690.74449                  21061590.44949  21061587.508 9
  21061591.371 9
 124204450.895 7  96782722.57247                  23635320.50047  23635319.930 7

 126517071.555 6  98584744.15046                  24075399.63346  24075396.055 6

 109740963.552 9  85512481.59149                  20883011.74649  20883005.203 9
  20883012.723 9
 16  1  1  0 25  0.0000000  0  9G14G26G29G05G12G31G02G21G25
 129675715.952 5 101046014.07645                  24676475.19545  24676469.227 5

 124022169.053 7  96640684.55247                  23600637.15247  23600631.938 7
  23600638.223 7
 105123445.046 9  81914390.58949                  20004326.60949  20004322.258 9
  20004327.223 9
 132151261.513 6 102975019.91555                  25147551.87545  25147548.516 6
  25147553.379 3
 124435205.142 7  96962530.56748                  23679232.26248  23679228.172 7
  23679233.707 7
 110656003.254 9  86225464.65749                  21057139.54349  21057136.711 9
  21057140.172 9
 124272527.069 7  96835768.93847                  23648275.39847  23648273.891 7

 126419265.254 6  98508531.45246                  24056787.27746  24056784.195 6

 109788951.823 9  85549875.04049                  20892142.98449  20892137.000 9
  20892144.066 9
 16  1  1  0 25 30.0000000  0  9G14G26G29G05G12G31G02G21G25
 129769366.250 5 101118988.32945                  24694295.34445  24694291.789 5

 123930568.554 7  96569307.54147                  23583206.77747  23583200.367 7
  23583207.176 7
 105121437.798 9  81912826.51449                  20003944.60949  20003940.500 9
  20003945.336 9
 132084244.758 5 102922799.06845                  25134798.99245  25134795.586 5
  25134799.980 3
 124526526.330 7  97033689.87547                  23696610.94947  23696606.773 7
  23696611.703 6
 110633157.302 9  86207662.60249                  21052792.31349  21052788.664 9
  21052793.055 9
 124340966.531 7  96889098.36647                  23661299.24247  23661297.570 7

 126321577.628 6  98432411.20246                  24038198.32846  24038195.234 6

 109837273.817 9  85587528.53249                  20901338.45749  20901332.492 9
  20901339.543 9
 16  1  1  0 26  0.0000000  0  9G14G26G29G05G12G31G02G21G25
 129863063.175 5 101191998.95246                  24712125.85546  24712121.883 5

 123839050.151 7  96497994.51947                  23565792.80147  23565785.133 7
  23565792.484 7
 105119885.721 9  81911617.11649                  20003649.04749  20003645.055 9
  20003649.398 9
 132017509.639 6 102870797.66345                  25122100.46145  25122096.508 6
  25122101.078 5
 124617973.876 7  97104947.70047                  23714012.35947  23714008.094 7
  23714012.891 6
 110610856.797 9  86190285.58649                  21048548.53549  21048545.359 9
  21048549.434 9
 124409767.151 7  96942709.23147                  23674391.12547  23674389.992 7

 126224010.732 6  98356385.08146                  24019632.30946  24019628.414 6

 109885928.970 9  85625441.62449                  20910597.49249  20910591.094 9
  20910598.461 9
 16  1  1  0 26 30.0000000  0  9G14G26G29G05G12G31G02G21G25
 129956803.647 5 101265043.38145                  24729965.00845  24729959.672 5

 123747615.227 7  96426746.55147                  23548392.48447  23548385.578 7
  23548392.973 7
 105118788.181 9  81910761.90049                  20003440.41049  20003436.313 9
  20003440.898 9
 131951059.362 6 102819018.26146                  25109456.39146  25109452.430 6
  25109456.789 5
 124709547.102 7  97176303.45947                  23731437.92647  23731434.047 7
  23731439.238 6
 110589102.503 9  86173334.17349                  21044408.76249  21044405.523 9
  21044409.531 9
 124478926.802 7  96996599.88347                  23687551.35947  23687551.414 7

 126126567.232 6  98280455.08846                  24001088.93046  24001085.344 6

 109934917.045 9  85663614.14149                  20919919.57449  20919913.250 9
  20919920.441 9
 16  1  1  0 27  0.0000000  0  9G14G26G29G05G12G31G02G21G25
 130050584.681 3 101338119.52343                  24747809.64843  24747805.406 3

 123656264.815 7  96355564.41648                  23531008.93048  23531002.563 7
  23531009.402 7
 105118144.114 9  81910260.04349                  20003317.28549  20003313.555 9
  20003317.816 9
 131884896.554 6 102767462.87146                  25096866.39846  25096860.711 6
  25096866.648 6
 124801245.333 7  97247756.59347                  23748888.39847  23748883.492 7
  23748888.871 7
 110567895.700 9  86156809.37949                  21040373.05149  21040370.172 9
  21040373.852 9
 124548443.436 7  97050768.69747                  23700780.09847  23700779.242 7

 126029249.199 6  98204622.83246                  23982569.71146  23982566.703 6

 109984237.720 9  85702045.82449                  20929304.89549  20929298.555 9
  20929305.617 9
 16  1  1  0 27 30.0000000  0  9G14G26G29G05G12G31G02G21G25
 130144403.551 5 101411225.14546                  24765663.43046  24765659.219 5

 123564999.852 6  96284448.86947                  23513641.21947  23513634.758 6
  23513641.656 7
 105117952.435 9  81910110.68849                  20003281.00049  20003277.469 9
  20003281.563 9
 131819023.962 6 102716133.58546                  25084330.71146  25084326.180 6
  25084331.531 5
 124893067.315 7  97319306.15047                  23766361.59047  23766357.367 7
  23766362.070 7
 110547236.960 9  86140711.64849                  21036441.88349  21036438.953 9
  21036442.730 9
 124618315.076 7  97105214.12147                  23714076.26247  23714075.625 7

 125932058.789 6  98128890.06346                  23964075.40246  23964072.047 6

 110033890.368 9  85740736.18749                  20938753.57849  20938747.273 9
  20938754.563 9
 16  1  1  0 28  0.0000000  0  9G14G26G29G05G12G31G02G21G25
 130238257.074 4 101484357.65145                  24783523.05545  24783518.891 4

 123473821.635 7  96213400.91147                  23496290.29747  23496285.414 7
  23496291.875 7
 105118212.848 9  81910313.62149                  20003330.54349  20003326.711 9
  20003331.164 9
 131753444.930 5 102665033.10046                  25071851.06646  25071847.289 5
  25071852.086 5
 124985013.089 7  97390952.15648                  23783858.19148  23783853.922 7
  23783858.668 6
 110527127.757 9  86125042.11849                  21032615.06649  21032612.188 9
  21032616.074 9
 124688539.745 7  97159934.62047                  23727440.21147  23727439.070 7

 125834998.436 6  98053258.63446                  23945605.38346  23945602.000 6

 110083874.840 9  85779685.11649                  20948265.71149  20948259.367 9
  20948266.672 9
 16  1  1  0 28 30.0000000  0  9G14G26G29G05G12G31G02G21G25
 130332142.289 5 101557514.95145                  24801389.24245  24801384.641 5

 123382731.281 7  96142421.42247                  23478957.35547  23478950.586 7
  23478957.445 7
 105118924.748 9  81910868.36249                  20003466.48449  20003462.234 9
  20003467.188 9
 131688161.942 5 102614163.27045                  25059428.50045  25059423.242 5
  25059429.449 6
 125077082.247 7  97462694.32847                  23801377.87547  23801374.141 7
  23801378.844 6
 110507569.022 9  86109801.53449                  21028893.19149  21028890.227 9
  21028894.395 9
 124759115.260 7  97214928.51147                  23740869.57847  23740868.555 7

 125738070.407 6  97977730.30246                  23927160.29746  23927157.398 6

 110134190.726 9  85818892.28249                  20957839.85549  20957833.797 9
  20957840.836 9
 16  1  1  0 29  0.0000000  0  9G14G26G29G05G12G31G02G21G25
 130426056.355 3 101630694.67345                  24819260.27745  24819256.617 3

 123291729.905 6  96071511.25848                  23461640.13348  23461633.094 6
  23461640.633 7
 105120087.077 9  81911774.08549                  20003687.34449  20003683.359 9
  20003687.895 9
 131623178.189 5 102563526.60145                  25047061.78545  25047056.773 5
  25047062.598 5
 125169273.673 7  97534531.77547                  23818921.43447  23818917.328 7
  23818922.625 6
 110488561.897 9  86094990.77349                  21025276.42249  21025273.414 9
  21025277.422 9
 124830039.737 7  97270194.33247                  23754365.65247  23754365.703 7

 125641276.811 6  97902306.71946                  23908741.13346  23908737.992 6

 110184837.660 9  85858357.41549                  20967477.84449  20967471.578 9
  20967478.848 9
 16  1  1  0 29 30.0000000  0  9G14G26G29G05G12G31G02G21G25
 130519995.927 5 101703894.33345                  24837136.28945  24837132.547 5

 123200818.750 7  96000671.40647                  23444339.85547  23444334.500 7
  23444340.633 7
 105121699.139 9  81913030.25049                  20003994.05149  20003990.180 9
  20003994.508 9
 131558496.242 6 102513125.11145                  25034751.95345  25034749.484 6
  25034752.750 3
 125261586.835 7  97606464.07847                  23836488.45747  23836483.688 7
  23836488.590 6
 110470107.203 9  86080610.48749                  21021765.03949  21021761.477 9
  21021765.852 9
 124901311.213 7  97325730.55247                  23767929.03547  23767928.008 7

 125544619.994 6  97826989.73846                  23890348.44546  23890344.547 6

 110235815.356 9  85898080.28249                  20977178.76249  20977172.266 9
  20977179.617 9
 16  1  1  0 30  0.0000000  0  9G14G26G29G05G12G31G02G21G25
 130613958.519 3 101777111.90245                  24855016.62545  24855012.211 3

 123109998.863 7  95929902.65048                  23427058.05148  23427050.852 7
  23427058.090 7
 105123759.683 9  81914635.87849                  20004386.23449  20004382.320 9
  20004386.953 9
 131494118.991 6 102462961.01046                  25022501.34046  25022498.672 6
  25022501.746 5
 125354020.809 7  97678490.48347                  23854078.22347  23854073.711 7
  23854079.051 6
 110452205.955 9  86066661.45149                  21018358.15649  21018355.273 9
  21018358.965 9
 124972927.566 7  97381535.49747                  23781557.68847  23781555.828 7

 125448102.373 6  97751781.20246                  23871981.13746  23871978.219 6

 110287123.329 9  85938060.50949                  20986942.12149  20986935.641 9
  20986943.051 9
 16  1  1  0 30 30.0000000  0  9G14G26G29G05G12G31G02G21G25
                                                                  24872897.531 5

 123019271.149 7  95859205.74448                  23409793.50448  23409786.984 7
  23409793.789 7
 105126267.067 9  81916589.69049                  20004863.16849  20004859.258 9
  20004863.629 9
 131430049.116 5 102413036.39246                  25010310.18446  25010306.148 5
  25010311.215 5
 125446574.786 7  97750610.42947                  23871690.73847  23871686.703 7
  23871691.609 6
 110434858.538 9  86053143.97149                  21015057.28149  21015054.039 9
  21015058.074 9
 125044886.436 7  97437607.32347                  23795251.15247  23795249.289 7

 125351725.818 6  97676682.55546                  23853641.62946  23853638.586 6

 110338760.930 9  85978297.58349                  20996768.28149  20996762.172 9
  20996769.402 9
 16  1  1  0 31  0.0000000  0  9G14G26G29G05G12G31G02G21G25
 130801940.441 5 101923591.22155                  24890789.19145  24890784.328 5

 122928637.314 7  95788581.98548                  23392546.89148  23392539.984 7
  23392546.695 7
 105129222.080 9  81918892.30449                  20005425.36349  20005421.672 9
  20005426.000 9
 131366289.971 6 102363353.97546                  24998177.34846  24998173.695 6
  24998178.246 5
 125539248.326 7  97822823.54447                  23889325.06347  23889321.367 7
  23889326.156 6
 110418066.603 9  86040059.33549                  21011861.98449  21011858.734 9
  21011863.133 9
 125117186.160 7  97493944.74847                  23809008.81347  23809007.461 7

 125255492.859 6  97601695.83646                  23835329.37146  23835325.781 6

 110390728.298 9  86018791.62249                  21006657.23449  21006651.172 9
  21006658.316 9
 16  1  1  0 31 30.0000000  0  9G14G26G29G05G12G31G02G21G25
 130895953.95014 101996848.46355                  24908679.30545  24908674.625 4

 122838098.369 7  95718032.15148                  23375316.46948  23375310.289 7
  23375317.309 7
 105132623.975 9  81921543.14649                  20006073.05549  20006069.016 9
  20006073.637 9
 131302844.549 5 102313915.98046                  24986105.36746  24986100.156 5
  24986105.430 5
 125632041.553 7  97895129.90947                  23906983.35547  23906979.063 7
  23906984.309 6
 110401831.128 9  86027408.31049                  21008772.45749  21008769.250 9
  21008773.043 9
 125189824.554 7  97550546.09747                  23822831.12547  23822830.234 7

 125159406.014 6  97526822.95146                  23817044.94546  23817041.383 6

 110443024.927 9  86059542.23249                  21016609.19149  21016603.023 9
  21016610.406 9
 16  1  1  0 32  0.0000000  0  9G14G26G29G05G12G31G02G21G25
 130989978.519 5 102070114.27446                  24926571.34446  24926567.742 5

 122747655.406 7  95647557.12048                  23358105.98048  23358099.273 7
  23358106.445 7
 105136470.814 9  81924540.68949                  20006805.35249  20006800.992 9
  20006805.930 9
 131239715.269 5 102264724.40346                  24974091.41846  24974086.438 5
  24974091.867 5
 125724953.115 7  97967528.51447                  23924663.75847  23924659.867 7
  23924664.707 6
 110386152.504 9  86015191.18349                  21005788.67249  21005785.758 9
  21005789.781 9
 125262799.286 7  97607409.54047                  23836717.32847  23836716.930 7

 125063467.178 6  97452065.41247                  23798788.54747  23798784.391 6

 110495650.263 9  86100548.96749                  21026623.73449  21026617.109 9
  21026624.789 9
 16  1  1  0 32 30.0000000  0  9G14G26G29G05G12G31G02G21G25
                                                                  24944460.328 4

 122657309.729 7  95577157.89448                  23340913.87548  23340907.516 7
  23340914.414 7
 105140762.366 9  81927884.76849                  20007621.14849  20007617.797 9
  20007621.738 9
 131176905.000 5 102215781.33746                  24962139.65246  24962134.469 5
  24962139.879 5
 125817982.403 7  98040018.83047                  23942367.54347  23942363.727 7
  23942368.070 6
 110371031.798 9  86003408.79649                  21002911.35249  21002908.070 9
  21002912.238 9
 125336108.673 6  97664533.74247                  23850668.23047  23850666.719 6

 124967678.757 6  97377425.05447                  23780559.41847  23780556.438 6

 110548604.075 9  86141811.66049                  21036700.10549  21036694.047 9
  21036701.113 9
 16  1  1  0 33  0.0000000  0  9G14G26G29G05G12G31G02G21G25
 131178049.82415 102216663.24855                  24962360.46945  24962355.805 5

 122567062.339 7  95506835.26248                  23323740.34848  23323733.813 7
  23323740.684 7
 105145497.142 9  81931574.21349                  20008522.74649  20008519.086 9
  20008523.164 9
 131114416.403 5 102167088.95946                  24950247.96946  24950242.844 5
  24950248.758 5
 125911128.469 7  98112600.13847                  23960092.49247  23960088.484 7
  23960092.840 6
 110356469.672 9  85992061.67749                  21000140.09049  21000137.313 9
  21000141.406 9
 125409750.459 6  97721916.94447                  23864682.17247  23864681.461 6

 124872043.075 7  97302903.73647                  23762360.52347  23762358.031 7

 110601885.717 9  86183329.80649                  21046839.65249  21046833.055 9
  21046840.789 9
 16  1  1  0 33 30.0000000  0  9G14G26G29G05G12G31G02G21G25
 131272090.218 5 102289941.43246                  24980255.33246  24980250.633 5

 122476914.362 7  95436590.08548                  23306586.14548  23306579.219 7
  23306586.590 7
 105150674.369 9  81935608.42449                  20009507.92249  20009503.969 9
  20009508.379 9
 131052252.512 6 102118649.60446                  24938418.16046  24938414.570 6
  24938419.082 4
 126004391.025 6  98185272.21147                  23977838.68047  23977834.719 6
  23977839.695 6
 110342466.974 9  85981150.47549                  20997475.48049  20997472.555 9
  20997476.281 9
 125483722.461 6  97779557.46047                  23878758.64147  23878757.789 6

 124776562.199 7  97228503.06547                  23744191.78147  23744187.797 7

 110655494.771 9  86225103.07949                  21057040.75449  21057034.781 9
  21057042.117 9
 16  1  1  0 34  0.0000000  0  9G14G26G29G05G12G31G02G21G25
 131366130.07613 102363219.13355                  24998150.62145  24998146.180 3

 122386867.262 7  95366423.51248                  23289450.57048  23289444.148 7
  23289450.996 7
 105156293.261 9  81939986.78549                  20010576.94149  20010573.500 9
  20010577.531 9
 130990416.214 6 102070465.50346                  24926651.33246  24926647.000 6
  24926651.785 5
 126097769.120 7  98258034.33347                  23995607.94147  23995604.164 7
  23995609.391 6
 110329024.680 9  85970675.94949                  20994917.80149  20994914.484 9
  20994919.113 9
 125558022.684 6  97837453.73347                  23892897.32047  23892896.422 6

 124681238.484 7  97154224.83646                  23726052.03546  23726048.781 7

 110709431.042 9  86267131.32849                  21067304.36749  21067298.516 9
  21067305.594 9
 16  1  1  0 34 30.0000000  0  9G14G26G29G05G12G31G02G21G25
 131460166.288 5 102436494.08645                  25016045.04345  25016040.852 5

 122296921.995 7  95296336.29948                  23272334.40248  23272327.898 7
  23272335.004 7
 105162352.306 9  81944708.13049                  20011730.02749  20011726.336 9
  20011730.875 9
 130928909.870 6 102022538.44146                  24914945.64846  24914942.641 6
  24914946.910 5
 126191262.292 7  98330886.12547                  24013399.50447  24013396.250 7
  24013400.746 6
 110316143.484 9  85960638.63849                  20992466.73449  20992463.453 9
  20992467.363 9
 125632648.701 6  97895603.88746                  23907097.57046  23907097.063 6

 124586073.968 7  97080070.63847                  23707942.88347  23707939.742 7

 110763693.852 9  86309414.01749                  21077630.82049  21077624.250 9
  21077632.086 9
 16  1  1  0 35  0.0000000  0  9G14G26G29G05G12G31G02G21G25
 131554195.918 4 102509763.92045                  25033938.29345  25033933.875 4

 122207080.081 7  95226329.59648                  23255238.32848  23255231.875 7
  23255238.820 7
 105168851.509 9  81949772.45349                  20012966.69549  20012962.922 9
  20012967.215 9
 130867736.873 6 101974871.15346                  24903305.55546  24903302.625 6
  24903307.176 5
 126284869.632 6  98403826.86047                  24031213.50047  24031208.578 6
  24031214.316 6
 110303824.272 9  85951039.24549                  20990122.35249  20990119.414 9
  20990123.086 9
 125707598.845 7  97954006.58346                  23921359.86346  23921360.344 7

 124491071.232 7  97006042.52047                  23689864.32047  23689860.625 7

 110818283.088 9  86351951.06549                  21088018.93449  21088012.320 9
  21088020.188 9
 16  1  1  0 35 30.0000000  0  9G14G26G29G05G12G31G02G21G25
 131648216.615 4 102583026.68245                  25051830.25045  25051825.469 4

 122117342.579 7  95156404.28548                  23238161.78948  23238155.141 7
  23238162.352 7
 105175789.669 9  81955178.81849                  20014287.03149  20014283.234 9
  20014287.574 9
 130806899.569 5 101927465.44245                  24891728.73845  24891723.805 5
  24891729.617 5
 126378590.904 6  98476856.36047                  24049047.89547  24049042.797 6
  24049048.859 6
 110292067.576 9  85941878.16449                  20987885.12549  20987882.047 9
  20987885.840 9
 125782870.826 6  98012660.07947                  23935684.12147  23935683.266 6

 124396232.152 7  96932141.92347                  23671817.90647  23671814.016 7

 110873198.178 9  86394742.02349                  21098468.88349  21098462.367 9
  21098469.805 9
 16  1  1  0 36  0.0000000  0  9G14G26G29G05G12G31G02G21G25
 131742225.317 5 102656280.14245                  25069719.34445  25069715.172 5

 122027710.907 7  95086561.42048                  23221105.77048  23221098.617 7
  23221105.941 7
 105183166.139 9  81960926.73149                  20015690.77049  20015686.930 9
  20015691.398 9
 130746400.763 5 101880323.57545                  24880216.56645  24880211.773 5
  24880216.621 5
 126472425.169 7  98549973.92547                  24066903.42647  24066899.211 7
  24066903.992 6
 110280874.540 9  85933156.31049                  20985755.41849  20985752.016 9
  20985756.035 9
 125858462.692 6  98071562.83247                  23950068.89847  23950068.063 6

 124301559.320 7  96858370.88047                  23653801.03947  23653798.328 7

 110928438.823 9  86437786.66549                  21108981.02349  21108974.258 9
  21108982.000 9
 16  1  1  0 36 30.0000000  0  8G26G29G05G12G31G02G21G25
 121938186.220 7  95016801.92148                  23204069.62948  23204063.172 7
  23204070.008 7
 105190979.518 9  81967015.08349                  20017177.37949  20017173.781 9
  20017177.711 9
 130686243.885 5 101833448.09946                  24868769.29746  24868763.758 5
  24868769.609 6
 126566372.242 7  98623179.42047                  24084780.77747  24084777.211 7
  24084781.641 6
 110270245.527 9  85924873.94749                  20983732.23049  20983729.133 9
  20983733.094 9
 125934372.251 6  98130713.13247                  23964514.46147  23964513.195 6

 124207054.892 7  96784731.03047                  23635818.39547  23635814.578 7

 110984004.565 9  86481084.63249                  21119554.50049  21119548.086 9
  21119555.434 9
 16  1  1  0 37  0.0000000  0  8G26G29G05G12G31G02G21G25
 121848769.741 7  94947126.73148                  23187053.44948  23187047.039 7
  23187054.570 7
 105199229.017 9  81973443.27649                  20018747.60549  20018743.367 9
  20018748.023 9
 130626430.773 5 101786840.53446                  24857387.83646  24857382.625 5
  24857388.242 6
 126660431.097 7  98696471.96647                  24102679.55947  24102675.930 7
  24102680.012 6
 110260181.335 9  85917031.70749                  20981817.14849  20981814.250 9
  20981818.141 9
 126010597.349 7  98190109.28446                  23979018.98846  23979018.789 7

 124112721.225 7  96711224.27347                  23617867.89847  23617862.984 7

 111039894.854 9  86524635.50049                  21130190.32049  21130183.781 9
  21130191.039 9
 16  1  1  0 37 30.0000000  0  8G26G29G05G12G31G02G21G25
 121759462.655 7  94877536.79748                  23170059.52048  23170052.820 7
  23170060.211 7
 105207913.728 9  81980210.58749                  20020399.95749  20020395.977 9
  20020400.391 9
 130566964.823 5 101740503.46046                  24846071.08246  24846066.734 5
  24846071.953 6
 126754600.921 7  98769850.99747                  24120599.89147  24120595.305 7
  24120600.441 6
 110250682.592 9  85909630.07549                  20980009.78149  20980006.727 9
  20980010.840 9
 126087135.793 7  98249749.65347                  23993583.21147  23993583.555 7

 124018560.275 7  96637852.09647                  23599949.19547  23599945.039 7

 111096109.275 9  86568438.92449                  21140887.16049  21140881.148 9
  21140888.133 9
 16  1  1  0 38  0.0000000  0  8G26G29G05G12G31G02G21G25
 121670266.219 7  94808033.09048                  23153086.06648  23153078.742 7
  23153086.344 7
 105217032.260 9  81987315.94349                  20022135.21949  20022131.148 9
  20022135.664 9
 130507848.564 6 101694438.87246                  24834821.59046  24834817.469 6
  24834821.969 6
 126848880.899 7  98843315.86147                  24138540.89847  24138536.680 7
  24138541.730 6
 110241749.621 9  85902669.30649                  20978310.11749  20978306.742 9
  20978310.832 9
 126163985.404 7  98309632.47347                  24008207.53147  24008205.930 7

 123924574.119 7  96564616.10347                  23582064.07447  23582059.813 7

 111152647.315 9  86612494.52049                  21151646.31649  21151640.156 9
  21151647.250 9
 16  1  1  0 38 30.0000000  0  8G26G29G05G12G31G02G21G25
 121581181.789 7  94738616.65448                  23136134.33248  23136126.852 7
  23136134.039 7
 105226584.087 9  81994758.93949                  20023952.98849  20023948.977 9
  20023953.508 9
 130449084.442 6 101648648.67446                  24823638.58646  24823635.047 6
  24823639.730 5
 126943270.421 7  98916866.12447                  24156502.12947  24156498.664 7
  24156503.410 6
 110233383.503 9  85896150.24049                  20976717.90649  20976714.844 9
  20976718.559 9
 126241144.242 7  98369756.19446                  24022890.80546  24022889.625 7

 123830765.165 7  96491518.20547                  23564213.08647  23564209.406 7

 111209508.604 9  86656802.00549                  21162466.42249  21162460.172 9
  21162467.617 9
 16  1  1  0 39  0.0000000  0  8G26G29G05G12G31G02G21G25
 121492210.257 7  94669288.18448                  23119202.16448  23119196.555 7
  23119203.059 7
 105236567.624 9  82002538.33449                  20025852.19149  20025848.656 9
  20025852.973 9
 130390675.062 5 101603134.88646                  24812523.09846  24812519.797 5
  24812524.371 5
 127037768.843 7  98990501.22947                  24174484.63747  24174480.125 7
  24174485.938 5
 110225584.138 9  85890072.79849                  20975234.14149  20975230.492 9
  20975234.840 9
 126318609.989 7  98430119.09846                  24037632.50846  24037631.172 7

 123737135.588 7  96418560.07147                  23546395.49647  23546391.977 7

 111266692.357 9  86701360.75249                  21173348.29749  21173341.992 9
  21173349.172 9
 16  1  1  0 39 30.0000000  0  8G26G29G05G12G31G02G21G25
 121403353.345 7  94600049.01048                  23102293.52348  23102287.313 7
  23102294.297 7
 105246982.328 9  82010653.69949                  20027834.74249  20027830.633 9
  20027835.164 9
 130332623.446 5 101557899.91945                  24801476.29345  24801472.219 5
  24801476.676 5
 127132375.561 7  99064220.70347                  24192488.22747  24192483.961 7
  24192489.125 6
 110218352.711 9  85884437.90649                  20973857.35249  20973854.313 9
  20973858.172 9
 126396380.396 7  98490719.39046                  24052431.77046  24052430.258 7

 123643687.634 6  96345743.45847                  23528613.05547  23528609.609 6

 111324198.452 9  86746170.68049                  21184291.21149  21184285.023 9
  21184292.168 9
 16  1  1  0 40  0.0000000  0  8G26G29G05G12G31G02G21G25
 121314612.121 7  94530900.00148                  23085406.97748  23085400.750 7
  23085407.773 7
 105257826.807 9  82019103.94849                  20029898.23049  20029894.391 9
  20029898.902 9
 130274932.207 4 101512945.73945                  24790497.35245  24790493.648 4
  24790498.789 5
 127227089.501 7  99138023.70147                  24210511.94547  24210507.617 7
  24210512.609 6
 110211689.646 9  85879245.90049                  20972589.90249  20972586.758 9
  20972590.555 9
 126474453.441 7  98551555.56346                  24067287.95346  24067288.063 7

 123550423.507 6  96273070.08347                  23510865.41447  23510861.813 6

 111382026.281 9  86791231.31449                  21195296.01249  21195289.469 9
  21195296.781 9
 16  1  1  0 40 30.0000000  0  8G26G29G05G12G31G02G21G25
 121225987.894 7  94461842.17048                  23068543.50448  23068535.813 7
  23068543.426 8
 105269100.276 9  82027888.48749                  20032043.47749  20032039.695 9
  20032043.891 9
 130217604.085 5 101468274.57746                  24779589.56646  24779585.938 5
  24779589.859 5
 127321910.402 7  99211910.09847                  24228556.60947  24228552.078 7
  24228556.656 6
 110205595.368 9  85874497.10049                  20971430.17249  20971427.039 9
  20971430.961 9
 126552826.994 7  98612625.87246                  24082201.61346  24082201.813 7

 123457345.370 7  96200541.64647                  23493153.54747  23493149.477 7

 111440175.403 9  86836542.29749                  21206361.27049  21206354.516 9
  21206362.008 9
 16  1  1  0 41  0.0000000  0  8G26G29G05G12G31G02G21G25
 121137481.993 7  94392876.54448                  23051700.45748  23051694.023 7
  23051701.051 7
 105280801.867 9  82037006.61949                  20034270.27749  20034266.195 9
  20034270.805 9
 130160641.812 6 101423888.37146                  24768750.18046  24768746.602 6
  24768750.434 6
 127416837.958 6  99285879.57647                  24246619.85547  24246614.539 6
  24246620.652 6
 110200070.763 9  85870192.20549                  20970378.57049  20970375.516 9
  20970379.492 9
 126631498.762 7  98673928.52046                  24097172.41846  24097172.484 7

 123364455.420 7  96128159.84347                  23475476.91847  23475473.297 7

 111498645.326 9  86882103.25849                  21217487.30549  21217481.172 9
  21217488.449 9
 16  1  1  0 41 30.0000000  0  8G26G29G05G12G31G02G21G25
 121049095.814 7  94324004.21448                  23034880.94148  23034874.695 7
  23034881.172 7
 105292930.654 9  82046457.62849                  20036577.96949  20036574.266 9
  20036578.523 9
 130104047.894 6 101379789.24746                  24757981.07846  24757976.859 6
  24757981.777 6
 127511870.956 6  99359931.22246                  24264703.37546  24264698.758 6
  24264704.148 6
 110195116.147 9  85866331.45449                  20969436.12149  20969432.984 9
  20969436.629 9
 126710466.680 7  98735461.93246                  24112200.12946  24112199.484 7

 123271755.926 7  96055926.45047                  23457837.31347  23457833.133 7

 111557435.681 9  86927913.91249                  21228674.55949  21228668.453 9
  21228675.574 9
 16  1  1  0 42  0.0000000  0  8G26G29G05G12G31G02G21G25
 120960830.466 7  94255226.00348                  23018084.59048  23018077.367 7
  23018085.055 8
 105305485.114 9  82056240.33249                  20038967.20749  20038963.148 9
  20038967.813 9
 130047825.165 6 101335979.35546                  24747281.80546  24747278.125 6
  24747282.629 5
 127607008.572 7  99434064.37047                  24282808.97747  24282803.836 7
  24282809.176 6
 110190731.499 9  85862914.82649                  20968601.95349  20968598.664 9
  20968602.688 9
 126789728.900 7  98797224.69847                  24127283.03947  24127282.484 7

 123179248.941 7  95983843.06047                  23440233.21547  23440229.477 7

 111616545.752 9  86973973.69249                  21239922.95349  21239916.852 9
  21239923.961 9
 16  1  1  0 42 30.0000000  0  8G26G29G05G12G31G02G21G25
 120872687.677 7  94186543.33149                  23001311.78549  23001305.172 7
  23001312.027 8
 105318464.913 9  82066354.47449                  20041437.05949  20041433.133 9
  20041437.770 9
 129991976.406 5 101292460.83646                  24736653.37546  24736649.977 5
  24736654.563 5
 127702250.627 7  99508278.92847                  24300932.41047  24300928.414 7
  24300932.918 6
 110186917.782 9  85859943.08949                  20967876.13349  20967872.867 9
  20967876.754 9
 126869282.959 6  98859214.86046                  24142422.06646  24142420.609 6

 123086936.720 7  95911911.44047                  23422667.19947  23422663.680 7

 111675975.468 9  87020282.54549                  21251232.42649  21251225.961 9
  21251233.496 9
 16  1  1  0 43  0.0000000  0  8G26G29G05G12G31G02G21G25
 120784668.308 7  94117956.79548                  22984561.89848  22984555.391 7
  22984562.516 7
 105331868.143 9  82076798.55449                  20043987.48849  20043983.609 9
  20043987.945 9
 129936503.833 6 101249235.53346                  24726097.60546  24726093.875 6
  24726097.898 5
 127797595.900 6  99582573.89246                  24319076.01646  24319071.672 6
  24319077.426 6
 110183675.101 9  85857416.30549                  20967258.43449  20967255.547 9
  20967259.570 9
 126949126.545 7  98921430.62746                  24157615.44146  24157614.266 7

 122994821.535 7  95840133.35148                  23405137.68048  23405134.586 7

 111735723.881 9  87066839.73049                  21262602.07049  21262595.516 9
  21262603.039 9
 16  1  1  0 43 30.0000000  0  8G26G29G05G12G31G02G21G25
 120696773.671 7  94049467.46949                  22967836.52049  22967829.781 7
  22967837.133 8
 105345692.949 9  82087571.14649                  20046618.17649  20046614.438 9
  20046618.750 9
 129881409.962 6 101206305.27946                  24715612.84846  24715609.156 6
  24715613.672 5
 127893043.212 6  99656948.35646                  24337238.74646  24337234.273 6
  24337239.906 5
 110181004.049 9  85855334.95349                  20966750.69949  20966747.242 9
  20966751.762 9
 127029257.393 7  98983870.23546                  24172863.93846  24172862.883 7

 122902905.239 7  95768510.22047                  23387647.09047  23387643.719 7

 111795790.496 9  87113644.86349                  21274032.45349  21274025.859 9
  21274033.461 9
 16  1  1  0 44  0.0000000  0  8G26G29G05G12G31G02G21G25
 120609005.539 7  93981076.70749                  22951134.66849  22951128.344 7
  22951135.191 8
 105359940.353 9  82098673.02449                  20049329.67249  20049325.891 9
  20049330.234 9
 129826698.043 6 101163672.68546                  24705202.28946  24705198.180 6
  24705203.176 5
 127988593.086 7  99731402.75847                  24355420.74247  24355417.328 7
  24355421.836 5
 110178904.994 9  85853699.31049                  20966350.85949  20966347.969 9
  20966351.926 9
 127109673.781 7  99046532.35446                  24188166.83646  24188165.648 7

 122811190.523 7  95697044.18547                  23370194.93047  23370190.336 7

 111856175.175 9  87160697.84749                  21285523.21949  21285517.102 9
  21285524.406 9
 16  1  1  0 44 30.0000000  0  8G26G29G05G12G31G02G21G25
 120521365.131 7  93912785.49648                  22934457.34848  22934450.297 7
  22934457.277 8
 105374608.751 9  82110102.95649                  20052120.85549  20052117.047 9
  20052121.711 9
 129772370.357 5 101121339.43346                  24694863.10246  24694859.031 5
  24694863.559 5
 128084244.577 7  99805936.35746                  24373623.05146  24373619.758 7
  24373624.141 5
 110177378.562 9  85852509.86649                  20966060.77749  20966057.477 9
  20966061.840 9
 127190373.765 7  99109415.43246                  24203523.82446  24203522.734 7

 122719679.092 7  95625736.56147                  23352780.58647  23352776.852 7

 111916877.345 9  87207998.21649                  21297074.12949  21297068.086 9
  21297075.309 9
 16  1  1  0 45  0.0000000  0  8G26G29G05G12G31G02G21G25
 120433853.609 7  93844594.71748                  22917804.54748  22917797.836 7
  22917804.930 8
 105389696.793 9  82121859.88249                  20054992.07049  20054988.148 9
  20054992.684 9
 129718429.713 6 101079307.78746                  24684598.93046  24684595.523 6
  24684599.488 4
 128179996.886 6  99880548.50246                  24391844.37146  24391839.789 6
  24391845.668 6
 110176425.039 9  85851766.84949                  20965879.30949  20965876.180 9
  20965880.145 9
 127271354.812 7  99172517.54746                  24218933.10946  24218933.375 7

 122628373.323 7  95554589.18747                  23335404.98047  23335401.945 7

 111977896.267 9  87255545.41449                  21308686.11749  21308679.727 9
  21308687.203 9
 16  1  1  0 45 30.0000000  0  8G26G29G05G12G31G02G21G25
 120346472.395 7  93776505.44949                  22901175.99249  22901169.555 7
  22901176.355 8
 105405202.881 9  82133942.55849                  20057943.00049  20057938.883 9
  20057943.473 9
 129664878.204 6 101037579.35046                  24674407.60946  24674405.320 6
  24674408.793 4
 128275848.976 6  99955238.35847                  24410084.52747  24410080.094 6
  24410085.707 6
 110176044.392 9  85851470.23049                  20965806.73049  20965803.969 9
  20965807.543 9
 127352614.485 7  99235836.77646                  24234396.81646  24234395.563 7

 122537275.426 7  95483603.77347                  23318069.82847  23318066.094 7

 112039231.473 9  87303339.06449                  21320357.98049  21320351.305 9
  21320359.023 9
 16  1  1  0 46  0.0000000  0  8G26G29G05G12G31G02G21G25
 120259222.765 7  93708518.74249                  22884572.99649  22884566.820 7
  22884573.594 8
 105421126.165 9  82146350.33049                  20060972.88749  20060968.984 9
  20060973.344 9
 129611718.488 6 100996156.20646                  24664292.45346  24664289.594 6
  24664292.824 5
 128371800.260 6 100030005.52347                  24428343.06647  24428338.922 6
  24428344.281 5
 110176236.676 9  85851620.03849                  20965843.30549  20965840.141 9
  20965844.430 9
 127434150.709 7  99299371.50346                  24249913.09446  24249911.453 7

 122446387.571 7  95412782.04447                  23300774.76247  23300770.898 7

 112100882.357 9  87351378.69149                  21332089.86749  21332083.180 9
  21332090.742 9
 16  1  1  0 46 30.0000000  0  8G26G29G05G12G31G02G21G25
 120172105.991 7  93640635.55249                  22867996.10549  22867988.594 7
  22867996.176 8
 105437464.913 9  82159081.82549                  20064081.92249  20064078.180 9
  20064082.648 9
 129558953.199 7 100955040.42346                  24654252.49246  24654248.305 7
  24654253.004 6
 128467849.895 7 100104849.35747                  24446621.34847  24446617.023 7
  24446621.801 6
 110177002.477 9  85852216.75149                  20965989.36349  20965986.070 9
  20965990.254 9
 127515961.072 7  99363119.79447                  24265480.58647  24265480.094 7

 122355711.625 7  95342125.42847                  23283518.93047  23283515.492 7

 112162848.281 9  87399663.81149                  21343881.32449  21343874.789 9
  21343882.453 9
 16  1  1  0 47  0.0000000  0  9G20G26G29G05G12G31G02G21G25
                                                                  25087686.273 3

 120085123.992 8  93572857.37549                  22851443.43849  22851437.117 8
  22851443.746 8
 105454219.493 9  82172137.35549                  20067270.03549  20067266.398 9
  20067270.605 9
 129506585.199 7 100914234.21346                  24644286.71546  24644282.898 7
  24644287.020 6
 128563997.343 6 100179769.43646                  24464918.28546  24464913.102 6
  24464918.168 6
 110178342.782 9  85853261.13449                  20966244.37549  20966241.172 9
  20966245.145 9
 127598044.157 7  99427080.62547                  24281100.05947  24281099.930 7

 122265249.917 7  95271635.76547                  23266304.73847  23266301.469 7

 112225129.287 9  87448194.45149                  21355732.49249  21355726.555 9
  21355733.699 9
 16  1  1  0 47 30.0000000  0  9G20G26G29G05G12G31G02G21G25
 131748040.57616 102660822.01555                  25070822.64545  25070819.789 6

 119998277.758 7  93505184.99149                  22834917.31649  22834910.859 7
  22834917.461 8
 105471387.895 9  82185515.33749                  20070537.23849  20070533.547 9
  20070537.762 9
 129454616.676 6 100873739.34146                  24634397.63746  24634393.695 6
  24634398.457 5
 128660241.926 6 100254765.16446                  24483232.88346  24483227.422 6
  24483233.297 6
 110180256.923 9  85854752.65449                  20966608.84849  20966605.453 9
  20966609.613 9
 127680397.465 7  99491252.02546                  24296771.78546  24296771.492 7

 122175004.652 7  95201314.75447                  23249132.50447  23249128.586 7

 112287724.431 9  87496969.87149                  21367644.61349  21367638.016 9
  21367645.855 9
 16  1  1  0 48  0.0000000  0  9G20G26G29G05G12G31G02G21G25
 131659417.27914 102591764.90055                  25053959.34845  25053953.383 4

 119911568.708 7  93437619.50549                  22818416.02749  22818410.531 7
  22818416.703 8
 105488969.011 9  82199214.92249                  20073882.73449  20073878.758 9
  20073883.297 9
 129403049.971 6 100833557.55446                  24624584.68446  24624580.586 6
  24624585.199 6
 128756582.814 6 100329835.92347                  24501565.49647  24501561.016 6
  24501566.430 5
 110182745.075 9  85856691.46249                  20967082.18049  20967078.789 9
  20967083.098 9
 127763018.714 7  99555632.22847                  24312494.36747  24312493.570 7

 122084977.869 7  95131163.99547                  23232001.03147  23231997.273 7

 112350633.160 9  87545989.64649                  21379615.73049  21379609.203 9
  21379616.852 9
 16  1  1  0 48 30.0000000  0  9G20G26G29G05G12G31G02G21G25
 131570827.463 2 102522733.94345                  25037102.14845  25037093.383 2

 119824998.005 7  93370161.82349                  22801942.87949  22801936.344 7
  22801943.277 8
 105506961.266 9  82213234.86749                  20077306.62549  20077302.883 9
  20077307.160 9
 129351888.039 6 100793691.14146                  24614849.31346  24614844.625 6
  24614849.793 6
 128853019.327 6 100404981.19447                  24519917.43047  24519911.898 6
  24519917.934 6
 110185807.639 9  85859077.86249                  20967664.30949  20967661.570 9
  20967665.344 9
 127845905.335 7  99620219.16946                  24328266.96146  24328265.570 7

 121995171.579 7  95061185.05147                  23214911.08247  23214907.164 7

 112413854.754 9  87595253.20449                  21391646.61749  21391640.031 9
  21391647.508 9
 16  1  1  0 49  0.0000000  0  9G20G26G29G05G12G31G02G21G25
 131482274.14314 102453731.30355                  25020248.67245  25020244.891 4

 119738567.161 7  93302813.10249                  22785495.63749  22785488.742 7
  22785496.391 8
 105525364.090 9  82227574.74449                  20080808.22749  20080804.641 9
  20080808.906 9
 129301133.024 6 100754141.83846                  24605190.61746  24605186.000 6
  24605191.254 6
 128949550.937 6 100480200.61546                  24538285.92246  24538280.891 6
  24538286.266 5
 110189444.769 9  85861911.96649                  20968356.60549  20968353.656 9
  20968357.469 9
 127929055.244 7  99685011.29546                  24344090.28546  24344089.430 7

 121905588.239 7  94991379.84447                  23197864.01247  23197860.398 7

 112477388.719 9  87644760.16949                  21403736.53549  21403730.406 9
  21403737.699 9
 16  1  1  0 49 30.0000000  0  9G20G26G29G05G12G31G02G21G25
 131393760.558 5 102384759.71945                  25003406.44145  25003402.664 5

 119652277.844 8  93235574.69149                  22769075.61749  22769069.273 8
  22769076.117 8
 105544176.549 9  82242233.81249                  20084388.46949  20084384.664 9
  20084388.902 9
 129250787.467 7 100714911.53846                  24595609.44546  24595605.805 7
  24595609.980 5
 129046177.095 5 100555493.68646                  24556672.91846  24556668.719 5
  24556673.914 5
 110193656.918 9  85865194.14849                  20969158.10249  20969155.047 9
  20969158.961 9
 128012466.734 7  99750007.25846                  24359962.55946  24359961.633 7

 121816229.818 7  94921749.89747                  23180859.76247  23180856.008 7

 112541234.750 9  87694510.30649                  21415885.75849  21415879.508 9
  21415886.852 9
 16  1  1  0 50  0.0000000  0  9G20G26G29G05G12G31G02G21G25
 131305289.441 5 102315821.08545                  24986570.24645  24986565.828 5

 119566131.314 7  93168447.52049                  22752682.60249  22752675.773 7
  22752682.848 8
 105563397.039 9  82257210.82149                  20088045.90249  20088042.188 9
  20088046.652 9
 129200854.033 7 100676002.40846                  24586106.70746  24586103.984 7
  24586107.473 5
 129142896.879 6 100630859.73247                  24575078.68447  24575074.383 6
  24575079.438 6
 110198444.016 9  85868924.34549                  20970069.31649  20970066.148 9
  20970070.418 9
 128096137.135 6  99815204.96546                  24375884.78146  24375883.164 6

 121727098.105 7  94852296.59247                  23163897.93447  23163894.648 7

 112605392.161 9  87744503.07449                  21428094.60549  21428088.180 9
  21428095.750 9
 16  1  1  0 50 30.0000000  0  9G20G26G29G05G12G31G02G21G25
 131216863.730 5 102246917.87845                  24969742.60545  24969738.594 5

 119480129.195 7  93101432.89249                  22736316.94149  22736310.219 7
  22736316.902 8
 105583025.026 9  82272505.36949                  20091781.18449  20091777.484 9
  20091781.754 9
 129151335.204 6 100637416.32546                  24576683.76246  24576681.266 6
  24576684.805 5
 129239709.422 6 100706298.02847                  24593502.67647  24593497.359 6
  24593503.188 6
 110203806.189 9  85873102.64949                  20971089.38749  20971086.625 9
  20971090.313 9
 128180064.733 6  99880603.08246                  24391855.22346  24391853.781 6

 121638195.638 7  94783021.93148                  23146981.32048  23146977.195 7

 112669860.544 9  87794738.15549                  21440362.95749  21440356.125 9
  21440363.992 9
 16  1  1  0 51  0.0000000  0  9G20G26G29G05G12G31G02G21G25
 131128486.507 5 102178052.60846                  24952925.88746  24952922.609 5

 119394272.715 7  93034531.75449                  22719978.64849  22719972.461 7
  22719979.000 8
 105603058.799 9  82288116.10949                  20095593.30549  20095589.266 9
  20095593.934 9
 129102233.158 6 100599154.96546                  24567341.10946  24567337.391 6
  24567341.152 5
 129336613.855 6 100781807.93646                  24611942.73846  24611937.258 6
  24611942.426 6
 110209743.463 9  85877729.08149                  20972219.69949  20972216.344 9
  20972220.711 9
 128264247.221 6  99946199.79346                  24407874.66046  24407873.391 6

 121549524.420 7  94713927.46848                  23130107.70348  23130103.734 7

 112734639.189 9  87845215.00049                  21452689.99249  21452683.172 9
  21452690.996 9
 16  1  1  0 51 30.0000000  0  9G20G26G29G05G12G31G02G21G25
 131040160.781 5 102109227.44845                  24936118.13345  24936114.375 5

 119308563.319 7  92967745.20349                  22703668.97749  22703662.258 7
  22703669.422 8
 105623497.232 9  82304042.17249                  20099482.87949  20099478.992 9
  20099483.375 9
 129053550.362 7 100561220.34747                  24558076.89547  24558073.445 7
  24558077.426 6
 129433609.508 6 100857388.94446                  24630399.88746  24630394.758 6
  24630400.105 5
 110216255.517 9  85882803.40049                  20973458.74249  20973455.477 9
  20973459.637 9
 128348682.317 6 100011993.32946                  24423942.75846  24423942.250 6

 121461086.249 7  94645014.60048                  23113278.63348  23113274.438 7

 112799727.431 9  87895933.09649                  21465075.74649  21465069.156 9
  21465076.711 9
 16  1  1  0 52  0.0000000  0  9G20G26G29G05G12G31G02G21G25
 130951889.083 5 102040444.32646                  24919320.69546  24919315.922 5

 119223002.347 8  92901074.31949                  22687386.71549  22687380.828 8
  22687387.660 8
 105644339.246 9  82320282.70749                  20103448.83249  20103445.078 9
  20103449.273 9
 129005289.280 6 100523614.32546                  24548893.55546  24548889.227 6
  24548894.258 6
 129530695.803 6 100933040.56746                  24648874.62146  24648869.859 6
  24648874.836 5
 110223342.760 9  85888325.91249                  20974807.24649  20974804.266 9
  20974808.148 9
 128433367.770 6 100077981.97146                  24440057.66846  24440055.961 6

 121372883.653 7  94576285.28547                  23096493.39547  23096489.602 7

 112865124.670 9  87946891.96249                  21477520.35949  21477513.836 9
  21477521.426 9
 16  1  1  0 52 30.0000000  0  9G20G26G29G05G12G31G02G21G25
 130863674.638 5 101971705.86445                  24902534.07845  24902530.000 5

 119137591.294 8  92834520.26349                  22671133.92249  22671127.391 8
  22671134.098 8
 105665583.481 9  82336836.66549                  20107491.70749  20107487.484 9
  20107492.043 9
 128957452.023 6 100486338.58146                  24539790.19146  24539784.563 6
  24539790.258 5
 129627872.239 6 101008762.47846                  24667366.78546  24667361.961 6
  24667366.957 5
 110231005.228 9  85894296.65749                  20976265.88349  20976262.703 9
  20976266.949 9
 128518301.273 6 100144163.88146                  24456220.21946  24456219.000 6

 121284918.614 7  94507741.10348                  23079754.81648  23079751.234 7

 112930830.340 9  87998091.16549                  21490023.47349  21490017.172 9
  21490024.664 9
 16  1  1  0 53  0.0000000  0 10G16G20G26G29G05G12G31G02G21G25
                                                                  25005951.359 1

 130775520.368 5 101903014.23245                  24885758.47345  24885753.797 5

 119052331.664 7  92768084.20249                  22654909.39549  22654903.180 7
  22654909.738 8
 105687228.789 9  82353703.14349                  20111610.64849  20111606.586 9
  20111610.816 9
 128910041.327 6 100449395.25946                  24530767.62146  24530764.125 6
  24530767.707 6
 129725137.661 6 101084553.70846                  24685875.82046  24685871.258 6
  24685876.820 6
 110239243.066 9  85900715.74049                  20977833.35249  20977829.898 9
  20977834.281 9
 128603480.685 6 100210537.44946                  24472429.14846  24472427.938 6

 121197193.167 7  94439383.59648                  23063061.14548  23063057.516 7

 112996843.885 9  88049530.26649                  21502585.23849  21502579.031 9
  21502586.617 8
 16  1  1  0 53 30.0000000  0 10G16G20G26G29G05G12G31G02G21G25
 131307675.76812                                                  24987023.625 2

 130687429.383 3 101834371.88345                  24868995.52045  24868988.297 3

 118967224.982 8  92701767.30949                  22638713.54749  22638707.508 8
  22638714.258 8
 105709274.342 9  82370881.51049                  20115805.74649  20115801.617 9
  20115806.184 9
 128863059.713 6 100412786.25646                  24521827.55546  24521822.242 6
  24521828.098 6
 129822491.673 6 101160413.89246                  24704402.18846  24704397.109 6
  24704402.953 6
 110248056.159 9  85907583.07249                  20979510.41449  20979507.164 9
  20979511.281 9
 128688904.097 6 100277101.14146                  24488683.82046  24488684.023 6

 121109709.240 7  94371214.28648                  23046413.23848  23046409.938 7

 113063164.774 9  88101208.85549                  21515205.88349  21515199.492 9
  21515207.086 8
 16  1  1  0 54  0.0000000  0 10G16G20G26G29G05G12G31G02G21G25
 131208214.88411                                                  24968095.219 1

 130599404.367 5 101765780.98546                  24852244.26646  24852239.703 5

 118882272.614 8  92635570.66749                  22622547.89549  22622541.586 8
  22622548.602 8
 105731718.786 9  82388370.69149                  20120076.51249  20120072.891 9
  20120077.109 9
 128816509.142 6 100376513.11146                  24512969.33646  24512965.469 6
  24512970.391 6
 129919933.643 5 101236342.64746                  24722945.42646  24722939.164 5
  24722945.082 6
 110257444.101 9  85914898.34049                  20981296.81349  20981293.563 9
  20981297.840 9
 128774568.976 6 100343852.97346                  24504985.50846  24504985.672 6

 121022469.003 7  94303234.86448                  23029812.02348  23029808.156 7

 113129792.295 9  88153126.37749                  21527885.05549  21527878.484 9
  21527885.879 9
 16  1  1  0 54 30.0000000  0 10G16G20G26G29G05G12G31G02G21G25
                                                                  24949168.891 1

 130511448.601 4 101697244.01946                  24835508.40646  24835501.109 4

 118797476.208 8  92569495.55149                  22606411.77749  22606405.414 8
  22606412.523 8
 105754560.693 9  82406169.58149                  20124423.50049  20124419.555 9
  20124423.996 9
 128770392.111 6 100340577.78846                  24504193.44546  24504191.453 6
  24504193.863 5
 130017462.285 6 101312338.97046                  24741502.93046  24741498.680 6
  24741503.605 5
 110267407.070 9  85922661.68149                  20983192.36349  20983189.523 9
  20983193.383 9
 128860473.300 6 100410791.41046                  24521333.28546  24521332.594 6

 120935474.404 7  94235446.85048                  23013258.21948  23013254.023 7

 113196726.007 9  88205282.49849                  21540622.19149  21540615.406 9
  21540622.887 9
 16  1  1  0 55  0.0000000  0 10G16G20G26G29G05G12G31G02G21G25
                                                                  24930245.750 1

 130423564.852 6 101628763.21046                  24818783.51246  24818778.289 6

 118712836.869 8  92503542.81349                  22590305.42649  22590298.781 8
  22590305.980 8
 105777798.538 9  82424276.99549                  20128845.33649  20128841.320 9
  20128845.965 9
 128724711.046 6 100304982.16746                  24495500.30146  24495497.375 6
  24495500.758 5
 130115076.711 6 101388402.18546                  24760078.68446  24760074.188 6
  24760079.648 5
 110277944.454 9  85930872.61849                  20985198.32049  20985194.781 9
  20985199.160 9
 128946614.554 5 100477914.41546                  24537725.70346  24537724.430 5

 120848727.583 7  94167851.92348                  22996750.26248  22996746.391 7

 113263964.908 9  88257676.42249                  21553417.34849  21553410.336 9
  21553418.047 9
 16  1  1  0 55 30.0000000  0 10G16G20G26G29G05G12G31G02G21G25
 130909881.93311                                                  24911323.773 1

 130335756.409 6 101560341.06845                  24802073.08245  24802071.125 6

 118628356.275 8  92437713.78749                  22574229.62149  22574223.016 8
  22574230.203 8
 105801431.842 9  82442692.56249                  20133342.25849  20133338.672 9
  20133342.910 9
 128679467.975 6 100269727.86446                  24486890.37146  24486886.867 6
  24486891.156 5
 130212776.897 6 101464532.15846                  24778671.03546  24778665.523 6
  24778671.590 6
 110289056.672 9  85939531.47449                  20987312.71949  20987309.445 9
  20987313.703 9
 129032990.894 5 100545220.57246                  24554162.71146  24554161.094 5

 120762230.726 7  94100451.77448                  22980290.69548  22980286.688 7

 113331508.627 9  88310307.86649                  21566270.52749  21566263.711 9
  21566271.520 9
 16  1  1  0 56  0.0000000  0 10G16G20G26G29G05G12G31G02G21G25
 130810457.089 1                                                  24892403.609 1

 130248026.066 4 101491979.72345                  24785378.60245  24785373.664 4

 118544035.893 8  92372009.59149                  22558184.16849  22558177.336 8
  22558184.473 8
 105825459.004 9  82461415.02649                  20137914.44949  20137910.813 9
  20137914.992 9
 128634665.278 6 100234816.70846                  24478363.71946  24478361.703 6
  24478365.141 5
 130310561.654 6 101540727.99146                  24797278.73446  24797272.703 6
  24797279.160 6
 110300743.758 9  85948638.28349                  20989536.27049  20989533.398 9
  20989537.125 9
 129119600.074 5 100612708.23945                  24570643.16445  24570642.102 5

 120675985.843 7  94033247.96348                  22963878.71948  22963874.844 7

 113399356.465 9  88363176.28649                  21579181.60549  21579174.898 9
  21579182.902 9
 16  1  1  0 56 30.0000000  0 10G16G20G26G29G05G12G31G02G21G25
 130711043.88511                                                  24873488.633 1

 130160376.861 5 101423681.70845                  24768699.69145  24768695.539 5

 118459877.264 8  92306431.45549                  22542169.30149  22542162.445 8
  22542169.465 8
 105849878.804 9  82480443.45049                  20142561.14149  20142557.664 9
  20142561.766 9
 128590305.317 6 100200250.49846                  24469923.10946  24469920.641 6
  24469923.469 5
 130408430.633 6 101616989.50146                  24815902.57446  24815898.344 6
  24815902.867 5
 110313005.203 9  85958192.64849                  20991869.88749  20991866.852 9
  20991870.879 9
 129206439.646 6 100680375.44346                  24587167.49646  24587167.156 6

 120589994.407 7  93966241.64748                  22947515.34048  22947511.445 7

 113467507.844 9  88416281.23349                  21592150.00849  21592143.547 9
  21592151.141 9
 16  1  1  0 57  0.0000000  0  9G20G26G29G05G12G31G02G21G25
 130072811.916 6 101355449.34546                  24752037.35246  24752032.484 6

 118375881.922 8  92240980.54949                  22526184.84849  22526178.773 8
  22526185.191 8
 105874690.133 9  82499776.95649                  20147283.12149  20147279.219 9
  20147283.617 9
 128546390.216 6 100166030.92346                  24461566.44146  24461563.008 6
  24461567.398 5
 130506382.688 7 101693315.78846                  24834542.34846  24834537.289 7
  24834542.609 5
 110325840.767 9  85968194.36449                  20994312.43049  20994309.273 9
  20994313.309 9
 129293507.651 5 100748220.59746                  24603737.64546  24603735.492 5

 120504259.074 7  93899434.91548                  22931200.74248  22931196.500 7

 113535962.176 9  88469622.24649                  21605176.84849  21605169.875 9
  21605177.898 9
 16  1  1  0 57 30.0000000  0 10G16G20G26G29G05G12G31G02G21G25
 130512263.11713                                                  24835659.789 3

 129985334.109 6 101287284.85446                  24735390.82846  24735387.500 6

 118292051.152 8  92175657.87149                  22510232.75449  22510226.094 8
  22510233.488 8
 105899891.445 9  82519414.34349                  20152078.73049  20152074.828 9
  20152079.184 9
 128502922.053 6 100132159.65546                  24453294.36746  24453290.844 6
  24453294.715 5
 130604417.184 6 101769706.30046                  24853196.18046  24853192.523 6
  24853197.074 5
 110339250.218 9  85978643.26749                  20996864.47749  20996860.953 9
  20996865.391 9
 129380801.725 5 100816241.81046                  24620349.61746  24620347.523 5

 120418781.778 7  93832829.23248                  22914934.42648  22914930.797 7

 113604718.590 9  88523198.65449                  21618260.65649  21618253.969 9
  21618261.613 9
 16  1  1  0 58  0.0000000  0 10G16G20G26G29G05G12G31G02G21G25
 130412890.569 4                                                  24816747.820 4

 129897946.744 6 101219190.78846                  24718762.08646  24718757.180 6

 118208387.042 8  92110465.06249                  22494312.50849  22494305.523 8
  22494312.367 8
 105925482.488 9  82539355.42349                  20156948.51249  20156944.914 9
  20156949.168 9
 128459903.630 6 100098638.85446                  24445109.34446  24445106.195 6
  24445109.238 5
 130702533.939 6 101846160.84446                  24871867.84446  24871862.539 6
  24871868.465 6
 110353234.227 9  85989539.88349                  20999525.06349  20999522.094 9
  20999525.910 9
 129468319.906 6 100884437.74046                  24637002.90246  24637002.680 6

 120333564.873 7  93766426.46448                  22898717.75448  22898714.297 7

 113673776.974 9  88577010.35549                  21631402.06649  21631395.375 9
  21631403.113 9
 16  1  1  0 58 30.0000000  0 10G16G20G26G29G05G12G31G02G21G25
 130313533.516 5                                                  24797841.023 5

 129810652.163 5 101151169.07645                  24702150.30145  24702144.992 5

 118124890.737 8  92045403.00549                  22478423.01649  22478416.078 8
  22478423.711 8
 105951461.125 9  82559598.51749                  20161892.33249  20161888.281 9
  20161892.816 9
 128417336.849 6 100065469.98846                  24437009.00046  24437004.492 6
  24437009.000 6
 130800731.584 6 101922678.46446                  24890555.39546  24890550.094 6
  24890556.051 6
 110367791.402 9  86000883.12149                  21002295.12949  21002291.938 9
  21002295.922 9
 129556060.087 6 100952806.72846                  24653699.09846  24653698.141 6

 120248610.038 8  93700227.90648                  22882552.06348  22882547.789 8

 113743136.370 9  88631056.60849                  21644600.59049  21644594.063 9
  21644601.742 9
 16  1  1  0 59  0.0000000  0 10G16G20G26G29G05G12G31G02G21G25
 130214192.689 5 101465613.01755                  24778939.02745  24778937.328 5

 129723453.838 6 101083222.25645                  24685556.31345  24685551.992 6

 118041563.611 8  91980472.78349                  22462566.32049  22462559.898 8
  22462567.094 8
 105977825.780 9  82580142.40849                  20166909.28149  20166905.188 9
  20166909.547 9
 128375223.873 5 100032654.70046                  24428995.78546  24428990.883 5
  24428996.277 6
 130899009.444 6 101999258.58446                  24909256.75846  24909251.719 6
  24909257.336 5
 110382921.530 9  86012672.80749                  21005174.73849  21005171.461 9
  21005175.781 9
 129644019.675 5 101021346.63046                  24670436.48446  24670436.234 5

 120163918.939 8  93634234.85148                  22866435.43448  22866431.977 8

 113812795.946 9  88685336.77649                  21657856.48849  21657849.813 9
  21657857.691 8
 16  1  1  0 59 30.0000000  0 10G16G20G26G29G05G12G31G02G21G25
 130114869.786 6 101388218.54745                  24760038.71145  24760036.609 6

 129636354.860 7 101015352.89345                  24668981.00445  24668979.305 7

 117958407.529 8  91915675.84549                  22446742.60249  22446735.836 8
  22446742.914 8
 106004576.335 9  82600986.99749                  20171999.57849  20171995.648 9
  20172000.102 9
 128333567.149 6 100000194.92546                  24421068.44546  24421064.578 6
  24421069.422 6
 130997366.826 5 102075900.71646                  24927973.26246  24927968.586 5
  24927973.980 5
 110398624.917 9  86024909.19949                  21008163.17649  21008159.594 9
  21008164.063 9
 129732196.940 6 101090056.12446                  24687217.22346  24687215.758 6

 120079493.889 8  93568449.10648                  22850370.00848  22850366.656 8

 113882755.352 9  88739850.57749                  21671169.29349  21671162.688 9
  21671170.266 9
 16  1  1  1  0  0.0000000  0 10G16G20G26G29G05G12G31G02G21G25
 130015565.230 5 101310838.36645                  24741142.29345  24741138.938 5

 129549358.215 6 100947563.23045                  24652426.49245  24652422.289 6

 117875423.672 8  91851013.09749                  22430950.88349  22430944.492 8
  22430951.449 8
 106031710.172 9  82622130.24749                  20177163.14849  20177159.133 9
  20177163.668 9
 128292368.484 6  99968092.10147                  24413228.61747  24413224.570 6
  24413229.125 6
 131095802.422 5 102152603.76845                  24946704.69145  24946699.211 5
  24946705.363 5
 110414900.734 9  86037591.63449                  21011260.10249  21011256.680 9
  21011260.914 9
 129820588.950 6 101158932.97247                  24704038.28547  24704036.992 6

 119995336.407 8  93502871.84248                  22834355.37548  22834352.078 8

 113953013.549 9  88794597.19449                  21684539.30549  21684532.367 9
  21684540.098 8
 16  1  1  1  0 30.0000000  0 10G16G20G26G29G05G12G31G02G21G25
 129916280.301 6 101233473.38745                  24722249.02745  24722246.977 6

 129462467.074 5 100879855.94345                  24635893.14845  24635887.141 5

 117792613.825 8  91786485.95449                  22415192.69549  22415186.578 8
  22415193.195 8
 106059227.193 9  82643572.08049                  20182399.46549  20182395.516 9
  20182399.848 9
 128251630.275 6  99936348.09947                  24405476.83247  24405472.523 6
  24405477.309 6
 131194316.406 6 102229367.87846                  24965451.72746  24965447.250 6
  24965452.152 5
 110431748.771 9  86050719.95649                  21014466.52049  21014462.789 9
  21014467.113 9
 129909194.082 6 101227975.87546                  24720899.28546  24720896.734 6

 119911448.708 8  93437504.80148                  22818392.26648  22818387.984 8

 114023570.165 9  88849576.35049                  21697965.78949  21697958.773 9
  21697966.449 9
 16  1  1  1  1  0.0000000  0 10G16G20G26G29G05G12G31G02G21G25
 129817015.786 5 101156124.41645                  24703359.90645  24703357.117 5

 129375684.215 5 100812233.00645                  24619378.41045  24619373.594 5

 117709979.436 8  91722095.52549                  22399468.26649  22399461.805 8
  22399468.422 8
 106087126.128 9  82665311.51149                  20187708.04749  20187704.359 9
  20187708.680 9
 128211354.478 6  99904964.41347                  24397811.90247  24397808.133 6
  24397812.594 6
 131292907.787 6 102306192.36246                  24984212.91046  24984208.344 6
  24984213.434 6
 110449168.818 9  86064293.99649                  21017781.44549  21017777.734 9
  21017782.207 9
 129998010.29915 101297183.22355                  24737799.79345  24737798.531 5

 119827833.314 7  93372349.95748                  22802480.59048  22802476.656 7

 114094424.364 9  88904787.39749                  21711448.69149  21711441.797 9
  21711449.297 9
 16  1  1  1  1 30.0000000  0 10G16G20G26G29G05G12G31G02G21G25
 129717772.998 5 101078792.39045                  24684474.05945  24684471.602 5

 129289012.763 6 100744696.87745                  24602884.39545  24602880.180 6

 117627522.097 8  91657843.05249                  22383777.02749  22383770.766 8
  22383777.445 8
 106115405.148 9  82687347.10649                  20193089.80149  20193085.719 9
  20193090.363 9
 128171543.222 6  99873942.70446                  24390236.14546  24390232.477 6
  24390236.918 6
 131391575.565 6 102383076.33546                  25002989.52346  25002983.484 6
  25002989.879 5
 110467160.273 9  86078313.29349                  21021204.93849  21021201.258 9
  21021205.703 9
 130087035.025 6 101366553.10745                  24754740.22345  24754740.047 6

 119744491.550 7  93307408.33548                  22786621.16848  22786617.344 7

 114165575.529 9  88960229.84449                  21724988.10549  21724981.320 9
  21724989.004 9
 16  1  1  1  2  0.0000000  0 10G16G20G26G29G05G12G31G02G21G25
 129618552.770 5 101001477.97445                  24665593.05145  24665590.211 5

 129202455.565 6 100677249.70345                  24586413.34045  24586409.086 6

 117545243.306 8  91593729.71449                  22368120.19549  22368113.641 8
  22368120.637 8
 106144062.997 9  82709677.90849                  20198542.69949  20198539.211 9
  20198543.215 9
 128132198.718 6  99843284.64547                  24382748.63747  24382746.008 6
  24382749.723 6
 131490318.877 5 102460019.15046                  25021779.74246  25021772.875 5
  25021779.664 5
 110485722.476 9  86092777.33649                  21024737.54349  21024733.711 9
  21024738.266 9
 130176265.975 7 101436083.68946                  24771720.91846  24771721.523 7

 119661425.824 8  93242681.78748                  22770814.16048  22770810.328 8

 114237022.864 9  89015903.06149                  21738584.49249  21738577.461 9
  21738585.188 9
 16  1  1  1  2 30.0000000  0 10G16G20G26G29G05G12G31G02G21G25
 129519356.293 5 100924182.00445                  24646716.13345  24646714.820 5

 129116015.822 6 100609894.08145                  24569964.08245  24569961.305 6

 117463144.467 8  91529756.59649                  22352496.54349  22352490.258 8
  22352497.223 8
 106173098.185 9  82732302.72749                  20204068.34449  20204064.617 9
  20204068.887 9
 128093322.825 6  99812991.75446                  24375350.88746  24375347.063 6
  24375351.691 6
 131589136.908 5 102537020.11545                  25040583.37945  25040578.133 5
  25040582.887 5
 110504855.196 9  86107685.92749                  21028378.17249  21028374.695 9
  21028378.848 9
 130265700.902 6 101505773.15546                  24788740.27746  24788739.109 6

 119578637.750 8  93178171.62148                  22755060.16048  22755056.258 8

 114308765.567 9  89071806.44449                  21752236.37549  21752229.875 9
  21752237.223 9
 16  1  1  1  3  0.0000000  0 10G16G20G26G29G05G12G31G02G21G25
 129420184.467 6 100846905.25745                  24627844.52045  24627843.000 6

 129029696.520 5 100542632.38145                  24553538.37545  24553533.594 5

 117381227.352 8  91465925.07749                  22336908.67649  22336901.961 8
  22336909.195 8
 106202509.862 9  82755220.92149                  20209665.38749  20209661.359 9
  20209665.719 9
 128054917.581 6  99783065.59046                  24368042.18446  24368039.023 6
  24368043.242 6
 131688029.004 6 102614078.93246                  25059401.07046  25059398.133 6
  25059402.020 5
 110524558.187 9  86123038.89649                  21032127.48049  21032123.977 9
  21032128.348 9
 130355338.091 6 101575620.21846                  24805797.16046  24805795.680 6

 119496129.276 8  93113879.31348                  22739359.76648  22739355.188 8

 114380803.101 9  89127939.56649                  21765944.73449  21765938.109 9
  21765945.859 8
 16  1  1  1  3 30.0000000  0 10G16G20G26G29G05G12G31G02G21G25
 129321038.838 6 100769648.86545                  24608978.13745  24608975.375 6

 128943500.802 5 100475466.93645                  24537137.38345  24537131.703 5

 117299493.735 8  91402236.54449                  22321355.87549  22321348.820 8
  22321356.180 9
 106232297.093 9  82778431.74549                  20215333.05949  20215329.664 9
  20215333.855 9
 128016985.137 5  99753507.87946                  24360823.21546  24360819.969 5
  24360823.617 5
 131786994.325 6 102691194.76146                  25078234.00446  25078230.383 6
  25078235.453 5
 110544831.001 9  86138835.86949                  21035985.09049  21035981.797 9
  21035986.215 9
 130445175.382 5 101645623.21245                  24822891.82845  24822891.602 5

 119413902.541 8  93049806.54948                  22723712.22748  22723707.961 8

 114453134.971 9  89184302.04349                  21779709.16849  21779702.469 9
  21779710.242 8
 16  1  1  1  4  0.0000000  0 10G16G20G26G29G05G12G31G02G21G25
 129221919.932 6 100692413.40445                  24590116.79745  24590113.758 6

 128857431.508 6 100408400.02546                  24520758.23046  24520753.766 6

 117217944.790 8  91338691.90849                  22305837.27049  22305830.594 8
  22305837.117 9
 106262457.397 9  82801933.28749                  20221072.72349  20221068.766 9
  20221073.238 9
 127979527.296 6  99724319.96146                  24353695.88346  24353693.633 6
  24353696.926 5
 131886031.747 6 102768366.77346                  25097080.79746  25097076.383 6
  25097081.852 5
 110565672.762 9  86155076.18449                  21039950.97349  21039947.844 9
  21039952.191 9
 130535209.843 6 101715779.96846                  24840025.07846  24840025.664 6

 119331959.119 8  92985954.54448                  22708118.67648  22708114.852 8

 114525760.072 9  89240893.00749                  21793528.93449  21793522.438 9
  21793530.145 8
 16  1  1  1  4 30.0000000  0 10G16G20G26G29G05G12G31G02G21G25
 129122829.046 6 100615199.70046                  24571260.57046  24571257.336 6

 128771492.022 5 100341434.23145                  24504403.73045  24504399.094 5

 117136582.272 9  91275292.54949                  22290354.29749  22290348.156 9
  22290354.457 8
 106292990.663 9  82825725.44449                  20226883.22349  20226879.141 9
  20226883.828 9
 127942546.537 6  99695503.82446                  24346658.06646  24346655.398 6
  24346659.109 5
 131985141.553 5 102845595.12546                  25115940.69946  25115935.523 5
  25115941.258 5
 110587083.428 9  86171759.79849                  21044025.12949  21044022.055 9
  21044026.223 9
 130625439.722 5 101786088.98446                  24857196.08246  24857193.883 5

 119250301.149 8  92922324.96849                  22692580.02749  22692575.898 8

 114598677.849 9  89297712.03549                  21807404.85549  21807398.281 9
  21807406.102 9
 16  1  1  1  5  0.0000000  0 10G16G20G26G29G05G12G31G02G21G25
 129023767.448 6 100538008.84345                  24552409.05145  24552407.523 6

 128685684.989 5 100274571.65245                  24488075.25845  24488071.445 5

 117055407.741 8  91212039.66549                  22274907.35949  22274900.961 8
  22274907.711 8
 106323894.784 9  82849806.57849                  20232763.62549  20232759.984 9
  20232764.301 9
 127906044.389 6  99667060.60146                  24339710.97346  24339708.789 6
  24339712.266 5
 132084322.321 6 102922878.77045                  25134814.62545  25134808.867 6
  25134814.980 5
 110609061.786 9  86188885.77549                  21048207.98449  21048204.477 9
  21048209.004 9
 130715862.854 5 101856548.44746                  24874403.39146  24874400.742 5

 119168930.413 8  92858919.21349                  22677095.07849  22677091.438 8

 114671887.490 9  89354758.48049                  21821336.56349  21821329.594 9
  21821337.648 8
 16  1  1  1  5 30.0000000  0 10G16G20G26G29G05G12G31G02G21G25
 128924736.046 6 100460841.49346                  24533563.56346  24533562.328 6

 128600013.728 5 100207814.89345                  24471771.38745  24471767.813 5

 116974423.001 9  91148934.66349                  22259496.12549  22259490.117 9
  22259496.598 8
 106355169.600 9  82874176.56849                  20238715.25849  20238711.602 9
  20238715.949 9
 127870023.178 5  99638992.13246                  24332857.18846  24332854.719 5
  24332858.273 5
 132183573.207 6 103000217.19446                  25153700.62146  25153695.992 6
  25153701.707 5
 110631607.803 9  86206454.07749                  21052498.14149  21052494.875 9
  21052498.992 9
 130806477.493 6 101927157.18946                  24891646.98446  24891645.922 6

 119087849.258 8  92795739.10949                  22661666.32449  22661662.453 8

 114745388.500 9  89412031.97349                  21835323.38349  21835316.523 9
  21835324.027 8
 16  1  1  1  6  0.0000000  0 10G16G20G26G29G05G12G31G02G21G25
 128825735.945 5 100383698.54246                  24514725.63346  24514722.461 5

 128514481.507 5 100141166.47245                  24455496.49645  24455491.398 5

 116893629.657 9  91085978.81549                  22244121.35249  22244115.141 9
  22244121.910 8
 106386813.178 9  82898833.89949                  20244736.82449  20244732.953 9
  20244737.246 9
 127834484.956 6  99611300.01746                  24326095.14846  24326090.922 6
  24326095.930 6
 132282893.807 6 103077609.85045                  25172601.14145  25172596.328 6
  25172602.070 3
 110654720.790 9  86224464.17549                  21056896.52349  21056893.156 9
  21056897.656 9
 130897280.904 5 101997913.11545                  24908925.99645  24908924.750 5

 119007059.250 8  92732785.86949                  22646292.83649  22646289.250 8

 114819180.194 9  89469531.96549                  21849365.32449  21849358.695 9
  21849366.254 8
 16  1  1  1  6 30.0000000  0 10G16G20G26G29G05G12G31G02G21G25
 128726768.029 6 100306580.69646                  24495891.51646  24495889.766 6

 128429091.094 5 100074628.53545                  24439247.14845  24439242.367 5

 116813029.100 9  91023173.19349                  22228783.94549  22228777.586 9
  22228784.289 8
 106418823.712 9  82923777.17949                  20250828.19549  20250824.414 9
  20250828.719 9
 127799431.405 6  99583985.59046                  24319425.05946  24319421.359 6
  24319425.723 6
 132382282.989 6 103155055.97246                  25191514.26646  25191509.813 6
  25191515.641 5
 110678399.946 9  86242915.44149                  21061402.38349  21061399.234 9
  21061403.590 9
 130988270.640 4 102068814.19945                  24926240.15245  24926237.859 4

 118926562.170 8  92670060.87949                  22630974.29749  22630970.070 8

 114893261.571 9  89527257.69749                  21863462.32449  21863455.977 9
  21863463.434 8
 16  1  1  1  7  0.0000000  0 10G16G20G26G29G05G12G31G02G21G25
 128627833.953 6 100229489.19046                  24477065.45346  24477063.086 6

 128343845.616 5 100008203.56245                  24423024.96945  24423021.305 5

 116732623.124 9  90960519.19249                  22213483.62949  22213476.453 9
  22213484.164 9
 106451200.757 9  82949006.04749                  20256989.57449  20256985.375 9
  20256990.023 9
 127764864.696 6  99557050.49346                  24312847.33646  24312843.898 6
  24312847.844 6
 132481739.999 6 103232554.90446                  25210441.37146  25210437.102 6
  25210441.242 5
 110702644.962 9  86261807.63949                  21066016.18449  21066012.781 9
  21066017.066 9
 131079445.200 5 102139859.25946                  24943590.41446  24943589.523 5

 118846359.913 8  92607565.62449                  22615712.34449  22615709.086 8

 114967632.046 9  89585208.69949                  21877614.80149  21877607.750 9
  21877616.129 8
 16  1  1  1  7 30.0000000  0 10G16G20G26G29G05G12G31G02G21G25
 128528934.395 6 100152424.58746                  24458245.69546  24458242.820 6

 128258748.036 5  99941893.77845                  24406831.37945  24406827.531 5

 116652413.160 9  90898017.91249                  22198220.23049  22198213.047 9
  22198220.313 9
 106483942.452 9  82974519.05349                  20263219.77349  20263215.977 9
  20263220.445 9
 127730786.362 7  99530495.97546                  24306362.21546  24306359.336 7
  24306362.719 6
 132581263.780 6 103310105.86946                  25229378.33646  25229375.594 6
  25229379.176 5
 110727454.913 9  86281140.04449                  21070737.46949  21070733.906 9
  21070738.152 9
 131170802.113 6 102211046.38846                  24960975.80146  24960974.531 6

 118766454.611 8  92545301.76949                  22600506.55149  22600503.102 8

 115042290.740 9  89643384.28449                  21891821.92649  21891815.195 9
  21891822.930 8
 16  1  1  1  8  0.0000000  0 10G16G20G26G29G05G12G31G02G21G25
 128430070.502 6 100075387.81146                  24439432.38346  24439429.508 6

 128173801.233 5  99875701.50145                  24390665.50845  24390662.164 5

 116572400.831 9  90835670.64549                  22182994.50449  22182987.398 9
  22182994.449 9
 106517047.177 9  83000314.94949                  20269519.56349  20269515.766 9
  20269519.922 9
 127697197.805 6  99504323.07147                  24299970.79747  24299967.195 6
  24299971.293 6
 132680853.656 6 103387708.24046                  25248330.91446  25248326.086 6
  25248331.859 5
 110752828.690 9  86300911.80149                  21075565.85249  21075562.609 9
  21075567.031 9
 131262339.180 6 102282373.91946                  24978394.34446  24978393.453 6

 118686848.113 8  92483270.72849                  22585358.19149  22585354.688 8

 115117236.832 9  89701783.80549                  21906083.78949  21906076.953 9
  21906084.922 8
 16  1  1  1  8 30.0000000  0  9G16G20G26G29G05G31G02G21G25
 128331244.095 6  99998380.25646                  24420627.07446  24420623.789 6

 128089008.978 6  99809629.66345                  24374531.09045  24374526.984 6

 116492588.284 9  90773479.06049                  22167806.14549  22167799.984 9
  22167806.395 9
 106550514.895 9  83026393.69249                  20275888.37149  20275884.438 9
  20275888.824 9
 127664102.128 6  99478534.26546                  24293672.70746  24293669.398 6
  24293673.383 6
 110778766.548 9  86321123.09649                  21080501.97349  21080498.422 9
  21080502.953 9
 131354054.759 5 102353840.63545                  24995846.84445  24995845.406 5

 118607542.354 8  92421474.03749                  22570266.93849  22570262.797 8

 115192470.116 9  89760407.12349                  21920400.16449  21920393.484 9
  21920401.156 8
 16  1  1  1  9  0.0000000  0  9G16G20G26G29G05G31G02G21G25
 128232455.738 6  99921402.35946                  24401827.53546  24401825.250 6

 128004374.039 5  99743680.39646                  24358425.25046  24358421.539 5

 116412976.775 9  90711444.12449                  22152657.26649  22152649.758 9
  22152657.609 9
 106584343.533 9  83052753.67649                  20282325.40649  20282321.719 9
  20282325.977 9
 127631500.626 6  99453130.52646                  24287469.00846  24287465.820 6
  24287469.605 6
 110805267.483 9  86341773.15449                  21085545.09049  21085541.383 9
  21085545.953 9
 131445946.313 6 102425444.39246                  25013333.63346  25013332.039 6

 118528538.685 8  92359912.76149                  22555232.91449  22555229.188 8

 115267989.434 9  89819253.32549                  21934771.02049  21934764.250 9
  21934772.254 8
 16  1  1  1  9 30.0000000  0  9G16G20G26G29G05G31G02G21G25
 128133706.413 7  99844454.83845                  24383036.23045  24383033.461 7

 127919899.409 5  99677856.02246                  24342350.88746  24342346.273 5

 116333567.643 9  90649566.88649                  22137545.99649  22137538.844 9
  22137546.258 9
 106618531.414 9  83079393.57749                  20288831.36349  20288827.484 9
  20288831.949 9
 127599394.610 6  99428112.87546                  24281359.63346  24281355.234 6
  24281360.125 6
 110832330.243 9  86362860.99249                  21090694.75449  21090691.383 9
  21090695.258 9
 131538011.082 6 102497183.11246                  25030853.75046  25030852.477 6

 118449839.034 8  92298588.36949                  22540256.69549  22540253.578 8

 115343793.743 9  89878321.58949                  21949195.76649  21949189.164 9
  21949196.969 8
 16  1  1  1 10  0.0000000  0  9G16G20G26G29G05G31G02G21G25
 128034997.603 6  99767538.86546                  24364252.55946  24364250.141 6

 127835587.895 5  99612158.78845                  24326307.00845  24326301.961 5

 116254363.012 9  90587848.99849                  22122473.48049  22122467.047 9
  22122473.656 8
 106653077.546 9  83106312.64349                  20295405.12549  20295401.305 9
  20295405.578 9
 127567786.318 6  99403483.05547                  24275344.67647  24275341.039 6
  24275344.934 6
 110859954.447 9  86384386.33549                  21095951.16049  21095948.266 9
  21095952.129 9
 131630247.667 6 102569055.75346                  25048404.86346  25048403.773 6

 118371445.608 8  92237502.59549                  22525338.39849  22525335.156 8

 115419882.679 9  89937611.64849                  21963675.52349  21963668.906 9
  21963676.289 8
 16  1  1  1 10 30.0000000  0  9G16G20G26G29G05G31G02G21G25
 127936330.227 6  99690655.15946                  24345476.42646  24345474.398 6

 127751442.671 5  99546591.11945                  24310294.18445  24310289.891 5

 116175364.347 8  90526291.59649                  22107440.59449  22107434.195 8
  22107441.004 8
 106687980.548 9  83133509.78549                  20302047.34849  20302043.133 9
  20302047.738 9
 127536677.289 6  99379242.26747                  24269424.52747  24269421.180 6
  24269424.762 6
 110888139.219 9  86406348.47349                  21101314.39549  21101311.617 9
  21101315.488 9
 131722653.705 5 102641060.38645                  25065989.64545  25065987.656 5

 118293360.152 8  92176656.80449                  22510480.12149  22510476.281 8

 115496255.304 9  89997122.75849                  21978208.85249  21978202.000 9
  21978209.547 8
 16  1  1  1 11  0.0000000  0  9G16G20G26G29G05G31G02G21G25
 127837705.757 6  99613804.92346                  24326709.75846  24326706.445 6

 127667466.928 6  99481155.52646                  24294313.46546  24294311.156 6

 116096573.133 9  90464895.84249                  22092446.66449  22092440.766 9
  22092447.281 8
 106723239.080 9  83160983.96349                  20308756.68449  20308752.727 9
  20308757.117 9
 127506069.712 6  99355392.22547                  24263600.54347  24263596.813 6
  24263600.922 6
 110916883.690 9  86428746.73949                  21106784.85249  21106781.492 9
  21106785.594 9
 131815226.845 5 102713195.33846                  25083605.14146  25083603.648 5

 118215583.922 8  92116051.97949                  22495679.48049  22495675.930 8

 115572910.675 9  90056854.19549                  21992795.78949  21992789.141 9
  21992796.621 8
 16  1  1  1 11 30.0000000  0  9G16G20G26G29G05G31G02G21G25
 127739125.255 6  99536989.02646                  24307950.53546  24307947.820 6

 127583663.532 6  99415854.17946                  24278366.48446  24278362.953 6

 116017991.024 9  90403663.02849                  22077493.56649  22077487.117 9
  22077493.824 9
 106758851.716 9  83188734.07449                  20315533.37549  20315529.633 9
  20315533.602 9
 127475965.022 6  99331934.04147                  24257871.38747  24257867.555 6
  24257871.656 6
 110946186.619 9  86451580.17249                  21112361.13749  21112357.703 9
  21112362.250 9
 131907964.561 5 102785458.43646                  25101253.00046  25101251.828 5

 118138119.073 8  92055689.78949                  22480937.85549  22480934.602 8

 115649847.999 9  90116805.32949                  22007436.19149  22007429.688 9
  22007437.254 8
 16  1  1  1 12  0.0000000  0  9G16G20G26G29G05G31G02G21G25
 127640589.671 6  99460208.01146                  24289199.48446  24289197.125 6

 127500035.59716  99350689.58156                  24262453.27046  24262449.602 6

 115939619.743 9  90342594.50249                  22062579.99649  22062573.242 9
  22062580.637 9
 106794816.785 9  83216758.80449                  20322377.32049  20322373.523 9
  20322377.848 9
 127446364.710 6  99308868.90046                  24252238.57846  24252234.000 6
  24252238.820 6
 110976047.349 9  86474848.26449                  21118043.58649  21118040.297 9
  21118044.422 9
 132000865.136 5 102857848.44146                  25118931.63346  25118930.234 5

 118060967.384 9  91995571.63149                  22466257.03949  22466253.313 9

 115727066.522 9  90176975.58049                  22022130.50849  22022123.727 9
  22022131.332 8
 16  1  1  1 12 30.0000000  0  9G16G20G26G29G05G31G02G21G25
 127542100.656 6  99383463.34046                  24270457.26246  24270455.086 6

 127416586.643 6  99285664.46246                  24246574.07846  24246568.531 6

 115861461.396 9  90281691.90649                  22047707.19149  22047700.375 9
  22047707.414 9
 106831134.481 9  83245058.30549                  20329288.21549  20329284.789 9
  20329288.844 9
 127417271.291 6  99286198.69546                  24246702.73446  24246697.695 6
  24246702.957 6
 111006465.537 9  86498550.71749                  21123831.80949  21123828.328 9
  21123832.875 9
 132093926.751 4 102930363.87045                  25136640.88745  25136639.703 4

 117984130.764 9  91935698.96149                  22451635.26249  22451631.266 9

 115804565.844 9  90237364.64349                  22036878.24649  22036871.523 9
  22036879.359 8
 16  1  1  1 13  0.0000000  0  9G16G20G26G29G05G31G02G21G25
 127443659.090 6  99306755.61446                  24251724.21146  24251722.719 6

 127333319.416 6  99220780.96446                  24230728.00446  24230723.766 6

 115783517.395 9  90220956.32549                  22032874.65649  22032868.242 9
  22032874.832 9
 106867802.511 9  83273630.80149                  20336265.76249  20336262.063 9
  20336266.734 9
 127388686.010 6  99263924.48347                  24241262.82847  24241258.688 6
  24241263.215 6
 111037439.957 9  86522686.62049                  21129726.01649  21129722.367 9
  21129726.734 9
 132187147.070 4 103003002.97245                  25154380.12145  25154378.680 4

 117907611.022 8  91876073.22649                  22437073.91849  22437069.930 8

 115882344.931 9  90297971.70849                  22051678.67649  22051672.391 9
  22051679.926 8
 16  1  1  1 13 30.0000000  0  9G16G20G26G29G05G31G02G21G25
 127345266.263 6  99230085.86345                  24233000.73445  24232998.172 6

 127250237.150 7  99156041.57946                  24214917.55946  24214914.609 7

 115705789.394 8  90160389.05549                  22018083.28949  22018076.781 8
  22018083.793 9
 106904819.469 9  83302475.18649                  20343309.87949  20343306.273 9
  20343310.512 9
 127360610.405 6  99242047.40547                  24235919.76247  24235915.977 6
  24235920.445 6
 111068969.661 9  86547255.21149                  21135725.63349  21135722.523 9
  21135726.609 9
 132280523.736 6 103075763.99845                  25172148.98845  25172148.414 6

 117831409.784 8  91816695.68249                  22422573.20349  22422569.414 8

 115960402.900 9  90358796.07149                  22066533.22349  22066526.672 9
  22066534.320 8
 16  1  1  1 14  0.0000000  0  9G16G20G26G29G05G31G02G21G25
 127246923.377 6  99153455.01946                  24214286.94946  24214284.461 6

 127167342.698 6  99091448.51446                  24199143.56346  24199138.984 6

 115628278.983 8  90099991.33649                  22003333.82049  22003327.023 8
  22003334.141 9
 106942184.098 9  83331590.47649                  20350420.35549  20350416.250 9
  20350420.898 9
 127333045.879 6  99220568.57147                  24230675.03547  24230670.570 6
  24230675.180 6
 111101053.726 9  86572255.75449                  21141831.25049  21141827.906 9
  21141832.176 9
 132374054.731 4 103148645.38245                  25189946.73845  25189945.500 4

 117755528.867 8  91757567.73549                  22408133.86349  22408129.938 8

 116038738.890 9  90419837.07349                  22081440.03949  22081433.188 9
  22081441.313 8
 16  1  1  1 14 30.0000000  0  9G16G20G26G29G05G31G02G21G25
 127148631.547 6  99076864.01246                  24195582.87946  24195581.625 6

 127084639.210 6  99027004.25646                  24183405.62546  24183401.516 6

 115550987.780 9  90039764.42149                  21988625.17649  21988619.141 9
  21988625.645 9
 106979894.490 9  83360975.19749                  20357596.44949  20357592.547 9
  20357597.027 9
 127305994.296 6  99199489.43447                  24225526.82447  24225523.461 6
  24225527.246 6
 111133690.864 9  86597687.26949                  21148041.65649  21148038.539 9
  21148042.754 9
 132467737.87713 103221645.09655                  25207774.68845  25207771.367 3

 117679969.618 9  91698690.42549                  22393755.01249  22393751.609 9

 116117351.984 8  90481094.00349                  22096399.59849  22096392.820 8
  22096400.762 8
 16  1  1  1 15  0.0000000  0  9G16G20G26G29G05G31G02G21G25
 127050392.469 6  99000314.07146                  24176888.51646  24176885.516 6

 127002129.882 6  98962711.36446                  24167704.80946  24167699.508 6

 115473917.842 9  89979709.92249                  21973959.48449  21973953.102 9
  21973959.848 9
 107017950.448 9  83390629.19549                  20364838.27349  20364834.398 9
  20364838.707 9
 127279457.158 6  99178811.14747                  24220477.06347  24220473.430 6
  24220477.430 6
 111166880.502 9  86623549.29949                  21154357.83249  21154354.406 9
  21154358.840 9
 132561571.169 5 103294761.87046                  25225630.76646  25225628.789 5

 117604734.026 8  91640065.31549                  22379438.00449  22379434.875 8

 116196241.671 9  90542566.47249                  22111411.57449  22111405.242 9
  22111412.750 8
 16  1  1  1 15 30.0000000  0  9G16G20G26G29G05G31G02G21G25
 126952206.953 6  98923805.88546                  24158204.55946  24158201.656 6

 126919817.696 6  98898572.04146                  24152041.69946  24152037.234 6

 115397070.696 8  89919829.02849                  21959336.65249  21959329.789 8
  21959337.129 9
 107056349.793 9  83420550.76049                  20372145.72749  20372141.758 9
  20372146.270 9
 127253436.293 6  99158535.13046                  24215524.94946  24215521.398 6
  24215525.508 6
 111200621.203 9  86649840.73849                  21160778.10249  21160775.313 9
  21160779.090 9
 132655552.311 5 103367993.83146                  25243515.46546  25243512.930 5

 117529823.326 8  91581693.38249                  22365183.44549  22365179.734 8

 116275406.971 9  90604253.70149                  22126476.33249  22126469.891 9
  22126477.465 8
 16  1  1  1 16  0.0000000  0  9G16G20G26G29G05G31G02G21G25
 126854075.908 6  98847340.14246                  24139531.24646  24139528.133 6

 126837705.283 6  98834588.39246                  24136415.93846  24136411.594 6

 115320447.660 9  89860122.76449                  21944755.24649  21944748.719 9
  21944755.723 9
 107095090.729 9  83450738.50649                  20379517.53949  20379513.844 9
  20379517.895 9
 127227933.051 6  99138662.45346                  24210671.89146  24210669.133 6
  24210672.570 6
 111234912.529 9  86676561.22649                  21167303.97749  21167300.234 9
  21167304.926 9
 132749678.960 5 103441339.22345                  25261426.05945  25261424.234 5

 117455240.338 9  91523576.81449                  22350990.55549  22350986.953 9

 116354846.641 9  90666154.71349                  22141593.17249  22141586.438 9
  22141594.258 8
 16  1  1  1 16 30.0000000  0  9G16G20G26G29G05G31G02G21G25
 126756001.342 6  98770918.39946                  24120867.52746  24120864.867 6

 126755796.516 6  98770763.42446                  24120828.37546  24120824.766 6

 115244051.086 9  89800592.97449                  21930217.71149  21930210.883 9
  21930218.078 9
 107134173.820 9  83481192.86449                  20386955.04349  20386951.039 9
  20386955.906 9
 127202949.347 7  99119194.63947                  24205917.44947  24205914.289 7
  24205918.230 6
 111269753.344 9  86703709.88749                  21173933.66449  21173930.141 9
  21173934.594 9
 132843949.468 5 103514796.73445                  25279365.17645  25279365.102 5

 117380986.553 9  91465716.76349                  22336859.98449  22336857.328 9

 116434560.538 8  90728269.41949                  22156762.64849  22156755.578 8
  22156763.582 8
 16  1  1  1 17  0.0000000  0  8G16G20G26G29G05G31G21G25
 126657984.596 6  98694541.71046                  24102215.69946  24102213.344 6

 126674094.502 5  98707099.57146                  24105281.11346  24105276.734 5

 115167882.950 9  89741241.19149                  21915723.74249  21915716.727 9
  21915723.902 9
 107173597.107 9  83511912.31149                  20394456.72349  20394453.086 9
  20394457.523 9
 127178487.031 6  99100133.10547                  24201263.14847  24201259.820 6
  24201263.426 6
 111305142.891 9  86731286.13949                  21180667.98049  21180664.766 9
  21180668.777 9
 117307063.651 9  91408114.53149                  22322793.26649  22322789.781 9

 116514548.008 9  90790597.29349                  22171983.34449  22171976.898 9
  22171984.730 8
 16  1  1  1 17 30.0000000  0  8G16G20G26G29G05G31G21G25
 126560026.519 6  98618210.77246                  24083574.72746  24083572.078 6

 126592601.883 6  98643598.84946                  24089773.94946  24089769.695 6

 115091944.337 9  89682068.24549                  21901272.53949  21901266.211 9
  21901272.949 9
 107213358.522 9  83542895.23249                  20402023.13349  20402019.328 9
  20402023.578 9
 127154546.740 6  99081478.31347                  24196707.10247  24196703.508 6
  24196707.480 6
 111341079.449 9  86759288.62549                  21187506.78949  21187503.070 9
  21187507.703 9
 117233472.857 9  91350771.09749                  22308789.52349  22308785.734 9

 116594807.603 8  90853137.21649                  22187256.10549  22187249.422 8
  22187257.309 8
 16  1  1  1 18  0.0000000  0  8G16G20G26G29G05G31G21G25
 126462128.586 6  98541926.65146                  24064944.71946  24064942.500 6

 126511321.467 6  98580263.50946                  24074306.93846  24074302.563 6

 115016237.061 8  89623075.55049                  21886865.83249  21886859.398 8
  21886866.094 9
 107253456.946 9  83574140.75449                  20409653.85549  20409649.797 9
  20409654.336 9
 127131130.240 6  99063231.69947                  24192250.93047  24192247.820 6
  24192251.496 6
 111377561.641 9  86787716.27549                  21194449.02349  21194445.164 9
  21194449.957 9
 117160215.779 8  91293687.70749                  22294848.72349  22294845.031 8

 116675338.498 8  90915888.52649                  22202581.28149  22202574.344 8
  22202582.141 8
 16  1  1  1 18 30.0000000  0  8G16G20G26G29G05G31G21G25
 126364291.827 6  98465690.23246                  24046327.40246  24046325.258 6

 126430256.413 6  98517095.95546                  24058880.61346  24058876.367 6

 114940762.723 8  89564264.38349                  21872503.48449  21872496.891 8
  21872503.613 9
 107293890.796 9  83605647.65249                  20417348.06349  20417343.969 9
  20417348.516 9
 127108238.766 6  99045394.19947                  24187894.65647  24187891.141 6
  24187895.504 6
 111414588.479 9  86816568.33549                  21201494.88349  21201491.258 9
  21201495.750 9
 117087294.422 8  91236865.91249                  22280972.68449  22280968.852 8

 116756139.749 8  90978850.51249                  22217957.00449  22217949.867 8
  22217958.012 8
 16  1  1  1 19  0.0000000  0  8G16G20G26G29G05G31G21G25
 126266517.216 7  98389502.21146                  24027722.47346  24027720.273 7

 126349409.732 6  98454098.57346                  24043496.09846  24043491.695 6

 114865522.838 9  89505635.90149                  21858186.07049  21858179.516 9
  21858186.633 9
 107334657.994 9  83637414.30649                  20425105.93449  20425101.672 9
  20425106.363 9
 127085873.419 6  99027966.68347                  24183638.94547  24183635.320 6
  24183639.895 6
 111452158.740 9  86845843.83449                  21208644.30149  21208640.938 9
  21208645.176 9
 117014709.872 9  91180306.56549                  22267160.48049  22267156.672 9

 116837210.216 9  91042022.28949                  22233384.07449  22233377.750 9
  22233385.094 8
 16  1  1  1 19 30.0000000  0  8G16G20G26G29G05G31G21G25
 126168806.670 7  98313364.13947                  24009129.33247  24009125.844 7

 126268785.215 6  98391274.28446                  24028153.36746  24028148.781 6

 114790519.906 9  89447192.06249                  21843913.56349  21843907.102 9
  21843913.906 9
 107375758.990 9  83669441.05849                  20432927.26249  20432923.383 9
  20432927.555 9
 127064036.303 7  99010950.74547                  24179483.59447  24179479.742 7
  24179484.457 6
 111490272.130 9  86875542.56049                  21215897.36349  21215893.742 9
  21215898.086 9
 116942464.288 9  91124011.34949                  22253412.41449  22253408.570 9

 116918549.831 9  91105403.78549                  22248862.86749  22248855.914 9
  22248863.777 8
 16  1  1  1 20  0.0000000  0  8G16G20G26G29G05G31G21G25
 126071161.158 7  98237276.72846                  23990547.46946  23990544.508 7

 126188385.599 6  98328625.27446                  24012853.62546  24012850.359 6

 114715755.388 8  89388933.99849                  21829686.32049  21829679.586 8
  21829686.895 9
 107417191.849 9  83701726.39549                  20440811.24649  20440807.484 9
  20440811.801 9
 127042728.897 6  98994347.58147                  24175428.68847  24175425.297 6
  24175429.371 6
 111528926.760 9  86905663.02549                  21223253.34849  21223249.758 9
  21223253.957 9
 116870559.127 8  91067981.39249                  22239728.73049  22239725.086 8

 117000157.385 8  91168994.06049                  22264391.83649  22264385.148 8
  22264392.910 8
 16  1  1  1 20 30.0000000  0  8G16G20G26G29G05G31G21G25
 125973582.178 7  98161241.16946                  23971978.03146  23971976.164 7

 126108213.463 6  98266153.47646                  23997598.30146  23997593.922 6

 114641230.768 9  89330862.86749                  21815504.53549  21815498.438 9
  21815504.910 9
 107458954.686 9  83734268.86949                  20448758.59849  20448754.523 9
  20448759.168 9
 127021952.020 6  98978157.81347                  24171475.78947  24171472.797 6
  24171476.289 6
 111568121.358 9  86936204.22649                  21230711.64849  21230707.906 9
  21230712.637 9
 116798996.047 9  91012217.98849                  22226110.94949  22226107.508 9

 117082031.779 8  91232792.26149                  22279972.40649  22279965.477 8
  22279973.250 8
 16  1  1  1 21  0.0000000  0  8G16G20G26G29G05G31G21G25
 125876071.200 7  98085258.54246                  23953421.61346  23953420.344 7

 126028272.368 6  98203861.75546                  23982385.48846  23982381.008 6

 114566948.181 9  89272980.32649                  21801369.51649  21801362.594 9
  21801370.055 9
 107501046.896 9  83767067.99049                  20456768.30949  20456764.461 9
  20456769.168 9
 127001707.288 6  98962382.70547                  24167623.03547  24167618.969 6
  24167623.156 6
 111607855.125 9  86967165.59049                  21238272.60549  21238269.055 9
  21238273.578 9
 116727776.990 9  90956722.64949                  22212558.80549  22212554.711 9

 117164172.465 8  91296797.96049                  22295603.32849  22295596.406 8
  22295604.027 8
 16  1  1  1 21 30.0000000  0  8G16G20G26G29G05G31G21G25
 125778629.246 7  98009329.76247                  23934880.59047  23934877.383 7

 125948564.942 6  98141752.10846                  23967217.46546  23967213.727 6

 114492908.872 9  89215287.36949                  21787279.95349  21787273.477 9
  21787280.328 9
 107543466.417 9  83800122.16749                  20464840.23049  20464836.891 9
  20464840.980 9
 126981995.847 6  98947023.14547                  24163872.23847  24163867.492 6
  24163872.555 6
 111648126.065 9  86998545.51549                  21245936.41049  21245932.445 9
  21245937.453 9
 116656903.107 9  90901496.28449                  22199071.39149  22199068.172 9

 117246578.076 8  91361010.10049                  22311284.52749  22311277.938 8
  22311285.574 8
 16  1  1  1 22  0.0000000  0  8G16G20G26G29G05G31G21G25
 125681257.357 6  97933455.59846                  23916351.56646  23916347.828 6

 125869094.334 6  98079827.02546                  23952094.81346  23952089.906 6

 114419114.584 9  89157785.32849                  21773237.16049  21773230.992 9
  21773237.637 9
 107586211.385 9  83833429.94349                  20472974.60549  20472970.852 9
  20472975.340 9
 126962818.966 6  98932080.14347                  24160223.45347  24160218.227 6
  24160223.961 6
 111688933.186 9  87030343.24249                  21253701.52049  21253697.758 9
  21253702.543 9
 116586375.415 9  90846539.67449                  22185650.65649  22185646.797 9

 117329247.687 8  91425427.95549                  22327015.82849  22327009.016 8
  22327017.195 8
 16  1  1  1 22 30.0000000  0  8G16G20G26G29G05G31G21G25
 125583957.676 7  97857637.67947                  23897836.04747  23897832.930 7

 125789864.236 6  98018089.31146                  23937017.34846  23937013.719 6

 114345567.716 9  89100476.07749                  21759241.88349  21759235.367 9
  21759242.145 9
 107629282.252 9  83866991.66149                  20481171.14849  20481166.914 9
  20481171.863 9
 126944178.290 6  98917554.94447                  24156675.82447  24156671.539 6
  24156676.152 6
 111730275.462 9  87062557.98149                  21261568.59449  21261565.219 9
  21261569.387 9
 116516196.577 8  90791854.89649                  22172295.83649  22172292.672 8

 117412180.979 8  91490051.27449                  22342797.34449  22342790.656 8
  22342798.598 8
 16  1  1  1 23  0.0000000  0  8G16G20G26G29G05G31G21G25
 125486731.269 6  97781876.83046                  23879333.85246  23879331.031 6

 125710877.250 6  97956541.01046                  23921987.03546  23921982.992 6

 114272269.822 9  89043360.83849                  21745294.23049  21745287.281 9
  21745294.609 9
 107672676.896 9  83900805.67149                  20489428.65649  20489424.703 9
  20489429.391 9
 126926074.773 6  98903448.33047                  24153230.98847  24153226.438 6
  24153230.742 6
 111772151.338 9  87095188.50249                  21269537.64149  21269533.703 9
  21269538.324 9
 116446367.698 8  90737442.81249                  22159007.84049  22159004.688 8

 117495376.844 8  91554879.19449                  22358629.55549  22358622.500 8
  22358630.746 8
 16  1  1  1 23 30.0000000  0  8G16G20G26G29G05G31G21G25
 125389579.298 7  97706173.97646                  23860845.86746  23860844.055 7

 125632136.513 6  97895184.63646                  23907002.48446  23906998.820 6

 114199222.693 9  88986441.00049                  21731393.25049  21731386.945 9
  21731393.457 9
 107716393.980 9  83934870.93249                  20497747.80949  20497743.641 9
  20497748.363 9
 126908509.857 6  98889761.38547                  24149887.69147  24149883.531 6
  24149888.672 6
 111814559.725 9  87128233.97149                  21277607.35949  21277603.805 9
  21277608.141 9
 116376890.526 9  90683304.77049                  22145786.43849  22145783.336 9

 117578834.442 8  91619911.06649                  22374511.25849  22374504.289 8
  22374512.098 8
 16  1  1  1 24  0.0000000  0  8G16G20G26G29G05G31G21G25
 125292502.862 6  97630529.98446                  23842372.87546  23842370.797 6

 125553644.671 6  97834022.22746                  23892066.77046  23892061.578 6

 114126427.688 9  88929717.62249                  21717541.12949  21717534.523 9
  21717541.004 9
 107760431.262 9  83969185.69949                  20506127.53149  20506123.563 9
  20506128.211 9
 126891484.540 6  98876494.90747                  24146648.11347  24146643.914 6
  24146649.422 6
 111857498.859 9  87161693.01249                  21285778.36349  21285774.898 9
  21285779.258 9
 116307766.593 8  90629442.00749                  22132633.21549  22132629.281 8

 117662552.364 8  91685145.78149                  22390441.73849  22390434.508 8
  22390442.953 8
 16  1  1  1 24 30.0000000  0  8G16G20G26G29G05G31G21G25
 125195503.967 6  97554946.43847                  23823916.00847  23823911.742 6

 125475405.173 6  97773056.45146                  23877178.23846  23877173.195 6

 114053887.077 9  88873192.46949                  21703736.71149  21703730.328 9
  21703737.102 9
 107804788.756 9  84003749.98049                  20514568.25449  20514564.547 9
  20514569.008 9
 126875000.340 6  98863650.09347                  24143511.21947  24143507.742 6
  24143512.145 6
 111900967.942 9  87195564.99749                  21294050.22749  21294047.023 9
  21294051.305 9
 116238997.380 9  90575855.61549                  22119546.85949  22119543.344 9

 117746530.211 8  91750583.04949                  22406421.84849  22406415.711 8
  22406423.273 8
 16  1  1  1 25  0.0000000  0  8G16G20G26G29G05G31G21G25
 125098583.820 7  97479424.26246                  23805472.24246  23805468.922 7

 125397421.112 6  97712289.69347                  23862337.55547  23862334.172 6

 113981602.488 8  88816866.81749                  21689981.42249  21689975.031 8
  21689982.008 9
 107849464.661 9  84038562.37749                  20523070.13749  20523066.555 9
  20523070.922 9
 126859058.122 6  98851227.57147                  24140477.39147  24140472.422 6
  24140477.977 6
 111944965.259 9  87229848.59449                  21302422.75849  21302419.461 9
  21302423.660 9
 116170584.255 9  90522546.72549                  22106527.42249  22106524.492 9

 117830766.877 8  91816221.97749                  22422451.96549  22422445.320 8
  22422453.277 8
 16  1  1  1 25 30.0000000  0  8G16G20G26G29G05G31G21G25
 125001743.766 7  97403964.44547                  23787043.66447  23787041.609 7

 125319695.295 6  97651724.14746                  23847546.89846  23847543.445 6

 113909575.637 9  88760742.00649                  21676275.17649  21676268.648 9
  21676275.883 9
 107894457.419 9  84073621.67449                  20531631.93849  20531628.148 9
  20531632.547 9
 126843658.930 6  98839228.21046                  24137547.74246  24137543.422 6
  24137548.332 6
 111989489.318 9  87264542.63149                  21310895.55549  21310891.828 9
  21310896.141 9
 116102528.903 9  90469516.60449                  22093577.23849  22093573.898 9

 117915261.339 8  91882061.79649                  22438531.10249  22438524.203 8
  22438532.094 8
 16  1  1  1 26  0.0000000  0  8G16G20G26G29G05G31G21G25
 124904984.902 6  97328567.92147                  23768630.87947  23768628.086 6

 125242230.767 6  97591362.20646                  23832805.51246  23832801.680 6

 113837808.073 9  88704819.23249                  21662618.52049  21662611.961 9
  21662618.727 9
 107939765.326 9  84108926.54949                  20540253.56649  20540249.805 9
  20540254.223 9
 126828803.852 6  98827652.81747                  24134721.37147  24134716.938 6
  24134721.293 6
 112034538.440 9  87299645.82549                  21319467.87949  21319464.586 9
  21319468.598 9
 116034832.553 9  90416766.23849                  22080695.27749  22080691.695 9

 118000012.512 8  91948101.64449                  22454658.30149  22454651.398 8
  22454659.473 8
 16  1  1  1 26 30.0000000  0  8G16G20G26G29G05G31G21G25
 124808309.091 7  97253236.12546                  23750233.77346  23750231.680 7

 125165030.629 6  97531206.32146                  23818115.41046  23818110.422 6

 113766302.181 9  88649100.35549                  21649011.19549  21649004.813 9
  21649011.469 9
 107985387.790 9  84144476.52349                  20548935.33649  20548931.891 9
  20548935.988 9
 126814494.273 6  98816502.50247                  24131998.02747  24131993.867 6
  24131998.188 6
 112080111.628 9  87335157.37049                  21328140.45349  21328136.773 9
  21328141.313 9
 115967497.132 9  90364297.12549                  22067881.87949  22067878.500 9

 118085019.883 8  92014341.12749                  22470834.46549  22470827.930 8
  22470836.098 8
 16  1  1  1 27  0.0000000  0  8G16G20G26G29G05G31G21G25
 124711717.527 7  97177970.01947                  23731853.85547  23731851.180 7

 125088098.231 6  97471259.05046                  23803476.04746  23803471.344 6

 113695059.549 9  88593586.61849                  21635454.43449  21635447.641 9
  21635454.461 9
 108031323.606 9  84180270.66949                  20557676.83249  20557672.766 9
  20557677.191 9
 126800731.473 6  98805778.27247                  24129378.48047  24129374.570 6
  24129379.063 6
 112126207.396 9  87371076.12749                  21336912.00849  21336908.484 9
  21336913.297 9
 115900523.977 8  90312110.29649                  22055137.30949  22055133.602 8

 118170282.380 8  92080779.41949                  22487059.79349  22487052.914 8
  22487061.043 8
 16  1  1  1 27 30.0000000  0  8G16G20G26G29G05G31G21G25
 124615211.299 7  97102770.33947                  23713489.16447  23713486.969 7

 125011435.874 7  97411522.19146                  23788886.83246  23788883.594 7

 113624081.507 9  88538279.05749                  21621947.49249  21621941.234 9
  21621947.965 9
 108077570.052 9  84216306.86049                  20566477.09849  20566473.258 9
  20566477.340 9
 126787515.653 7  98795480.24847                  24126863.40647  24126859.859 7
  24126864.277 6
 112172823.645 9  87407400.44949                  21345782.70349  21345779.492 9
  21345783.336 9
 115833914.206 9  90260206.61549                  22042461.82849  22042458.109 9

 118255798.576 7  92147415.39149                  22503333.52749  22503326.313 7
  22503334.496 8
 16  1  1  1 28  0.0000000  0  8G16G20G26G29G05G31G21G25
 124518792.145 7  97027638.55546                  23695141.03146  23695138.203 7

 124935046.933 6  97351998.39947                  23774350.49647  23774346.523 6

 113553370.100 9  88483179.26449                  21608491.67249  21608485.047 9
  21608492.059 9
 108124126.922 9  84252584.94749                  20575337.05549  20575332.711 9
  20575337.645 9
 126774848.534 6  98785609.77947                  24124453.38347  24124449.555 6
  24124453.766 6
 112219959.166 9  87444129.40549                  21354752.58249  21354748.984 9
  21354753.422 9
 115767669.476 9  90208587.36449                  22029855.21149  22029852.172 9

 118341567.766 8  92214248.48949                  22519654.68049  22519647.758 8
  22519655.465 8
 16  1  1  1 28 30.0000000  0  8G16G20G26G29G05G31G21G25
 124422461.598 6  96952575.79646                  23676808.91846  23676807.320 6

 124858934.879 6  97292690.37646                  23759867.07046  23759862.922 6

 113482927.570 9  88428288.98149                  21595086.48449  21595080.406 9
  21595086.941 9
 108170993.124 9  84289104.06749                  20584255.02049  20584250.930 9
  20584255.586 9
 126762731.072 6  98776167.60147                  24122147.34447  24122143.313 6
  24122148.215 6
 112267612.920 9  87481262.17349                  21363820.52349  21363817.180 9
  21363821.500 9
 115701791.383 9  90157253.79249                  22017319.67249  22017315.859 9

 118427589.371 8  92281278.28049                  22536023.78949  22536016.750 8
  22536024.504 8
 16  1  1  1 29  0.0000000  0  8G16G20G26G29G05G31G21G25
 124326221.218 7  96877583.28047                  23658496.09847  23658493.477 7

 124783102.349 6  97233600.14346                  23745436.15246  23745432.133 6

 113412755.559 9  88373609.48949                  21581733.20749  21581726.953 9
  21581733.621 9
 108218167.248 9  84325863.12649                  20593231.51249  20593228.102 9
  20593232.340 9
 126751164.303 6  98767154.53547                  24119946.61747  24119942.844 6
  24119946.980 6
 112315783.122 9  87518797.37249                  21372987.47349  21372983.945 9
  21372988.445 9
 115636281.177 9  90106206.88849                  22004853.37549  22004849.898 9

 118513862.239 8  92348503.86749                  22552441.12149  22552433.875 8
  22552441.953 8
 16  1  1  1 29 30.0000000  0  8G16G20G26G29G05G31G21G25
 124230072.187 7  96802661.93747                  23640199.90647  23640196.836 7

 124707552.109 6  97174729.87946                  23731060.16446  23731055.883 6

 113342855.548 9  88319141.94549                  21568431.93449  21568425.375 9
  21568432.727 9
 108265647.401 9  84362860.65549                  20602266.86349  20602263.172 9
  20602267.414 9
 126740148.966 6  98758571.15247                  24117849.95747  24117845.367 6
  24117850.828 6
 112364467.746 9  87556733.41149                  21382251.48449  21382248.273 9
  21382252.551 9
 115571140.193 9  90055447.69149                  21992457.16849  21992454.039 9

 118600385.125 8  92415924.26549                  22568905.57449  22568898.680 8
  22568906.688 8
 16  1  1  1 30  0.0000000  0  8G16G20G26G29G05G31G21G25
 124134015.951 6  96727812.96147                  23621920.13347  23621916.953 6

 124632287.510 6  97116082.22046                  23716737.17646  23716733.328 6

 113273229.507 9  88264887.88849                  21555183.00449  21555176.398 9
  21555183.441 9
 108313432.358 9  84400095.69249                  20611360.29349  20611356.125 9
  20611360.957 9
 126729685.857 6  98750418.08547                  24115858.74247  24115854.609 6
  24115859.711 6
 112413665.573 9  87595069.35549                  21391613.56649  21391610.117 9
  21391614.176 9
 115506369.834 9  90004977.29349                  21980131.43849  21980128.477 9

 118687157.141 8  92483538.78549                  22585417.84849  22585410.930 8
  22585418.977 8
 16  1  1  1 30 30.0000000  0  8G16G20G26G29G05G31G21G25
 124038054.157 7  96653037.54847                  23603658.76647  23603657.531 7

 124557311.719 7  97057659.58646                  23702470.89846  23702466.070 7

 113203879.452 9  88210848.88649                  21541985.77049  21541979.148 9
  21541986.371 9
 108361521.212 9  84437567.52649                  20620511.20749  20620507.344 9
  20620511.617 9
 126719775.838 6  98742695.99446                  24113972.71946  24113969.672 6
  24113973.617 6
 112463375.005 9  87633803.94949                  21401073.03149  21401069.813 9
  21401074.211 9
 115441972.197 9  89954797.31449                  21967877.08249  21967874.109 9

 118774177.539 8  92551346.85849                  22601977.18849  22601970.555 8
  22601978.277 8
 16  1  1  1 31  0.0000000  0  8G16G20G26G29G05G31G21G25
 123942187.941 7  96578336.59847                  23585416.26647  23585414.352 7

 124482627.139 6  96999463.86446                  23688258.31646  23688253.477 6

 113134806.798 9  88157026.03249                  21528841.85549  21528835.250 9
  21528842.184 9
 108409911.834 9  84475274.51249                  20629719.86749  20629715.789 9
  20629720.203 9
 126710419.909 6  98735405.65347                  24112192.69147  24112188.414 6
  24112193.281 6
 112513594.069 9  87672935.66149                  21410629.41449  21410626.094 9
  21410630.008 9
 115377947.711 9  89904908.10849                  21955694.02349  21955690.586 9

 118861444.888 8  92619347.36549                  22618583.82449  22618576.953 8
  22618584.957 8
 16  1  1  1 31 30.0000000  0  8G16G20G26G29G05G31G21G25
 123846419.092 7  96503711.52447                  23567192.53947  23567189.531 7

 124408237.052 6  96941497.63246                  23674101.71946  23674098.281 6

 113066013.814 9  88103421.11149                  21515750.89149  21515744.438 9
  21515751.082 9
 108458603.689 9  84513216.21149                  20638985.82849  20638981.406 9
  20638986.082 9
 126701619.201 6  98728547.97046                  24110518.37146  24110514.023 6
  24110518.926 6
 112564321.699 9  87712463.65949                  21420282.88349  21420279.344 9
  21420283.715 9
 115314298.088 9  89855311.01449                  21943582.06649  21943578.477 9

 118948958.658 8  92687539.88149                  22635236.85949  22635230.188 8
  22635238.176 8
 16  1  1  1 32  0.0000000  0  8G16G20G26G29G05G31G21G25
 123750748.954 7  96429163.39547                  23548987.49647  23548985.156 7

 124334144.729 6  96883763.42247                  23660001.94147  23659999.000 6

 112997502.172 9  88050035.41049                  21502713.76649  21502707.000 9
  21502714.129 9
 108507595.421 9  84551391.58749                  20648307.93449  20648304.281 9
  20648308.727 9
 126693374.561 6  98722123.61247                  24108949.39147  24108945.398 6
  24108949.496 6
 112615555.990 9  87752386.45449                  21430032.48449  21430029.063 9
  21430033.504 9
 115251024.991 9  89806007.30749                  21931541.73849  21931538.141 9

 119036717.684 8  92755923.51349                  22651937.11349  22651930.641 8
  22651938.484 8
 16  1  1  1 32 30.0000000  0  8G16G20G26G29G05G31G21G25
 123655178.672 7  96354693.03547                  23530800.82447  23530797.586 7

 124260352.602 7  96826263.14647                  23645959.51247  23645956.781 7

 112929273.277 9  87996870.03949                  21489729.96549  21489722.977 9
  21489730.371 9
 108556884.600 9  84589798.74849                  20657687.56649  20657683.750 9
  20657688.137 9
 126685686.095 5  98716132.60946                  24107486.75046  24107481.906 5
  24107486.641 6
 112667294.752 9  87792702.34549                  21439878.02349  21439874.414 9
  21439879.027 9
 115188129.403 9  89756997.75249                  21919572.75849  21919569.352 9

 119124720.495 8  92824497.09449                  22668683.70749  22668676.789 8
  22668684.820 8
 16  1  1  1 33  0.0000000  0  8G16G20G26G29G05G31G21G25
 123559710.634 7  96280302.35447                  23512633.71547  23512631.609 7

 124186864.113 6  96768999.46747                  23631975.99647  23631972.055 6

 112861329.707 9  87943926.99249                  21476801.01649  21476794.016 9
  21476801.633 9
 108606471.590 9  84628437.96949                  20667123.59849  20667120.102 9
  20667124.254 9
 126678555.416 5  98710576.23846                  24106128.74646  24106125.000 5
  24106129.551 6
 112719537.041 9  87833410.59649                  21449819.12149  21449815.492 9
  21449820.227 9
 115125612.935 9  89708283.63249                  21907675.82449  21907672.531 9

 119212966.899 8  92893260.49349                  22685476.73849  22685469.844 8
  22685477.598 8
 16  1  1  1 33 30.0000000  0  8G16G20G26G29G05G31G21G25
 123464345.644 7  96205991.97147                  23494487.07047  23494484.086 7

 124113682.072 6  96711974.58246                  23618050.28546  23618044.898 6

 112793672.937 9  87891207.42849                  21463925.71149  21463919.109 9
  21463926.328 9
 108656354.129 9  84667307.48449                  20676615.96549  20676612.172 9
  20676616.453 9
 126671983.025 5  98705454.90346                  24104879.09846  24104874.359 5
  24104879.391 6
 112772280.826 9  87874509.63249                  21459856.38749  21459852.586 9
  21459857.457 9
 115063476.678 9  89659865.77849                  21895852.07049  21895848.813 9

 119301455.470 8  92962212.59149                  22702314.87549  22702308.398 8
  22702315.883 8
 16  1  1  1 34  0.0000000  0  8G16G20G26G29G05G31G21G25
 123369085.593 7  96131763.36947                  23476360.05547  23476356.383 7

 124040809.481 6  96655190.81746                  23604182.26246  23604178.188 6

 112726305.062 9  87838712.98049                  21451105.87149  21451099.695 9
  21451106.324 9
 108706531.474 9  84706406.70949                  20686164.53549  20686160.641 9
  20686165.125 9
 126665969.84815  98700769.32756                  24103734.44946  24103731.211 5
  24103734.945 6
 112825524.587 9  87915998.24949                  21469988.08249  21469984.523 9
  21469988.871 9
 115001722.229 9  89611745.46149                  21884100.68849  21884097.188 9

 119390185.469 8  93031352.82049                  22719199.55949  22719193.055 8
  22719200.746 8
 16  1  1  1 34 30.0000000  0  8G16G20G26G29G05G31G21G25
 123273931.626 7  96057617.42047                  23458252.35547  23458249.375 7

 123968249.163 6  96598650.37846                  23590374.08646  23590370.727 6

 112659227.392 9  87786444.65549                  21438341.58249  21438335.484 9
  21438342.020 9
 108757001.293 9  84745733.84949                  20695768.62949  20695764.719 9
  20695769.129 9
 126660516.014 5  98696519.60546                  24102696.46146  24102692.141 5
  24102696.836 6
 112879266.002 9  87957874.63849                  21480215.04349  21480211.156 9
  21480215.684 9
 114940350.586 9  89563923.41649                  21872421.80549  21872418.375 9

 119479155.271 8  93100679.89949                  22736129.97749  22736123.508 8
  22736131.141 8
 16  1  1  1 35  0.0000000  0  8G16G20G26G29G05G31G21G25
 123178885.339 7  95983555.39147                  23440164.95347  23440162.367 7

 123896003.978 7  96542355.48646                  23576626.60246  23576622.844 7

 112592441.774 9  87734403.90049                  21425632.94149  21425626.719 9
  21425633.359 9
 108807762.596 9  84785288.11449                  20705428.22749  20705424.250 9
  20705428.609 9
 126655622.538 5  98692706.51046                  24101764.99646  24101761.195 5
  24101765.539 6
 112933503.501 9  88000137.58849                  21490535.65649  21490532.242 9
  21490536.441 9
 114879362.883 9  89516400.54449                  21860816.08249  21860812.859 9

 119568363.958 8  93170193.14149                  22753106.25449  22753099.016 8
  22753107.098 8
 16  1  1  1 35 30.0000000  0  8G16G20G26G29G05G31G21G25
 123083948.593 7  95909578.67847                  23422099.12547  23422097.242 7

 123824077.305 6  96486308.79147                  23562939.18447  23562936.086 6

 112525950.537 9  87682592.54549                  21412980.35249  21412973.852 9
  21412980.750 9
 108858814.805 9  84825069.06349                  20715142.89149  20715139.141 9
  20715143.465 9
 126651290.315 6  98689330.76846                  24100940.56346  24100937.094 6
  24100941.289 6
 112988235.614 9  88042785.96449                  21500951.09849  21500947.469 9
  21500951.801 9
 114818760.866 9  89469178.21549                  21849284.27049  21849280.820 9

 119657810.861 8  93239891.99249                  22770127.59449  22770120.664 8
  22770128.719 8
 16  1  1  1 36  0.0000000  0  8G16G20G26G29G05G31G21G25
 122989122.616 7  95835688.31647                  23404054.75847  23404052.570 7

 123752471.846 6  96430512.44046                  23549312.80546  23549308.867 6

 112459755.296 9  87631011.82449                  21400383.66849  21400376.977 9
  21400384.301 9
 108910156.060 9  84865075.23549                  20724912.73449  20724908.813 9
  20724913.430 9
 126647519.855 5  98686392.74746                  24100223.00046  24100219.383 5
  24100223.664 6
 113043460.394 9  88085818.23649                  21511460.30949  21511456.359 9
  21511461.027 9
 114758545.574 9  89422257.23449                  21837825.71949  21837822.133 9

 119747494.803 8  93309775.55048                  22787193.29348  22787186.859 8
  22787194.695 7
 16  1  1  1 36 30.0000000  0  8G16G20G26G29G05G31G21G25
 122894409.376 7  95761885.76747                  23386030.91447  23386028.391 7

 123681190.364 7  96374968.51746                  23535748.65246  23535745.406 7

 112393858.238 9  87579663.46149                  21387843.97749  21387837.250 9
  21387844.289 9
 108961785.409 9  84905305.91049                  20734737.38349  20734733.648 9
  20734738.047 9
 126644311.718 5  98683892.90546                  24099612.53146  24099608.461 5
  24099612.910 6
 113099176.178 9  88129233.10449                  21522062.58649  21522058.797 9
  21522063.270 9
 114698718.501 9  89375638.76349                  21826441.20749  21826437.563 9

 119837415.012 8  93379843.22048                  22804304.89548  22804298.234 8
  22804306.355 8
 16  1  1  1 37  0.0000000  0  8G16G20G26G29G05G31G21G25
 122799809.881 7  95688171.87647                  23368029.97747  23368026.445 7

 123610235.629 6  96319679.19547                  23522245.60547  23522242.141 6

 112328260.620 9  87528548.43449                  21375361.26249  21375354.430 9
  21375361.777 9
 109013700.756 9  84945759.42549                  20744616.76649  20744612.891 9
  20744617.234 9
 126641666.380 6  98681831.61246                  24099108.80146  24099104.914 6
  24099109.785 6
 113155380.804 9  88173028.88749                  21532757.72349  21532754.008 9
  21532758.648 9
 114639280.194 9  89329323.24049                  21815130.05949  21815126.727 9

 119927569.870 8  93450093.72948                  22821461.36348  22821454.102 8
  22821462.355 8
 16  1  1  1 37 30.0000000  0  8G16G20G26G29G05G31G21G25
 122705325.903 7  95614547.98447                  23350049.79347  23350047.430 7

 123539611.138 7  96264647.17047                  23508805.93847  23508803.461 7

 112262964.425 9  87477668.27549                  21362935.71949  21362928.914 9
  21362935.832 9
 109065901.448 9  84986435.29649                  20754550.21949  20754546.203 9
  20754550.840 9
 126639584.515 6  98680209.37547                  24098712.57847  24098708.656 6
  24098713.516 6
 113212072.519 9  88217204.23949                  21543546.35249  21543542.336 9
  21543547.258 9
 114580232.387 9  89283312.00749                  21803893.22749  21803889.945 9

 120017958.472 7  93520526.37048                  22838661.75848  22838654.430 7
  22838662.555 8
 16  1  1  1 38  0.0000000  0  8G16G20G26G29G05G31G21G25
 122610959.032 7  95541015.34847                  23332092.21147  23332089.023 7

 123469320.158 7  96209875.07247                  23495431.02347  23495427.109 7

 112197972.219 9  87427024.98949                  21350568.28549  21350561.531 9
  21350568.387 9
 109118386.579 9  85027332.79849                  20764537.87949  20764534.000 9
  20764538.359 9
 126638066.885 6  98679026.85646                  24098423.78546  24098420.352 6
  24098424.461 6
 113269249.989 9  88261758.08649                  21554426.91049  21554423.008 9
  21554427.574 9
 114521576.712 9  89237606.31649                  21792731.84049  21792728.211 9

 120108580.458 7  93591140.87648                  22855906.07448  22855898.914 7
  22855907.430 7
 16  1  1  1 38 30.0000000  0  8G16G20G26G29G05G31G21G25
 122516710.961 7  95467575.29247                  23314157.00047  23314154.938 7

 123399364.815 6  96155364.47746                  23482118.49246  23482114.477 6

 112133285.189 9  87376619.50549                  21338258.44949  21338251.797 9
  21338258.680 9
 109171154.346 9  85068450.54549                  20774579.03949  20774575.305 9
  20774579.598 9
 126637113.960 6  98678284.34346                  24098243.33646  24098240.109 6
  24098243.715 6
 113326910.598 9  88306688.40349                  21565399.28149  21565395.250 9
  21565399.656 9
 114463313.673 9  89192206.57849                  21781644.88749  21781641.375 9

 120199434.037 7  93661935.84648                  22873194.94548  22873187.820 7
  22873196.414 7
 16  1  1  1 39  0.0000000  0  8G16G20G26G29G05G31G21G25
 122422582.743 7  95394228.61248                  23296246.03548  23296243.492 7

 123329747.500 6  96101117.28947                  23468871.09047  23468867.500 6

 112068904.578 9  87326452.79149                  21326007.23049  21326000.664 9
  21326007.465 9
 109224202.117 9  85109786.47649                  20784674.02349  20784670.078 9
  20784674.824 9
 126636725.448 6  98677981.62147                  24098169.05947  24098165.492 6
  24098168.973 6
 113385052.110 9  88351993.45549                  21576462.79749  21576459.352 9
  21576463.547 9
 114405444.225 9  89147113.54149                  21770632.68849  21770629.016 9

 120290517.613 7  93732910.04548                  22890527.42648  22890520.383 7
  22890528.754 7
 16  1  1  1 39 30.0000000  0  8G16G20G26G29G05G31G21G25
 122328576.757 7  95320977.20747                  23278356.95747  23278353.898 7

 123260472.177 6  96047136.58247                  23455687.33247  23455684.094 6

 112004833.143 9  87276526.99749                  21313814.70349  21313808.328 9
  21313815.168 9
 109277530.434 9  85151341.01549                  20794821.98449  20794817.859 9
  20794822.512 9
 126636902.441 6  98678119.55947                  24098203.27347  24098198.742 6
  24098203.707 6
 113443673.161 9  88397672.19049                  21587618.16049  21587614.359 9
  21587618.992 9
 114347970.060 9  89102328.53849                  21759695.49649  21759691.883 9

 120381830.920 7  93804063.24148                  22907904.35248  22907897.328 7
  22907905.367 7
 16  1  1  1 40  0.0000000  0  8G16G20G26G29G05G31G21G25
 122234694.315 7  95247822.09347                  23260491.98447  23260489.758 7

 123191541.443 7  95993424.37647                  23442570.44947  23442567.656 7

 111941072.828 9  87226843.63149                  21301681.59449  21301674.813 9
  21301682.074 9
 109331137.921 9  85193113.08849                  20805022.73049  20805019.219 9
  20805023.539 9
 126637645.709 6  98678698.75147                  24098343.85947  24098340.469 6
  24098343.996 5
 113502772.085 9  88443723.27749                  21598864.55149  21598860.586 9
  21598865.227 9
 114290892.421 9  89057852.49049                  21748833.67649  21748830.250 9

 120473373.067 7  93875394.75948                  22925324.57448  22925317.047 7
  22925325.211 8
 16  1  1  1 40 30.0000000  0  8G16G20G26G29G05G31G21G25
 122140936.684 7  95174764.17747                  23242649.57047  23242647.727 7

 123122957.546 7  95939982.41447                  23429520.02347  23429516.703 7

 111877624.824 9  87177403.62849                  21289607.98449  21289601.094 9
  21289608.316 9
 109385022.076 9  85235100.74649                  20815276.66449  20815272.727 9
  20815277.133 9
 126638955.042 5  98679719.03846                  24098593.71946  24098589.625 5
  24098594.125 6
 113562346.337 9  88490144.76349                  21610201.01249  21610197.031 9
  21610201.758 9
 114234211.598 9  89013685.64749                  21738048.19149  21738044.523 9

 120565142.205 7  93946903.15948                  22942787.45348  22942780.266 7
  22942788.559 7
 16  1  1  1 41  0.0000000  0  8G16G20G26G29G05G31G21G25
 122047305.437 7  95101804.76547                  23224832.37947  23224829.844 7

 123054723.845 6  95886813.35846                  23416535.39146  23416531.227 6

 111814491.100 9  87128208.52449                  21277593.90249  21277587.539 9
  21277594.059 9
 109439181.736 9  85277303.08449                  20825582.87549  20825578.984 9
  20825583.512 9
 126640830.930 5  98681180.74846                  24098950.48846  24098946.313 5
  24098951.156 6
 113622394.108 9  88536935.23049                  21621627.87149  21621623.883 9
  21621628.691 9
 114177929.423 9  88969829.43649                  21727337.49249  21727334.320 9

 120657137.436 7  94018587.73548                  22960292.89548  22960286.406 7
  22960294.238 7
 16  1  1  1 41 30.0000000  0  8G16G20G26G29G05G31G21G25
 121953802.774 7  95028945.56747                  23207040.25447  23207037.391 7

 122986843.604 7  95833919.74047                  23403618.66447  23403614.516 7

 111751674.332 9  87079260.38949                  21265640.14549  21265633.891 9
  21265640.484 9
 109493617.195 9  85319720.32349                  20835942.07049  20835937.977 9
  20835942.547 9
 126643274.624 5  98683084.91146                  24099415.77046  24099411.602 5
  24099416.105 6
 113682914.092 9  88584093.63549                  21633143.97349  21633140.305 9
  21633144.816 8
 114122047.639 9  88926285.21849                  21716703.58649  21716700.453 9

 120749358.364 7  94090448.17248                  22977843.10948  22977835.438 7
  22977843.699 8
 16  1  1  1 42  0.0000000  0  8G16G20G26G29G05G31G21G25
 121860430.304 7  94956187.79847                  23189271.97747  23189268.172 7

 122919319.342 7  95781303.47746                  23390768.68446  23390764.930 7

 111689175.783 9  87030560.22649                  21253747.50849  21253740.797 9
  21253747.746 9
 109548326.295 9  85362350.79349                  20846352.79349  20846348.828 9
  20846353.066 9
 126646285.625 5  98685431.14046                  24099988.68046  24099984.242 5
  24099988.914 6
 113743903.531 9  88631617.85549                  21644750.44949  21644746.633 9
  21644750.906 9
 114066566.677 9  88883053.33849                  21706145.85949  21706142.531 9

 120841803.396 7  94162483.22848                  22995434.26248  22995427.211 7
  22995434.887 7
 16  1  1  1 42 30.0000000  0  8G16G20G26G29G05G31G21G25
 121767189.337 7  94883532.51547                  23171528.21547  23171525.531 7

 122852153.937 7  95728966.83947                  23377988.12547  23377984.203 7

 111626997.481 9  86982109.59749                  21241915.34049  21241908.711 9
  21241915.703 9
 109603307.676 9  85405193.43749                  20856814.73849  20856811.078 9
  20856815.352 9
 126649864.694 5  98688220.01946                  24100669.46146  24100664.789 5
  24100669.914 6
 113805360.630 9  88679506.47649                  21656445.25449  21656441.586 9
  21656446.027 9
 114011487.636 9  88840134.63249                  21695664.46549  21695661.359 9

 120934471.538 7  94234692.13448                  23013068.20348  23013061.422 7
  23013069.355 7
 16  1  1  1 43  0.0000000  0  8G16G20G26G29G05G31G21G25
 121674081.652 7  94810981.08148                  23153811.00448  23153807.539 7

 122785350.092 7  95676911.95747                  23365274.94547  23365271.633 7

 111565141.033 9  86933909.77749                  21230144.09849  21230137.695 9
  21230144.516 9
 109658560.051 9  85448247.23849                  20867329.38749  20867325.734 9
  20867330.219 9
 126654011.584 5  98691451.37746                  24101459.19546  24101454.438 5
  24101459.406 6
 113867283.434 9  88727757.99649                  21668229.16049  21668224.852 9
  21668229.914 9
 113956811.516 9  88797529.89449                  21685259.92249  21685256.594 9

 121027361.418 7  94307073.83948                  23030744.05148  23030737.844 7
  23030745.559 7
 16  1  1  1 43 30.0000000  0  8G16G20G26G29G05G31G21G25
 121581108.556 7  94738534.53547                  23136118.25447  23136116.031 7

 122718910.477 7  95625140.88347                  23352631.44147  23352628.063 7

 111503608.265 9  86885962.16649                  21218435.06349  21218428.445 9
  21218435.441 9
 109714081.598 9  85491510.78849                  20877894.98049  20877891.000 9
  20877895.688 9
 126658726.805 5  98695125.58446                  24102356.43446  24102352.461 5
  24102356.570 6
 113929669.567 9  88776370.55949                  21680100.20749  21680096.766 9
  21680101.418 9
 113902539.189 9  88755239.80449                  21674932.11749  21674929.086 9

 121120471.871 7  94379627.41348                  23048463.01248  23048456.203 7
  23048463.883 7
 16  1  1  1 44  0.0000000  0  8G16G20G26G29G05G31G21G25
 121488272.019 7  94666194.39347                  23118451.91047  23118449.258 7

 122652838.315 7  95573656.13747                  23340059.02047  23340055.273 7

 111442401.352 9  86838268.47349                  21206788.09449  21206781.250 9
  21206788.230 9
 109769871.877 9  85534983.73249                  20888511.37149  20888507.492 9
  20888512.023 9
 126664010.736 6  98699242.94946                  24103361.89146  24103357.781 6
  24103361.840 6
 113992517.512 9  88825342.96449                  21692060.20749  21692056.484 9
  21692060.914 9
 113848672.196 9  88713265.55249                  21664681.85549  21664678.742 9

 121213802.198 7  94452352.31048                  23066223.35548  23066215.813 7
  23066224.391 7
 16  1  1  1 44 30.0000000  0  8G16G20G26G29G05G31G21G25
 121395573.623 7  94593961.84448                  23100812.45348  23100809.664 7

 122587136.151 7  95522459.70147                  23327556.07447  23327552.188 7

 111381522.049 9  86790830.06549                  21195202.80149  21195196.109 9
  21195203.262 9
 109825929.244 9  85578664.80349                  20899179.00049  20899174.992 9
  20899179.238 9
 126669863.350 5  98703803.38546                  24104475.15246  24104470.852 5
  24104475.723 5
 114055824.897 9  88874673.37349                  21704107.04749  21704103.328 9
  21704108.039 9
 113795210.951 9  88671607.46449                  21654508.31349  21654505.344 9

 121307351.064 7  94525247.50948                  23084025.16448  23084018.492 7
  23084026.422 7
 16  1  1  1 45  0.0000000  0  8G16G20G26G29G05G31G21G25
 121303014.841 7  94521838.14248                  23083199.34048  23083195.922 7

 122521806.733 7  95471553.71147                  23315124.09847  23315121.406 7

 111320971.972 9  86743648.19249                  21183680.87949  21183674.063 9
  21183681.012 9
 109882251.952 9  85622552.62549                  20909896.39149  20909892.555 9
  20909896.809 9
 126676284.960 5  98708807.27946                  24105697.31646  24105692.719 5
  24105697.992 5
 114119589.393 9  88924359.97649                  21716240.71949  21716237.344 9
  21716241.668 9
 113742157.107 9  88630266.84149                  21644412.96149  21644409.742 9

 121401117.145 7  94598311.96948                  23101867.84448  23101861.219 7
  23101869.125 7
 16  1  1  1 45 30.0000000  0  8G16G20G26G29G05G31G21G25
 121210597.835 7  94449824.90347                  23065612.46547  23065610.156 7

 122456853.196 7  95420940.59447                  23302763.89547  23302760.891 7

 111260753.385 9  86696724.62149                  21172221.57849  21172214.719 9
  21172221.852 9
 109938839.909 9  85666647.13049                  20920664.67649  20920661.180 9
  20920665.254 9
 126683276.003 5  98714254.84846                  24107027.14846  24107023.570 5
  24107027.434 5
 114183809.245 9  88974401.40249                  21728461.32049  21728458.125 9
  21728462.363 9
 113689511.372 9  88589244.22249                  21634394.66449  21634391.461 9

 121495099.633 7  94671545.05748                  23119752.27748  23119745.492 7
  23119753.355 7
 16  1  1  1 46  0.0000000  0  8G16G20G26G29G05G31G21G25
 121118323.982 7  94377923.18647                  23048052.88347  23048050.703 7

 122392277.978 7  95370622.29047                  23290475.53947  23290472.742 7

 111200867.934 9  86650060.63649                  21160825.44149  21160818.898 9
  21160825.762 9
 109995691.138 9  85710946.79549                  20931483.46949  20931479.500 9
  20931483.957 9
 126690836.886 5  98720146.44946                  24108466.02746  24108462.164 5
  24108466.883 5
 114248482.056 9  89024795.78649                  21740768.30549  21740764.867 9
  21740769.258 8
 113637275.221 9  88548540.75749                  21624454.30549  21624450.781 9

 121589297.196 7  94744945.72648                  23137677.44548  23137670.359 7
  23137678.707 7
 16  1  1  1 46 30.0000000  0  8G16G20G26G29G05G31G21G25
 121026195.170 7  94306134.52847                  23030521.94147  23030518.305 7

 122328083.978 7  95320601.02347                  23278260.14547  23278256.117 7

 111141317.563 9  86603657.75749                  21149493.64149  21149486.852 9
  21149493.840 9
 110052804.607 9  85755450.80149                  20942351.50049  20942347.922 9
  20942352.301 9
 126698967.153 5  98726481.72846                  24110012.97346  24110009.656 5
  24110013.957 5
 114313606.026 9  89075541.71949                  21753161.07849  21753157.305 9
  21753162.035 9
 113585448.975 9  88508156.70649                  21614592.02349  21614588.672 9

 121683708.849 7  94818513.22648                  23155643.68848  23155636.391 7
  23155644.867 7
 16  1  1  1 47  0.0000000  0  8G16G20G26G29G05G31G21G25
 120934212.611 7  94234459.81748                  23013018.46548  23013015.336 7

 122264273.678 7  95270878.76147                  23266117.13347  23266113.500 7

 111082103.917 9  86557517.25749                  21138225.28149  21138218.922 9
  21138225.590 9
 110110178.367 9  85800157.62249                  20953269.30149  20953265.664 9
  20953269.938 9
 126707666.863 6  98733260.71746                  24111668.63746  24111664.633 6
  24111669.523 5
 114379178.663 9  89126637.27349                  21765639.23049  21765635.297 9
  21765640.090 8
 113534033.760 9  88468092.93249                  21604807.76649  21604804.813 9

 121778333.158 7  94892246.43448                  23173649.80548  23173642.750 7
  23173650.754 7
 16  1  1  1 47 30.0000000  0  8G16G20G26G29G05G31G21G25
 120842378.416 7  94162900.71148                  22995542.57048  22995540.250 7

 122200850.312 7  95221458.00247                  23254048.91847  23254045.203 7

 111023229.099 9  86511640.78249                  21127022.01249  21127015.172 9
  21127022.316 9
 110167811.857 9  85845066.83349                  20964236.69149  20964232.852 9
  20964237.031 9
 126716936.316 6  98740483.64046                  24113433.25046  24113429.242 6
  24113433.160 5
 114445198.041 9  89178080.94149                  21778202.25449  21778198.477 9
  21778203.211 9
 113483030.692 9  88428350.31449                  21595102.27349  21595099.070 9

 121873169.174 7  94966144.60748                  23191696.95348  23191689.664 7
  23191697.801 7
 16  1  1  1 48  0.0000000  0  8G16G20G26G29G05G31G21G25
 120750694.273 7  94091458.53248                  22978095.75848  22978093.109 7

 122137816.215 7  95172340.54847                  23242052.73047  23242049.836 7

 110964694.845 9  86466029.67949                  21115883.14149  21115876.273 9
  21115883.461 9
 110225703.808 9  85890177.44849                  20975252.75849  20975249.383 9
  20975253.340 9
 126726775.525 6  98748150.54346                  24115304.23046  24115300.867 6
  24115305.340 5
 114511662.069 9  89229871.10149                  21790850.09849  21790846.086 9
  21790850.875 8
 113432440.455 9  88388929.38749                  21585475.35949  21585472.094 9

 121968215.707 7  95040206.82448                  23209783.44948  23209776.664 7
  23209784.617 7
 16  1  1  1 48 30.0000000  0  8G16G20G26G29G05G31G21G25
 120659161.899 7  94020134.59748                  22960678.21148  22960675.023 7

 122075174.321 7  95123528.72047                  23230133.04347  23230129.258 7

 110906503.092 9  86420685.46949                  21104809.75049  21104803.023 9
  21104809.922 9
 110283853.036 9  85935488.52949                  20986318.39849  20986315.242 9
  20986318.797 9
 126737184.642 6  98756261.54746                  24117284.65646  24117282.094 6
  24117285.605 5
 114578568.315 9  89282005.82049                  21803582.14549  21803578.109 9
  21803582.961 8
 113382264.197 9  88349831.03249                  21575927.09449  21575923.914 9

 122063471.599 7  95114432.16648                  23227910.55948  23227902.953 7
  23227911.430 7
 16  1  1  1 49  0.0000000  0  8G16G20G26G29G05G31G21G25
 120567782.835 8  93948930.15448                  22943289.08248  22943286.461 8

 122012927.507 7  95075024.74247                  23218286.87147  23218283.492 7

 110848655.727 9  86375609.59249                  21093801.33649  21093795.094 9
  21093801.633 9
 110342258.089 9  85980998.95849                  20997432.87549  20997429.289 9
  20997433.496 9
 126748163.683 6  98764816.62346                  24119373.82446  24119371.406 6
  24119375.422 5
 114645914.606 9  89334483.42349                  21816397.29349  21816393.375 9
  21816398.063 8
 113332502.714 9  88311055.89149                  21566457.77349  21566454.438 9

 122158935.731 7  95188819.77348                  23246076.28148  23246069.328 7
  23246077.516 7
 16  1  1  1 49 30.0000000  0  8G16G20G26G29G05G31G21G25
 120476558.969 7  93877846.61847                  22925928.47347  22925926.656 7

 121951078.443 7  95026830.71547                  23206517.84847  23206514.461 7

 110791154.589 9  86330803.51849                  21082859.55149  21082853.023 9
  21082859.957 9
 110400917.725 9  86026707.76649                  21008595.25049  21008591.734 9
  21008595.613 9
 126759712.462 6  98773815.66146                  24121572.25846  24121569.695 6
  24121572.938 5
 114713698.753 9  89387302.22649                  21829296.22349  21829292.641 9
  21829296.918 8
 113283157.493 9  88272605.09849                  21557067.75849  21557064.477 9

 122254606.939 7  95263368.76548                  23264281.50448  23264275.531 7
  23264282.930 7
 16  1  1  1 50  0.0000000  0  8G16G20G26G29G05G31G21G25
 120385491.995 8  93806885.34048                  22908600.50448  22908597.609 8

 121889629.595 7  94978948.53947                  23194825.03947  23194821.383 7

 110734001.442 9  86286268.60149                  21071983.57449  21071977.156 9
  21071983.785 9
 110459830.604 9  86072613.90549                  21019806.21149  21019802.359 9
  21019806.734 9
 126771830.878 6  98783258.59146                  24123878.53946  24123875.297 6
  24123879.012 6
 114781918.529 9  89440460.48949                  21842278.14549  21842274.578 9
  21842279.039 8
 113234228.331 9  88234478.50949                  21547756.30549  21547753.383 9

 122350483.899 7  95338078.08848                  23282526.53948  23282520.008 7
  23282528.078 7
 16  1  1  1 50 30.0000000  0  8G16G20G26G29G05G31G21G25
 120294583.199 8  93736047.33148                  22891300.26648  22891297.859 8

 121828583.167 7  94931379.93147                  23183207.96947  23183205.031 7

 110677197.719 9  86242005.95549                  21061174.12549  21061167.539 9
  21061174.328 9
 110518994.415 9  86118715.57149                  21031064.66849  21031060.977 9
  21031065.254 9
 126784518.324 6  98793144.90346                  24126293.14546  24126289.398 6
  24126293.113 6
 114850571.316 9  89493956.16049                  21855342.19549  21855338.469 9
  21855343.230 8
 113185716.520 9  88196677.13049                  21538525.25049  21538521.930 9

 122446565.043 7  95412946.49148                  23300810.86348  23300803.211 7
  23300811.695 7
 16  1  1  1 51  0.0000000  0  8G16G20G26G29G05G31G21G25
 120203835.354 8  93665334.71048                  22874031.62548  22874029.383 8

 121767943.035 7  94884127.91547                  23171667.87547  23171664.734 7

 110620746.406 9  86198017.92249                  21050432.35249  21050425.320 9
  21050432.480 9
 110578410.479 9  86165013.80649                  21042371.15249  21042367.469 9
  21042371.688 9
 126797776.115 6  98803475.62646                  24128816.15246  24128811.852 6
  24128816.047 5
 114919655.738 9  89547788.16349                  21868488.69149  21868484.719 9
  21868489.707 8
 113137623.698 9  88159202.24049                  21529373.45349  21529370.445 9

 122542850.292 7  95487973.92448                  23319133.47748  23319125.828 7
  23319133.984 7
 16  1  1  1 51 30.0000000  0  8G16G20G26G29G05G31G21G25
 120113249.518 8  93594748.34348                  22856794.09048  22856791.445 8

 121707710.851 7  94837193.78547                  23160205.96947  23160203.422 7

 110564648.425 9  86154305.21149                  21039757.12949  21039750.352 9
  21039757.266 9
 110638075.960 9  86211506.38249                  21053725.24649  21053721.531 9
  21053725.664 9
 126811603.328 6  98814250.10046                  24131447.14146  24131443.766 6
  24131447.094 5
 114989168.827 9  89601954.20349                  21881716.69949  21881712.977 9
  21881717.805 9
 113089949.723 9  88122053.71749                  21520301.33649  21520298.445 9

 122639337.555 7  95563158.81148                  23337493.73848  23337487.180 7
  23337495.000 7
 16  1  1  1 52  0.0000000  0  8G16G20G26G29G05G31G21G25
 120022827.211 8  93524289.40648                  22839587.52748  22839584.820 8

 121647889.255 7  94790579.57047                  23148822.13747  23148819.188 7

 110508905.509 9  86110869.18149                  21029149.32049  21029142.656 9
  21029149.574 9
 110697988.823 9  86258191.73049                  21065125.99249  21065122.484 9
  21065126.484 9
 126825999.322 6  98825467.79546                  24134185.46946  24134182.828 6
  24134186.816 5
 115059108.121 9  89656452.34449                  21895025.87149  21895022.094 9
  21895026.805 9
 113042695.049 9  88085231.91449                  21511309.18849  21511306.031 9

 122736025.463 7  95638500.05548                  23355892.93848  23355886.148 7
  23355893.684 7
 16  1  1  1 52 30.0000000  0  8G16G20G26G29G05G31G21G25
 119932570.967 8  93453959.86848                  22822412.15248  22822409.594 8

 121588481.645 7  94744287.95147                  23137517.66847  23137514.672 7

 110453520.383 9  86067711.93849                  21018609.53549  21018603.047 9
  21018609.906 9
 110758149.861 9  86305070.45949                  21076574.39849  21076570.633 9
  21076575.199 9
 126840965.220 6  98837129.55146                  24137033.66046  24137030.992 6
  24137034.496 6
 115129471.923 9  89711281.27649                  21908415.28149  21908411.211 9
  21908416.082 8
 112995862.099 9  88048738.73449                  21502397.43849  21502393.609 9

 122832913.718 7  95713997.37648                  23374330.98448  23374323.078 7
  23374331.840 7
 16  1  1  1 53  0.0000000  0  8G16G20G26G29G05G31G21G25
 119842482.037 8  93383760.69848                  22805268.58248  22805266.016 8

 121529490.218 7  94698320.64247                  23126292.11747  23126288.594 7

 110398494.293 9  86024834.46849                  21008138.77749  21008132.219 9
  21008139.121 9
 110818556.581 9  86352140.62649                  21088069.63749  21088065.469 9
  21088070.113 9
 126856499.765 6  98849234.40946                  24139989.88746  24139987.281 6
  24139990.539 6
 115200257.725 9  89766439.04849                  21921885.26649  21921881.531 9
  21921886.547 9
 112949450.538 9  88012573.91949                  21493564.90249  21493561.680 9

 122930000.504 7  95789649.39248                  23392805.56348  23392798.219 7
  23392807.152 7
 16  1  1  1 53 30.0000000  0  8G16G20G26G29G05G31G21G25
 119752562.432 8  93313693.47748                  22788157.66048  22788154.984 8

 121470917.514 7  94652679.61447                  23115146.36347  23115142.367 7

 110343829.255 9  85982238.33849                  20997736.25449  20997729.492 9
  20997736.594 9
 110879207.962 9  86399401.44449                  21099610.78549  21099607.336 9
  21099611.445 9
 126872602.988 6  98861782.41747                  24143054.52047  24143051.359 6
  24143055.402 6
 115271463.319 9  89821923.90849                  21935435.57849  21935431.578 9
  21935436.477 8
 112903461.626 9  87976738.43449                  21484813.59849  21484810.766 9

 123027284.775 7  95865455.30947                  23411316.96547  23411311.273 7
  23411318.785 7
 16  1  1  1 54  0.0000000  0  8G16G20G26G29G05G31G21G25
 119662814.021 8  93243759.64848                  22771078.44948  22771076.352 8

 121412766.594 7  94607367.24547                  23104080.49247  23104076.477 7

 110289527.316 9  85939925.13749                  20987402.92249  20987396.391 9
  20987403.375 9
 110940103.499 9  86446852.51449                  21111199.19149  21111195.578 9
  21111199.719 9
 126889274.680 6  98874773.36447                  24146227.56647  24146223.422 6
  24146227.777 6
 115343086.492 9  89877734.13749                  21949065.29349  21949061.070 9
  21949065.988 8
 112857896.056 9  87941232.81649                  21476142.98849  21476139.750 9

 123124765.488 7  95941414.31147                  23429868.03547  23429860.617 7
  23429868.938 7
 16  1  1  1 54 30.0000000  0  8G16G20G26G29G05G31G21G25
 119573238.473 7  93173960.51748                  22754033.03548  22754030.625 7

 121355039.911 7  94562385.44847                  23093096.06347  23093091.789 7

 110235590.219 9  85897896.23549                  20977139.15249  20977132.570 9
  20977139.371 9
 111001241.539 9  86494492.53649                  21122833.37549  21122829.352 9
  21122833.867 9
 126906514.877 6  98888207.27446                  24149508.25446  24149505.242 6
  24149508.727 6
 115415124.573 9  89933867.68649                  21962773.40249  21962769.305 9
  21962774.023 8
 112812754.606 9  87906057.68449                  21467552.27749  21467549.305 9

 123222441.421 7  96017525.39148                  23448455.18048  23448447.570 7
  23448456.313 7
 16  1  1  1 55  0.0000000  0  8G16G20G26G29G05G31G21G25
 119483837.492 7  93104297.41648                  22737021.02048  22737018.148 7

 121297739.627 7  94517735.89047                  23082191.25047  23082188.008 7

 110182019.623 9  85856152.91349                  20966945.02049  20966938.359 9
  20966945.238 9
 111062620.388 9  86542320.20049                  21134513.41049  21134509.445 9
  21134513.902 9
 126924323.055 5  98902083.77946                  24152897.00046  24152892.883 5
  24152897.387 6
 115487575.057 9  89990322.57949                  21976560.14849  21976556.398 9
  21976560.930 8
 112768037.764 9  87871213.41849                  21459043.10549  21459040.180 9

 123320310.971 7  96093787.36947                  23467079.02747  23467072.195 7
  23467079.621 7
 16  1  1  1 55 30.0000000  0  8G16G20G26G29G05G31G21G25
 119394612.485 8  93034771.44348                  22720041.99648  22720039.266 8

 121240868.154 7  94473420.50547                  23071368.66447  23071365.516 7

 110128816.976 9  85814696.31249                  20956820.78149  20956814.250 9
  20956821.223 9
 111124238.475 9  86590334.29349                  21146238.60949  21146234.852 9
  21146239.309 9
 126942698.712 5  98916402.47446                  24156393.85246  24156389.547 5
  24156394.527 6
 115560435.575 9  90047096.98249                  21990424.94149  21990420.977 9
  21990425.844 8
 112723745.888 9  87836700.28449                  21450614.82849  21450611.703 9

 123418372.748 7  96170199.10947                  23485738.80547  23485732.219 7
  23485740.059 7
 16  1  1  1 56  0.0000000  0  8G16G20G26G29G05G31G21G25
 119305565.967 8  92965384.53848                  22703096.57048  22703094.609 8

 121184428.639 7  94429441.68247                  23060628.68847  23060625.938 7

 110075984.817 9  85773528.39749                  20946767.18449  20946760.656 9
  20946767.652 9
 111186095.824 9  86638534.82549                  21158009.59849  21158006.031 9
  21158010.000 9
 126961641.916 5  98931163.39946                  24159998.33646  24159994.461 5
  24159998.316 5
 115633704.107 9  90104189.32449                  22004367.96549  22004363.867 9
  22004368.746 8
 112679880.440 9  87802519.43549                  21442267.34049  21442264.359 9

 123516626.096 7  96246760.15647                  23504435.37147  23504429.250 7
  23504437.398 7
 16  1  1  1 56 30.0000000  0  8G16G20G26G29G05G31G21G25
 119216699.706 8  92896138.09048                  22686186.53948  22686183.883 8

 121128423.703 7  94385801.49847                  23049971.82447  23049968.242 7

 110023525.006 9  85732650.62549                  20936784.67649  20936777.859 9
  20936784.879 9
 111248191.157 9  86686920.79949                  21169825.93449  21169822.508 9
  21169826.563 9
 126981152.219 5  98946366.22946                  24163710.98846  24163706.844 5
  24163711.676 5
 115707378.345 9  90161597.80849                  22018387.92249  22018383.563 9
  22018388.625 8
 112636442.244 9  87768671.52149                  21434001.27049  21433998.242 9

 123615069.863 7  96323469.58247                  23523169.71147  23523162.477 7
  23523170.934 7
 16  1  1  1 57  0.0000000  0  8G16G20G26G29G05G31G21G25
 119128015.002 8  92827033.12548                  22669310.22748  22669307.641 8

 121072854.984 7  94342501.23047                  23039397.42647  23039394.109 7

 109971438.823 9  85692063.99649                  20926872.91049  20926866.000 9
  20926873.172 9
 111310522.409 9  86735490.60549                  21181687.58249  21181683.563 9
  21181688.160 9
 127001229.044 5  98962010.47246                  24167531.34046  24167526.922 5
  24167531.703 5
 115781455.525 9  90219320.28149                  22032484.28549  22032479.844 9
  22032485.004 8
 112593431.054 9  87735156.33949                  21425816.32849  21425813.852 9

 123713702.230 7  96400325.92148                  23541939.73848  23541931.875 7
  23541940.328 7
 16  1  1  1 57 30.0000000  0  9G16G20G26G29G05G31G18G21G25
 119039514.170 8  92758071.43848                  22652469.02748  22652466.406 8

 121017725.545 7  94299543.27448                  23028905.75448  23028903.070 7

 109919728.326 9  85651770.10549                  20917032.78949  20917025.938 9
  20917032.859 9
 111373088.789 9  86784243.62349                  21193593.36749  21193589.430 9
  21193593.945 9
 127021871.865 5  98978095.76546                  24171459.96946  24171455.797 5
  24171460.109 5
 115855933.385 9  90277354.96649                  22046656.84049  22046652.695 9
  22046657.621 8
 131511988.18816                                                  25025899.750 6

 112550848.155 9  87701974.89249                  21417713.13349  21417710.039 9

 123812522.153 7  96477328.42047                  23560743.70747  23560736.469 7
  23560744.465 7
 16  1  1  1 58  0.0000000  0  9G16G20G26G29G05G31G18G21G25
 118951198.928 8  92689254.35948                  22635663.10548  22635660.203 8

 120963038.336 7  94256929.88347                  23018499.63347  23018496.078 7

 109868395.478 9  85611770.48549                  20907264.14549  20907257.547 9
  20907264.566 9
 111435889.230 9  86833179.02849                  21205543.81349  21205539.930 9
  21205544.504 9
 127043080.461 5  98994621.95746                  24175495.46946  24175491.594 5
  24175495.871 6
 115930809.481 9  90335699.96249                  22060905.30949  22060900.781 9
  22060906.254 9
 131424086.686 7 102408403.52356                  25009177.73846  25009174.172 7

 112508694.278 9  87669127.74349                  21409691.68849  21409688.438 9

 123911528.522 7  96554476.23247                  23579583.65647  23579577.188 7
  23579584.816 7
 16  1  1  1 58 30.0000000  0  9G16G20G26G29G05G31G18G21G25
 118863071.010 8  92620583.25749                  22618893.12549  22618890.328 8

 120908795.396 7  94214662.70447                  23008177.56347  23008174.148 7

 109817441.969 9  85572066.45649                  20897568.40649  20897561.703 9
  20897568.613 9
 111498922.301 9  86882295.70049                  21217538.41449  21217534.836 9
  21217539.051 8
 127064854.371 5  99011588.58746                  24179639.15646  24179635.133 5
  24179639.930 6
 116006081.203 9  90394353.23949                  22075228.34449  22075224.766 9
  22075229.340 8
 131336129.095 4 102339865.20745                  24992439.41845  24992435.047 4

 112466969.741 9  87636615.14449                  21401751.69949  21401748.695 9

 124010720.097 7  96631768.36147                  23598459.40247  23598452.445 7
  23598461.016 7
 16  1  1  1 59  0.0000000  0  9G16G20G26G29G05G31G18G21G25
 118775132.260 8  92552059.53848                  22602159.19948  22602156.055 8

 120854998.916 7  94172743.40647                  22997940.37147  22997936.313 7

 109766869.573 9  85532659.39749                  20887944.63749  20887938.148 9
  20887944.926 9
 111562186.668 9  86931592.62149                  21229577.57449  21229574.086 9
  21229578.320 9
 127087192.749 6  99028995.15146                  24183890.09446  24183885.602 6
  24183890.980 6
 116081746.519 9  90453313.21749                  22089627.44549  22089623.219 9
  22089628.340 8
 131248118.177 5 102271285.15745                  24975690.86745  24975687.031 5

 112425675.253 9  87604437.66249                  21393893.73449  21393890.539 9

 124110095.383 7  96709203.61547                  23617370.13747  23617362.703 7
  23617370.910 7
 16  1  1  1 59 30.0000000  0  9G16G20G26G29G05G31G18G21G25
 118687384.690 8  92483684.82348                  22585461.05948  22585458.219 8

 120801651.808 7  94131174.27247                  22987788.30547  22987785.711 7

 109716680.281 9  85493550.85949                  20878393.79349  20878387.148 9
  20878394.254 9
 111625681.558 9  86981069.14649                  21241660.13749  21241656.234 9
  21241660.707 9
 127110095.551 6  99046841.53147                  24188248.51247  24188244.789 6
  24188249.066 6
 116157802.677 9  90512577.74349                  22104101.10949  22104096.609 9
  22104101.957 8
 131160056.420 5 102202665.65145                  24958934.07445  24958930.359 5

 112384811.684 9  87572595.95349                  21386117.62949  21386114.766 9

 124209653.270 7  96786781.17247                  23636315.95747  23636308.398 7
  23636316.371 7
 16  1  1  2  0  0.0000000  0  9G16G20G26G29G05G31G18G21G25
 118599830.341 8  92415460.65148                  22568800.19148  22568797.367 8

 120748756.442 7  94089957.13248                  22977722.76648  22977719.719 7

 109666876.105 9  85454742.41149                  20868916.18449  20868909.648 9
  20868916.746 9
 111689406.359 9  87030724.82949                  21253787.17249  21253782.977 9
  21253787.621 9
 127133562.499 6  99065127.45547                  24192713.90247  24192709.797 6
  24192714.609 6
 116234247.115 9  90572144.81549                  22118647.32049  22118643.547 9
  22118648.180 8
 131071946.601 6 102134008.76846                  24942167.01646  24942164.313 6

 112344379.800 9  87541090.61449                  21378423.71949  21378420.500 9

 124309392.794 7  96864500.26447                  23655294.83247  23655288.336 7
  23655296.250 7
 16  1  1  2  0 30.0000000  0  9G16G20G26G29G05G31G18G21G25
 118512470.769 8  92347388.25848                  22552175.46148  22552173.242 8

 120696314.787 7  94049093.52747                  22967743.16447  22967740.133 7

 109617458.441 9  85416235.14049                  20859512.35549  20859505.945 9
  20859513.070 9
 111753359.079 9  87080558.11949                  21265956.26249  21265952.844 9
  21265956.949 9
 127157592.569 6  99083852.21547                  24197287.05147  24197283.352 6
  24197287.523 6
 116311077.505 9  90632012.64649                  22133267.50849  22133263.609 9
  22133268.652 8
 130983790.596 5 102065315.60944                  24925389.42244  24925385.836 5

 112304379.726 9  87509921.75749                  21370811.65649  21370808.453 9

 124409312.284 7  96942359.59447                  23674308.74247  23674302.094 7
  23674310.512 7
 16  1  1  2  1  0.0000000  0  9G16G20G26G29G05G31G18G21G25
 118425307.807 8  92279469.07349                  22535589.65649  22535586.656 8

 120644329.623 8  94008585.63347                  22957851.27747  22957848.148 8

 109568429.148 9  85378030.49949                  20850182.49249  20850176.141 9
  20850182.754 9
 111817538.783 9  87130568.27349                  21278169.30949  21278165.680 9
  21278170.098 8
 127182185.241 6  99103015.32847                  24201966.25047  24201962.859 6
  24201967.172 6
 116388291.483 9  90692179.37249                  22147960.78549  22147957.094 9
  22147962.277 8
 130895590.995 6 101996588.71346                  24908608.05546  24908605.039 6

 112264811.923 9  87479089.73549                  21363282.01649  21363279.281 9

 124509410.545 7  97020358.22047                  23693357.60247  23693349.938 7
  23693359.102 7
 16  1  1  2  1 30.0000000  0  9G16G20G26G29G05G31G18G21G25
 118338343.309 8  92211704.53649                  22519040.24649  22519037.578 8

 120592803.185 7  93968435.20747                  22948046.27047  22948042.344 7

 109519790.092 9  85340129.94249                  20840926.56649  20840920.383 9
  20840927.270 9
 111881944.142 9  87180754.26749                  21290425.51249  21290421.867 9
  21290426.254 9
 127207340.028 6  99122616.46046                  24206753.35946  24206749.516 6
  24206753.734 6
 116465886.311 9  90752642.86049                  22162726.41049  22162722.922 9
  22162727.504 8
 130807350.444 6 101927829.73945                  24891815.57045  24891813.398 6

 112225677.181 9  87448595.16249                  21355835.00049  21355832.281 9

 124609686.261 7  97098495.14447                  23712439.09447  23712432.102 7
  23712439.930 7
 16  1  1  2  2  0.0000000  0  9G16G20G26G29G05G31G18G21G25
 118251579.292 8  92144096.22049                  22502529.96949  22502526.914 8

 120541738.154 7  93928644.30347                  22938329.10947  22938326.141 7

 109471543.232 9  85302534.98449                  20831745.61349  20831739.164 9
  20831746.109 9
 111946574.374 9  87231115.48449                  21302723.94949  21302720.055 9
  21302724.809 9
 127233056.319 6  99142655.13047                  24211646.60947  24211642.734 6
  24211646.773 6
 116543859.573 9  90813401.24749                  22177564.89149  22177560.758 9
  22177565.352 8
 130719071.357 6 101859040.89646                  24875018.02346  24875014.727 6

 112186976.213 9  87418438.59149                  21348470.71149  21348467.398 9

 124710138.362 7  97176769.50747                  23731554.14147  23731547.539 7
  23731555.352 7
 16  1  1  2  2 30.0000000  0  9G16G20G26G29G05G31G18G21G25
 118165017.284 8  92076645.31249                  22486058.10249  22486055.117 8

 120491136.670 7  93889214.61747                  22928699.60547  22928695.672 7

 109423690.127 9  85265246.85549                  20822639.26649  20822632.891 9
  20822639.563 9
 112011427.500 9  87281650.37749                  21315065.25849  21315061.406 9
  21315065.594 9
 127259333.304 7  99163130.67246                  24216647.05946  24216643.086 7
  24216647.465 6
 116622208.530 9  90874452.33749                  22192474.35949  22192470.133 9
  22192475.238 8
 130630756.053 4 101790223.89045                  24858212.27045  24858206.031 4

 112148709.169 9  87388620.14249                  21341188.54749  21341185.680 9

 124810765.329 6  97255180.15347                  23750702.52747  23750696.273 6
  23750704.094 7
 16  1  1  2  3  0.0000000  0 10G16G20G26G29G05G27G31G18G21G25
 118078659.958 8  92009353.89549                  22469624.57849  22469621.930 8

 120441001.108 7  93850147.98347                  22919158.93847  22919156.172 7

 109376232.772 9  85228267.11149                  20813609.00849  20813602.320 9
  20813609.406 9
 112076503.387 9  87332358.86549                  21327448.49249  21327444.914 9
  21327449.207 9
 127286170.175 7  99184042.54446                  24221753.66046  24221750.094 7
  24221754.074 5
                                                                  25124103.938 2

 116700931.115 9  90935794.57249                  22207454.25449  22207450.547 9
  22207455.250 8
 130542407.345 6 101721380.57745                  24841397.74245  24841394.563 6

 112110877.090 9  87359140.63249                  21333989.06649  21333985.984 9

 124911566.029 7  97333726.15047                  23769884.80147  23769878.281 7
  23769886.238 7
 16  1  1  2  3 30.0000000  0 10G16G20G26G29G05G27G31G18G21G25
 117992508.870 8  91942223.18249                  22453230.64549  22453227.266 8

 120391333.658 8  93811446.10247                  22909707.50447  22909704.156 8

 109329172.833 9  85191597.02449                  20804653.20349  20804646.773 9
  20804653.930 9
 112141800.394 9  87383239.65049                  21339874.69149  21339870.633 9
  21339875.582 9
 127313566.389 7  99205390.20746                  24226966.31646  24226964.281 7
  24226967.547 5
                                                                  25105905.031 3

 116780024.426 9  90997425.72249                  22222505.24649  22222501.797 9
  22222506.012 8
 130454027.666 6 101652513.39145                  24824581.13745  24824576.016 6

 112073480.067 9  87330000.12549                  21326872.75449  21326869.898 9

 125012538.994 6  97412406.35547                  23789099.35247  23789092.320 6
  23789100.625 7
 16  1  1  2  4  0.0000000  0 10G16G20G26G29G05G27G31G18G21G25
 117906565.580 8  91875254.38349                  22436875.82049  22436873.070 8

 120342136.642 8  93773110.78648                  22900345.54348  22900342.711 8

 109282511.894 9  85155237.85349                  20795774.04349  20795767.563 9
  20795774.270 9
 112207317.287 9  87434291.76349                  21352341.78149  21352337.844 9
  21352342.414 9
 127341521.086 6  99227173.09946                  24232286.52346  24232283.109 6
  24232287.539 5
 131836840.23813 102730027.70454                  25087724.44944  25087717.039 3
  25087724.777 4
 116859485.874 9  91059343.70649                  22237626.27349  22237622.602 9
  22237627.500 8
 130365619.151 6 101583623.58645                  24807757.69945  24807753.547 6

 112036518.148 9  87301198.65449                  21319839.45749  21319836.141 9

 125113682.874 6  97491219.74247                  23808346.55147  23808339.313 6
  23808347.301 7
 16  1  1  2  4 30.0000000  0 10G16G20G26G29G05G27G31G18G21G25
 117820832.166 8  91808449.14649                  22420561.53949  22420558.953 8

 120293412.581 8  93735144.00747                  22891074.24247  22891070.383 8

 109236251.854 9  85119191.07649                  20786970.99649  20786964.836 9
  20786971.563 9
 112273053.083 9  87485514.45749                  21364851.04749  21364847.273 9
  21364851.570 8
 127370033.779 6  99249390.76546                  24237711.93046  24237709.320 6
  24237712.441 5
 131741326.55115 102655601.45055                  25069548.75845  25069542.133 5
  25069550.313 6
 116939312.989 9  91121546.64649                  22252816.93849  22252813.148 9
  22252817.895 8
 130277184.346 4 101514713.47445                  24790929.67245  24790922.797 4

 111999992.192 9  87272736.89149                  21312888.28549  21312885.859 9

 125214996.464 7  97570165.40347                  23827625.27047  23827618.961 7
  23827625.883 7
 16  1  1  2  5  0.0000000  0 10G16G20G26G29G05G27G31G18G21G25
 117735310.878 8  91741809.19049                  22404287.25449  22404284.469 8

 120245163.916 8  93697547.68047                  22881892.08647  22881888.641 8

 109190394.978 9  85083458.45349                  20778245.11749  20778238.602 9
  20778245.355 9
 112339007.113 9  87536907.21749                  21377401.47749  21377397.742 9
  21377401.918 9
 127399103.919 6  99272042.80446                  24243244.35946  24243240.914 6
  24243244.813 6
 131645874.17115 102581223.04355                  25051385.21945  25051377.906 5
  25051385.992 6
 117019503.663 9  91184032.87549                  22268076.56649  22268072.977 9
  22268077.883 8
 130188726.159 6 101445785.08445                  24774096.03545  24774092.633 6

 111963903.516 9  87244615.86649                  21306020.86749  21306017.797 9

 125316478.846 6  97649242.57947                  23846938.08647  23846931.164 6
  23846938.840 7
 16  1  1  2  5 30.0000000  0 10G16G20G26G29G05G27G31G18G21G25
 117650003.370 8  91675335.82649                  22388053.90249  22388051.039 8

 120197392.672 7  93660323.36847                  22872801.11747  22872798.602 7

 109144942.496 9  85048040.94349                  20769595.51249  20769589.172 9
  20769596.164 9
 112405177.603 9  87588468.62749                  21389993.83649  21389989.633 9
  21389994.238 8
 127428730.338 6  99295128.32646                  24248881.60946  24248878.305 6
  24248882.461 6
 131550483.126 5 102506892.35345                  25033233.08245  25033225.109 5
  25033232.586 6
 117100054.769 9  91246799.98949                  22283404.71949  22283401.242 9
  22283405.918 8
 130100246.772 6 101376840.03745                  24757257.90645  24757255.477 6

 111928251.696 9  87216835.25749                  21299236.51249  21299233.570 9

 125418128.238 7  97728449.87847                  23866281.23447  23866273.398 7
  23866282.082 7
 16  1  1  2  6  0.0000000  0 10G16G20G26G29G05G27G31G18G21G25
 117564911.434 8  91609030.42449                  22371861.39149  22371858.711 8

 120150100.830 7  93623472.59847                  22863802.14547  22863799.445 7

 109099896.203 9  85012939.94249                  20761023.90249  20761017.117 9
  20761024.211 9
 112471563.427 9  87640197.83249                  21402626.42249  21402622.234 9
  21402626.598 8
 127458912.552 6  99318646.91446                  24254624.96146  24254621.883 6
  24254626.523 6
 131455154.194 5 102432610.13445                  25015091.34445  25015084.945 5
  25015092.641 5
 117180963.941 9  91309846.10549                  22298801.57449  22298797.828 9
  22298802.742 8
 130011748.819 6 101307880.61545                  24740418.27345  24740414.570 6

 111893037.237 9  87189395.45149                  21292535.52749  21292532.547 9

 125519943.327 7  97807786.26747                  23885654.66447  23885648.164 7
  23885655.695 7
 16  1  1  2  6 30.0000000  0 10G16G20G26G29G05G27G31G18G21G25
 117480037.225 8  91542894.68749                  22355710.27749  22355707.969 8

 120103291.013 7  93586997.45047                  22854894.74247  22854891.836 7

 109055258.147 9  84978157.04749                  20752529.60249  20752522.734 9
  20752529.871 9
 112538163.958 9  87692094.35649                  21415299.50449  21415296.172 9
  21415300.188 8
 127489649.593 6  99342597.85847                  24260474.21147  24260471.367 6
  24260474.723 6
 131359888.12113 102358376.88655                  24996962.98445  24996955.227 3
  24996964.066 5
 117262228.562 9  91373169.19349                  22314266.02349  22314261.859 9
  22314266.969 8
 129923234.703 7 101238908.50246                  24723574.66046  24723573.055 7

 111858260.707 9  87162296.89149                  21285917.99649  21285914.586 9

 125621923.086 7  97887251.03147                  23905061.13347  23905055.352 7
  23905062.426 7
 16  1  1  2  7  0.0000000  0 10G16G20G26G29G05G27G31G18G21G25
 117395382.638 8  91476930.08349                  22339600.89549  22339598.422 8

 120056965.519 7  93550899.69547                  22846079.64147  22846076.375 7

 109011029.973 9  84943693.53349                  20744113.12949  20744106.313 9
  20744113.258 9
 112604977.869 9  87744157.14649                  21428014.08649  21428010.500 9
  21428014.992 8
 127520940.468 6  99366980.36946                  24266429.07046  24266425.469 6
  24266429.902 6
 131264685.485 4 102284193.06045                  24978846.25445  24978839.344 4
  24978847.375 6
 117343846.097 9  91436767.27049                  22329797.22749  22329793.063 9
  22329798.043 8
 129834707.048 6 101169925.88745                  24706728.68845  24706723.438 6

 111823922.489 9  87135539.86749                  21279383.30949  21279380.477 9

 125724066.113 6  97966843.00747                  23924498.87547  23924491.203 6
  23924499.520 7
 16  1  1  2  7 30.0000000  0 10G16G20G26G29G05G27G31G18G21G25
 117310949.449 8  91411138.00049                  22323534.41449  22323531.344 8

 120011126.068 7  93515180.66047                  22837356.18047  22837353.109 7

 108967213.135 9  84909550.55149                  20735774.96949  20735768.336 9
  20735775.387 9
 112672003.924 9  87796385.23849                  21440769.08649  21440764.867 9
  21440769.773 8
 127552784.367 6  99391793.80646                  24272489.62946  24272484.820 6
  24272489.883 6
 131169546.489 5 102210058.88045                  24960742.20745  24960735.242 5
  24960743.371 6
 117425813.662 9  91500638.08249                  22345395.03949  22345391.133 9
  22345395.867 8
 129746168.039 6 101100934.41345                  24689879.46945  24689875.922 6

 111790022.132 9  87109124.03349                  21272932.42249  21272929.453 9

 125826370.812 7  98046560.91547                  23943967.69947  23943959.711 7
  23943968.332 7
 16  1  1  2  8  0.0000000  0 10G16G20G26G29G05G27G31G18G21G25
 117226739.608 9  91345519.94149                  22307510.08649  22307506.234 9

 119965775.047 7  93479842.23247                  22828726.04347  22828723.172 7

 108923809.686 9  84875729.68449                  20727515.48849  20727508.883 9
  20727516.117 9
 112739241.182 9  87848777.89849                  21453563.92649  21453559.594 9
  21453564.219 9
 127585180.527 6  99417037.54346                  24278653.90646  24278650.477 6
  24278654.430 6
 131074472.164 5 102135975.01546                  24942650.71546  24942643.133 5
  24942651.289 6
 117508128.800 9  91564779.74749                  22361059.11749  22361055.391 9
  22361060.129 8
 129657620.557 6 101031936.43845                  24673028.99645  24673027.688 6

 111756560.726 9  87083050.25149                  21266564.62949  21266561.930 9

 125928836.112 7  98126403.99947                  23963465.32047  23963457.891 7
  23963466.223 7
 16  1  1  2  8 30.0000000  0 10G16G20G26G29G05G27G31G18G21G25
 117142755.400 9  91280077.71149                  22291528.01249  22291524.969 9

 119920914.803 7  93444886.21147                  22820189.05947  22820185.867 7

 108880821.380 9  84842232.30949                  20719334.97349  20719328.703 9
  20719335.211 9
 112806688.297 9  87901334.08749                  21466398.42249  21466394.500 9
  21466398.957 9
 127618127.826 6  99442710.74047                  24284923.37547  24284919.742 6
  24284923.492 6
 130979462.828 5 102061941.82046                  24924570.46546  24924563.289 5
  24924571.273 6
 117590789.077 9  91629190.35649                  22376788.87149  22376784.938 9
  22376789.828 8
 129569067.569 6 100962934.05745                  24656177.80545  24656176.469 6

 111723539.237 9  87057319.25149                  21260281.02749  21260278.117 9

 126031460.664 7  98206371.22447                  23982992.86747  23982986.734 7
  23982994.648 6
 16  1  1  2  9  0.0000000  0 10G16G20G26G29G05G27G31G18G21G25
 117058998.518 9  91214812.61149                  22275589.23849  22275586.563 9

 119876547.385 7  93410314.22447                  22811746.23047  22811743.656 7

 108838249.860 9  84809059.70749                  20711233.83649  20711227.453 9
  20711234.301 9
 112874344.472 9  87954053.18949                  21479272.43049  21479269.172 9
  21479273.383 8
 127651625.576 6  99468812.84646                  24291297.59046  24291294.305 6
  24291298.559 6
 130884519.155 5 101987959.84046                  24906502.73846  24906496.047 5
  24906503.590 6
 117673791.704 9  91693867.70949                  22392583.84449  22392579.844 9
  22392584.684 8
 129480510.900 6 100893928.93145                  24639325.33645  24639324.484 6

 111690957.354 9  87031930.80249                  21254080.82849  21254077.992 9

 126134243.141 7  98286461.46546                  24002552.35246  24002545.664 7
  24002554.164 6
 16  1  1  2  9 30.0000000  0 10G16G20G26G29G05G27G31G18G21G25
 116975470.928 8  91149726.19949                  22259694.30549  22259691.484 8

 119832674.697 7  93376127.73047                  22803397.69947  22803393.734 7

 108796096.662 9  84776213.05949                  20703212.53549  20703205.836 9
  20703212.836 9
 112942208.357 9  88006934.13749                  21492186.59049  21492183.086 9
  21492187.391 8
 127685672.616 6  99495343.00246                  24297776.69946  24297773.789 6
  24297777.457 6
 130789641.593 5 101914029.30146                  24888449.13346  24888440.906 5
  24888449.547 6
 117757133.805 9  91758809.61649                  22408443.09049  22408439.320 9
  22408443.906 8
 129391953.160 5 100824922.67745                  24622473.93045  24622469.461 5

 111658815.200 9  87006885.00249                  21247964.51249  21247961.555 9

 126237181.928 7  98366673.49847                  24022141.33647  24022134.313 7
  24022142.688 7
 16  1  1  2 10  0.0000000  0 10G16G20G26G29G05G27G31G18G21G25
 116892174.779 8  91084820.11549                  22243843.66849  22243841.148 8

 119789299.151 8  93342328.62747                  22795142.98047  22795140.375 8

 108754363.621 9  84743693.81349                  20695270.81649  20695264.227 9
  20695271.168 9
 113010278.500 9  88059975.80649                  21505140.36349  21505136.727 9
  21505140.848 9
 127720268.014 6  99522300.42946                  24304359.97346  24304357.313 6
  24304360.109 6
 130694830.791 5 101840150.82646                  24870406.59046  24870399.000 5
  24870407.844 6
 117840813.017 9  91824014.20149                  22424366.88749  22424363.023 9
  22424367.570 8
 129303396.713 5 100755917.69445                  24605623.54345  24605618.391 5

 111627113.274 9  86982182.23849                  21241931.42249  21241928.820 9

 126340275.828 7  98447006.40447                  24041759.84447  24041752.969 7
  24041760.563 7
 16  1  1  2 10 30.0000000  0 10G16G20G26G29G05G27G31G18G21G25
 116809111.946 9  91020095.84249                  22228037.22749  22228034.734 9

 119746423.021 7  93308918.67247                  22786984.78547  22786981.563 7

 108713052.722 9  84711503.51049                  20687409.46149  20687403.609 9
  20687409.766 9
 113078554.659 9  88113178.00949                  21518132.96949  21518129.086 9
  21518133.324 9
 127755410.651 6  99549684.30547                  24311047.50847  24311044.555 6
  24311048.438 6
 130600087.501 6 101766324.95846                  24852377.01646  24852370.641 6
  24852378.246 5
 117924826.826 9  91889479.50749                  22440353.75049  22440350.258 9
  22440355.230 8
 129214844.927 6 100686916.30146                  24588772.82046  24588769.320 6

 111595852.183 9  86957822.97449                  21235983.09849  21235979.969 9

 126443523.745 7  98527459.35247                  24061405.96147  24061399.625 7
  24061407.918 6
 16  1  1  2 11  0.0000000  0 10G16G20G26G29G05G27G31G18G21G25
 116726284.172 9  90955554.73149                  22212276.16449  22212273.633 9

 119704047.931 7  93275899.12248                  22778920.99648  22778917.805 7

 108672165.357 9  84679643.21849                  20679629.34849  20679622.406 9
  20679629.699 9
 113147035.265 9  88166539.51549                  21531164.21149  21531160.055 9
  21531164.652 8
 127791099.535 6  99577493.79746                  24317838.62946  24317836.023 6
  24317839.375 6
 130505412.089 6 101692551.88546                  24834360.96546  24834354.406 6
  24834362.379 6
 118009172.150 9  91955203.14349                  22456404.45349  22456400.930 9
  22456405.422 8
 129126299.653 5 100617920.02445                  24571923.23445  24571918.625 5

 111565031.560 9  86933806.94349                  21230117.75849  21230115.117 9

 126546924.003 7  98608030.99346                  24081082.56646  24081076.180 7
  24081084.242 7
 16  1  1  2 11 30.0000000  0 10G16G20G26G29G05G27G31G18G21G25
 116643693.829 9  90891198.62649                  22196559.25449  22196556.586 9

 119662176.218 8  93243271.84748                  22770953.16048  22770949.664 8

 108631703.520 9  84648114.52749                  20671929.28949  20671923.047 9
  20671929.738 9
 113215719.724 9  88220059.86849                  21544234.70749  21544230.969 9
  21544235.484 9
 127827333.667 6  99605728.22546                  24324734.11746  24324730.281 6
  24324734.813 6
 130410805.467 5 101618832.56746                  24816358.30146  24816351.227 5
  24816358.793 6
 118093846.827 9  92021183.40849                  22472517.33649  22472513.672 9
  22472518.402 8
 129037763.967 5 100548931.17945                  24555073.90245  24555068.945 5

 111534652.404 9  86910134.90749                  21224336.69949  21224334.156 9

 126650475.563 7  98688720.52947                  24100788.11347  24100781.680 7
  24100789.750 7
 16  1  1  2 12  0.0000000  0 10G16G20G26G29G05G27G31G18G21G25
 116561342.728 9  90827028.94149                  22180888.70749  22180885.813 9

 119620809.611 8  93211038.13947                  22763081.25847  22763078.508 8

 108591668.709 9  84616918.57149                  20664310.99249  20664304.445 9
  20664311.488 9
 113284606.484 9  88273737.86349                  21557342.85549  21557339.383 9
  21557343.395 8
 127864112.164 6  99634386.76346                  24331733.27046  24331729.547 6
  24331733.707 6
 130316267.948 6 101545167.05246                  24798367.58646  24798361.266 6
  24798368.043 6
 118178847.826 9  92087417.91949                  22488692.48849  22488688.891 9
  22488693.711 8
 128949239.910 6 100479951.35645                  24538228.37945  24538225.031 6

 111504714.489 9  86886806.69049                  21218639.62549  21218636.688 9

 126754176.816 6  98769526.68847                  24120522.58647  24120514.938 6
  24120523.652 7
 16  1  1  2 12 30.0000000  0 10G16G20G26G29G05G27G31G18G21G25
 116479232.831 9  90763047.21349                  22165263.22349  22165260.242 9

 119579950.363 8  93179199.78748                  22755305.89548  22755302.219 8

 108552062.573 9  84586056.64949                  20656774.40249  20656767.719 9
  20656774.809 9
 113353694.704 9  88327572.84249                  21570489.89149  21570486.141 9
  21570490.391 8
 127901433.494 6  99663468.28446                  24338835.06646  24338831.648 6
  24338835.332 6
 130221800.115 6 101471555.79646                  24780391.57046  24780384.734 6
  24780391.945 6
 118264172.561 9  92153904.71649                  22504929.32449  22504925.383 9
  22504930.371 8
 128860730.248 6 100410982.79446                  24521386.07846  24521383.008 6

 111475217.996 9  86863822.44249                  21213026.78149  21213023.758 9

 126858026.463 7  98850448.45946                  24140283.67646  24140276.758 7
  24140284.855 6
 16  1  1  2 13  0.0000000  0 10G16G20G26G29G05G27G31G18G21G25
 116397366.078 9  90699254.94149                  22149684.53149  22149681.867 9

 119539600.466 8  93147758.32948                  22747627.46548  22747624.516 8

 108512886.838 9  84555530.11249                  20649319.32449  20649313.141 9
  20649319.762 9
 113422982.810 9  88381563.57249                  21583675.39549  21583671.664 9
  21583676.063 8
 127939297.194 6  99692972.46546                  24346040.35946  24346036.898 6
  24346040.645 6
 130127402.558 5 101397999.28146                  24762428.46146  24762420.625 5
  24762428.730 6
 118349818.195 9  92220641.57549                  22521227.13749  22521223.586 9
  22521228.355 8
 128772237.511 6 100342027.50846                  24504548.27046  24504544.320 6

 111446163.498 9  86841182.60549                  21207497.42649  21207495.063 9

 126962023.057 7  98931484.80547                  24160073.29347  24160067.422 7
  24160074.797 6
 16  1  1  2 13 30.0000000  0 10G16G20G26G29G05G27G31G18G21G25
 116315744.510 9  90635653.72949                  22134152.52049  22134149.906 9

 119499762.247 7  93116715.58047                  22740046.50047  22740043.547 7

 108474143.093 9  84525340.18249                  20641946.57049  20641940.117 9
  20641947.250 9
 113492470.373 9  88435709.73149                  21596898.69549  21596894.781 9
  21596899.414 8
 127977701.616 7  99722897.95046                  24353347.70746  24353344.531 7
  24353347.801 5
 130033075.803 5 101324497.89946                  24744478.62546  24744472.117 5
  24744479.301 6
 118435782.049 9  92287626.40049                  22537585.63749  22537581.820 9
  22537586.578 8
 128683764.124 6 100273087.26346                  24487712.03146  24487707.914 6

 111417550.696 9  86818886.94749                  21202052.98049  21202050.047 9

 127066165.180 7  99012634.52147                  24179891.33247  24179884.891 7
  24179892.664 6
 16  1  1  2 14  0.0000000  0 10G16G20G26G29G05G27G31G18G21G25
 116234370.145 9  90572245.14749                  22118667.79349  22118664.813 9

 119460437.031 7  93086072.56547                  22732562.64847  22732560.117 7

 108435833.210 9  84495488.33649                  20634656.59449  20634650.125 9
  20634657.031 9
 113562156.249 9  88490010.41049                  21610159.53549  21610155.391 9
  21610160.133 8
 128016645.458 6  99753243.80446                  24360758.23046  24360755.078 6
  24360758.898 5
 129938820.782 6 101251052.55046                  24726542.84446  24726535.758 6
  24726543.051 6
 118522061.542 9  92354857.18249                  22554004.14549  22554000.289 9
  22554004.965 8
 128595313.121 6 100204164.46446                  24470879.32846  24470875.648 6

 111389380.296 9  86796936.01749                  21196691.91449  21196689.266 9

 127170451.731 6  99093896.72847                  24199736.84847  24199729.438 6
  24199738.109 7
 16  1  1  2 14 30.0000000  0 10G16G20G26G29G05G27G31G18G21G25
 116153245.012 9  90509030.76249                  22103230.07049  22103227.789 9

 119421626.975 8  93055830.97447                  22725177.41047  22725174.961 8

 108397958.815 9  84465975.82149                  20627449.09449  20627442.930 9
  20627449.520 9
 113632039.342 9  88544464.76749                  21623456.98049  21623453.641 9
  21623457.848 8
 128056127.934 6  99784009.36446                  24368271.36346  24368269.148 6
  24368271.977 6
 129844637.833 5 101177663.31746                  24708619.94546  24708612.859 5
  24708620.465 6
 118608654.142 8  92422331.94549                  22570482.18849  22570478.398 8
  22570483.082 8
 128506886.805 5 100135260.79045                  24454050.83245  24454046.852 5

 111361652.380 9  86775329.87449                  21191415.84049  21191412.961 9

 127274881.237 7  99175270.35046                  24219609.50046  24219601.734 7
  24219610.070 6
 16  1  1  2 15  0.0000000  0 10G16G20G26G29G05G27G31G18G21G25
 116072371.274 9  90446012.27749                  22087840.57849  22087837.656 9

 119383334.308 8  93025992.55547                  22717890.89847  22717888.445 8

 108360521.519 9  84436803.89849                  20620325.25049  20620318.531 9
  20620325.660 9
 113702118.330 9  88599071.77649                  21636793.14149  21636789.250 9
  21636793.676 8
 128096147.657 6  99815193.57246                  24375887.16046  24375884.578 6
  24375887.836 6
 129750527.456 5 101104330.61146                  24690711.70746  24690704.898 5
  24690712.008 6
 118695557.064 9  92490048.53249                  22587018.85949  22587015.398 9
  22587019.820 8
 128418487.726 6 100066378.47146                  24437229.43046  24437227.188 6

 111334367.130 9  86754068.67349                  21186223.64149  21186220.906 9

 127379452.226 6  99256754.23746                  24239508.08246  24239500.719 6
  24239508.773 6
 16  1  1  2 15 30.0000000  0 10G16G20G26G29G05G27G31G18G21G25
 115991750.779 9  90383191.12249                  22072499.28549  22072496.156 9

 119345560.714 8  92996558.59048                  22710702.70748  22710699.891 8

 108323522.893 9  84407973.81449                  20613284.45749  20613278.328 9
  20613284.957 9
 113772392.604 9  88653830.95249                  21650165.98849  21650162.023 9
  21650166.164 8
 128136703.673 6  99846795.65447                  24383604.28147  24383602.281 6
  24383605.648 5
 129656490.366 6 101031054.99046                  24672816.59846  24672810.508 6
  24672817.121 6
 118782767.223 8  92558004.52149                  22603614.62549  22603610.930 8
  22603615.465 8
 128330118.448 6  99997519.37546                  24420414.95746  24420410.094 6

 111307524.517 9  86733152.37949                  21181115.33649  21181112.797 9

 127484163.334 6  99338347.30046                  24259434.06346  24259426.359 6
  24259435.313 6
 16  1  1  2 16  0.0000000  0 10G16G20G26G29G05G27G31G18G21G25
 115911385.399 9  90320568.75649                  22057205.82849  22057202.984 9

 119308307.948 8  92967530.47847                  22703614.51647  22703610.406 8

 108286964.574 9  84379486.80449                  20606327.62549  20606321.313 9
  20606328.043 9
 113842860.832 9  88708741.25449                  21663575.44149  21663571.680 9
  21663576.012 8
 128177794.389 6  99878814.36546                  24391424.28946  24391421.477 6
  24391424.949 6
 129562527.045 6 100957836.81646                  24654935.41846  24654928.953 6
  24654936.371 6
 118870282.169 8  92626198.00349                  22620268.20349  22620264.422 8
  22620269.164 8
 128241781.527 6  99928685.47946                  24403605.18846  24403600.539 6

 111281124.387 9  86712580.88149                  21176091.73849  21176089.078 9

 127589013.153 6  99420048.40946                  24279386.88746  24279379.617 6
  24279387.816 6
 16  1  1  2 16 30.0000000  0 10G16G20G26G29G05G27G31G18G21G25
 115831277.469 9  90258146.99549                  22041960.89549  22041958.625 9

 119271577.993 8  92938909.76948                  22696625.25048  22696621.336 8

 108250848.350 9  84351344.30549                  20599455.07449  20599448.703 9
  20599455.453 9
 113913521.770 9  88763801.72649                  21677021.94149  21677018.070 9
  21677022.496 8
 128219418.636 7  99911248.84747                  24399345.37947  24399342.289 7
  24399345.945 6
 129468638.217 5 100884676.72546                  24637069.35246  24637062.016 5
  24637069.941 6
 118958099.406 8  92694627.03149                  22636979.18049  22636975.531 8
  22636979.891 8
 128153479.625 5  99859878.83845                  24386800.21145  24386796.273 5

 111255167.704 9  86692354.93049                  21171152.46149  21171149.484 9

 127694000.505 6  99501856.74746                  24299364.95746  24299358.336 6
  24299366.000 6
 16  1  1  2 17  0.0000000  0 10G16G20G26G29G05G27G31G18G21G25
 115751428.924 9  90195927.36149                  22026766.89849  22026764.078 9

 119235372.859 8  92910698.01047                  22689735.64547  22689731.648 8

 108215175.765 9  84323547.48349                  20592666.76649  20592660.633 9
  20592667.238 9
 113984374.879 9  88819011.93049                  21690504.57049  21690500.852 9
  21690505.023 8
 128261575.152 6  99944098.05547                  24407368.07047  24407364.414 6
  24407368.648 6
 129374824.344 5 100811574.99946                  24619217.07846  24619209.984 5
  24619218.125 7
 119046215.900 8  92763289.24249                  22653747.39149  22653743.172 8
  22653748.301 8
 128065215.354 6  99791101.53246                  24370004.27746  24370000.813 6

 111229653.957 9  86672474.12049                  21166297.59449  21166294.461 9

 127799123.783 6  99583771.02746                  24319368.71146  24319361.586 6
  24319369.781 6
 16  1  1  2 17 30.0000000  0 10G16G20G26G29G05G27G31G18G21G25
 115671841.290 9  90133911.02849                  22011621.87149  22011619.125 9

 119199694.139 7  92882896.42947                  22682945.31647  22682942.016 7

 108179948.403 9  84296097.59449                  20585963.58249  20585956.859 9
  20585964.035 9
 114055419.201 9  88874371.14449                  21704023.73849  21704020.203 9
  21704024.320 8
 128304262.897 6  99977361.19546                  24415490.85946  24415487.391 6
  24415491.648 6
 129281086.036 6 100738532.18146                  24601380.07046  24601372.383 6
  24601380.309 6
 119134629.006 8  92832182.58049                  22670571.48049  22670568.016 8
  22670572.508 8
 127976991.193 6  99722355.48346                  24353216.20746  24353211.906 6

 111204583.192 9  86652938.48649                  21161526.34049  21161523.820 9

 127904381.667 7  99665790.14546                  24339398.59046  24339391.828 7
  24339399.480 6
 16  1  1  2 18  0.0000000  0 10G16G20G26G29G05G27G31G18G21G25
 115592517.156 9  90072100.02449                  21996527.55949  21996524.492 9

 119164543.824 7  92855506.59848                  22676256.25848  22676253.055 7

 108145167.810 9  84268995.84049                  20579344.91449  20579338.258 9
  20579345.383 9
 114126653.275 9  88929878.21849                  21717579.10249  21717575.469 9
  21717579.508 8
 128347480.354 6 100011037.08446                  24423715.29346  24423710.922 6
  24423715.770 6
 129187423.891 6 100665548.70646                  24583556.23046  24583548.484 6
  24583556.953 7
 119223335.630 8  92901304.64549                  22687451.95349  22687448.063 8
  22687452.973 8
 127888809.915 6  99653642.89546                  24336436.92646  24336430.836 6

 111179955.738 9  86633748.29349                  21156839.86749  21156837.219 9

 128009772.671 6  99747913.06046                  24359454.25846  24359447.133 6
  24359455.570 6
 16  1  1  2 18 30.0000000  0 10G16G20G26G29G05G27G31G18G21G25
 115513458.752 9  90010496.08649                  21981482.85549  21981479.938 9

 119129923.533 7  92828529.76748                  22669668.35548  22669665.352 7

 108110835.765 9  84242243.59549                  20572811.50849  20572804.844 9
  20572812.133 9
 114198076.213 9  88985532.45349                  21731170.57449  21731166.852 9
  21731171.320 8
 128391226.059 6 100045124.56346                  24432039.40646  24432036.781 6
  24432040.207 6
 129093838.604 6 100592625.07946                  24565746.24646  24565740.906 6
  24565747.316 6
 119312333.338 8  92970653.52249                  22704387.50449  22704384.133 8
  22704388.547 7
 127800673.694 6  99584965.38546                  24319663.57846  24319659.758 6

 111155771.473 9  86614903.44649                  21152237.81349  21152235.125 9

 128115295.454 6  99830138.63646                  24379534.23446  24379527.727 6
  24379535.574 6
 16  1  1  2 19  0.0000000  0 10G16G20G26G29G05G27G31G18G21G25
 115434667.608 9  89949100.39849                  21966489.45349  21966486.375 9

 119095834.872 7  92801967.18748                  22663181.46948  22663178.344 7

 108076953.660 9  84215841.96349                  20566363.78549  20566357.430 9
  20566364.152 9
 114269687.151 9  89041333.18349                  21744797.84449  21744793.820 9
  21744798.156 8
 128435498.699 6 100079622.70746                  24440463.90646  24440461.164 6
  24440464.285 5
 129000330.648 6 100519761.77146                  24547952.31646  24547946.156 6
  24547953.285 6
 119401619.373 8  93040227.07849                  22721377.93449  22721374.258 8
  22721379.188 7
 127712585.293 6  99516325.04546                  24302900.27046  24302898.344 6

 111132030.571 9  86596404.07249                  21147719.80149  21147717.242 9

 128220948.698 6  99912465.81546                  24399639.32046  24399632.266 6
  24399639.906 6
 16  1  1  2 19 30.0000000  0 10G16G20G26G29G05G27G31G18G21G25
 115356145.916 9  89887914.67649                  21951547.09849  21951544.430 9

 119062280.160 7  92775820.67948                  22656796.40648  22656794.094 7

 108043523.231 9  84189792.28749                  20560002.27049  20559995.977 9
  20560002.801 9
 114341485.024 9  89097279.57049                  21758460.39549  21758456.617 9
  21758460.664 8
 128480297.221 6 100114530.66146                  24448988.61346  24448985.797 6
  24448989.352 5
 128906900.719 6 100446959.27746                  24530174.44946  24530166.195 6
  24530175.512 7
 119491190.885 8  93110023.06549                  22738423.27349  22738419.203 8
  22738424.301 8
 127624547.651 6  99447724.30646                  24286148.80146  24286142.914 6

 111108733.352 9  86578250.42549                  21143286.65649  21143283.836 9

 128326730.788 7  99994893.47846                  24419768.77746  24419763.023 7
  24419770.234 6
 16  1  1  2 20  0.0000000  0 10G16G20G26G29G05G27G31G18G21G25
 115277895.969 9  89826940.69549                  21936655.85949  21936653.664 9

 119029260.573 7  92750091.18448                  22650512.62948  22650509.695 7

 108010546.053 9  84164095.77949                  20553727.02349  20553720.602 9
  20553727.535 9
 114413468.888 9  89153370.89749                  21772158.56349  21772154.711 9
  21772158.895 8
 128525619.702 6 100149846.90246                  24457613.05946  24457610.805 6
  24457613.809 5
 128813549.205 6 100374217.86147                  24512410.34447  24512403.906 6
  24512410.953 7
 119581045.117 8  93180039.36149                  22755521.64149  22755517.914 8
  22755522.898 7
 127536563.245 5  99379165.09846                  24269406.09446  24269401.672 5

 111085879.435 9  86560442.21249                  21138937.75849  21138934.719 9

 128432640.519 6 100077420.62346                  24439922.93446  24439915.258 6
  24439924.023 6
 16  1  1  2 20 30.0000000  0 10G16G20G26G29G05G27G31G18G21G25
 115199919.313 9  89766179.67549                  21921817.96149  21921815.484 9

 118996777.875 7  92724779.97048                  22644331.42248  22644328.109 7

 107978023.445 9  84138753.49049                  20547538.07849  20547531.789 9
  20547538.477 9
 114485637.407 9  89209606.09849                  21785891.67649  21785887.859 9
  21785891.902 8
 128571464.775 7 100185570.38146                  24466336.49246  24466334.211 7
  24466337.133 5
 128720276.831 6 100301538.09546                  24494660.86746  24494653.867 6
  24494661.402 6
 119671179.222 8  93250273.74949                  22772673.83249  22772670.344 8
  22772674.785 8
 127448634.571 6  99310649.25246                  24252672.56346  24252669.844 6

 111063468.464 9  86542979.15749                  21134673.10249  21134669.867 9

 128538676.229 6 100160045.81246                  24460101.32446  24460093.211 6
  24460102.441 6
 16  1  1  2 21  0.0000000  0 10G16G20G26G29G05G27G31G18G21G25
 115122218.134 9  89705633.30449                  21907032.15649  21907029.422 9

 118964833.915 7  92699888.59848                  22638252.78548  22638250.453 7

 107945957.080 9  84113766.72449                  20541436.04749  20541429.492 9
  20541436.398 9
 114557989.628 9  89265984.45649                  21799659.91449  21799656.445 9
  21799660.691 8
 128617831.150 6 100221700.05946                  24475160.80546  24475157.773 6
  24475161.910 5
 128627084.058 6 100228920.35646                  24476926.39146  24476919.211 6
  24476927.227 6
 119761590.764 8  93320724.33549                  22789878.63349  22789875.148 8
  22789879.316 8
 127360764.118 6  99242178.78046                  24235951.35946  24235947.625 6

 111041500.848 9  86525861.56149                  21130492.73849  21130489.813 9

 128644836.510 6 100242768.15946                  24480301.71546  24480296.109 6
  24480303.305 6
 16  1  1  2 21 30.0000000  0 10G16G20G26G29G05G27G31G18G21G25
 115044794.855 9  89645303.49149                  21892299.23449  21892296.680 9

 118933430.408 7  92675418.36848                  22632276.85948  22632274.234 7

 107914348.556 9  84089136.71349                  20535421.07449  20535414.898 9
  20535421.574 9
 114630524.964 9  89322505.49949                  21813462.60549  21813459.336 9
  21813463.254 8
 128664717.321 6 100258234.70046                  24484083.10546  24484079.633 6
  24484083.813 6
 128533971.493 6 100156365.11346                  24459207.51646  24459201.570 6
  24459208.578 6
 119852276.656 8  93391388.68449                  22807135.40649  22807131.727 8
  22807136.188 7
 127272954.675 6  99173755.86046                  24219242.18046  24219237.867 6

 111019976.343 9  86509089.25149                  21126396.70749  21126394.141 9

 128751120.063 6 100325586.55846                  24500527.12146  24500521.828 6
  24500528.645 6
 16  1  1  2 22  0.0000000  0 10G16G20G26G29G05G27G31G18G21G25
 114967651.304 9  89585191.63449                  21877619.05149  21877616.039 9

 118902568.924 7  92651370.47048                  22626404.71948  22626401.469 7

 107883199.424 9  84064864.66649                  20529494.02349  20529487.367 9
  20529494.492 9
 114703242.175 9  89379168.25249                  21827300.53149  21827296.492 9
  21827300.992 8
 128712121.940 6 100295173.34146                  24493103.70346  24493099.984 6
  24493104.875 6
 128440939.940 6 100083873.07846                  24441505.02346  24441498.195 6
  24441505.316 6
 119943233.896 8  93462264.47749                  22824444.06349  22824439.906 8
  22824444.883 8
 127185208.799 6  99105382.48246                  24202545.29746  24202541.305 6

 110998895.390 9  86492662.57649                  21122385.37149  21122382.516 9

 128857525.492 6 100408499.90546                  24520775.94546  24520768.688 6
  24520776.988 6
 16  1  1  2 22 30.0000000  0 10G16G20G26G29G05G27G31G18G21G25
 114890789.318 9  89525299.18549                  21862992.81349  21862989.727 9

 118872251.038 7  92627746.15848                  22620635.35248  22620631.789 7

 107852511.219 9  84040951.78449                  20523653.67649  20523647.461 9
  20523653.973 9
 114776140.202 9  89435971.90349                  21841172.66049  21841168.891 9
  21841173.590 8
 128760043.656 6 100332514.87046                  24502223.33646  24502218.961 6
  24502224.289 6
 128347989.976 5 100011444.64046                  24423817.27346  24423809.766 5
  24423817.691 7
 120034460.235 8  93533349.94849                  22841804.03549  22841799.742 8
  22841804.938 8
 127097529.069 6  99037060.64346                  24185859.87546  24185856.273 6

 110978257.996 9  86476581.52049                  21118457.88349  21118455.328 9

 128964051.281 6 100491507.01046                  24541047.40246  24541039.875 6
  24541048.328 6
 16  1  1  2 23  0.0000000  0 10G16G20G26G29G05G27G31G18G21G25
 114814211.469 9  89465628.14849                  21848419.99249  21848417.555 9

 118842478.616 7  92604546.89448                  22614968.79748  22614966.336 7

 107822285.573 9  84017399.34349                  20517902.12149  20517895.891 9
  20517902.648 9
 114849218.576 9  89492916.08649                  21855078.65249  21855074.969 9
  21855079.289 8
 128808480.664 6 100370257.92346                  24511440.79746  24511436.680 6
  24511441.496 6
 128255122.129 6  99939080.21446                  24406143.60946  24406137.742 6
  24406144.418 6
 120125952.586 8  93604642.69849                  22859213.77349  22859210.172 8
  22859214.785 8
 127009918.262 6  98968792.44546                  24169187.20746  24169184.328 6

 110958063.969 9  86460845.95149                  21114614.87949  21114612.375 9

 129070696.199 6 100574606.96046                  24561340.67246  24561334.078 6
  24561341.531 5
 16  1  1  2 23 30.0000000  0 10G16G20G26G29G05G27G31G18G21G25
 114737919.486 9  89406179.85449                  21833902.43849  21833899.602 9

 118813252.722 8  92581773.48848                  22609407.94148  22609404.617 8

 107792523.785 9  83994208.33849                  20512238.91849  20512232.328 9
  20512238.953 9
 114922475.939 9  89549999.75349                  21869019.34449  21869015.672 9
  21869019.922 8
 128857431.344 7 100408401.26147                  24520755.58647  24520751.727 7
  24520755.980 6
 128162336.866 6  99866779.95947                  24388487.46947  24388480.914 6
  24388488.375 6
 120217708.112 8  93676140.52749                  22876674.89849  22876670.719 8
  22876675.883 7
 126922378.752 6  98900579.89246                  24152529.51246  24152525.758 6

 110938312.692 9  86445455.37649                  21110856.35249  21110854.023 9

 129177458.511 5 100657798.43146                  24581656.68046  24581650.266 5
  24581658.098 5
 16  1  1  2 24  0.0000000  0 10G16G20G26G29G05G27G31G18G21G25
 114661915.259 9  89346955.78749                  21819439.24249  21819436.805 9

 118784575.053 8  92559427.27048                  22603951.10248  22603947.523 8

 107763227.356 9  83971379.95849                  20506663.82449  20506657.078 9
  20506664.078 9
 114995911.263 9  89607222.08649                  21882994.05149  21882989.922 9
  21882994.559 8
 128906894.164 7 100446943.67347                  24530168.38347  24530165.383 7
  24530169.582 6
 128069634.836 6  99794544.68646                  24370847.58646  24370840.078 6
  24370848.133 7
 120309724.008 8  93747841.23649                  22894184.71149  22894180.977 8
  22894185.758 7
 126834913.374 6  98832425.06346                  24135886.34046  24135882.742 6

 110919004.279 9  86430409.88749                  21107182.30149  21107179.586 9

 129284336.891 6 100741080.24346                  24601995.11346  24601988.383 6
  24601996.141 5
 16  1  1  2 24 30.0000000  0 10G16G20G26G29G05G27G31G18G21G25
 114586201.330 9  89287957.93749                  21805031.61749  21805028.781 9

 118756447.277 8  92537509.52648                  22598598.06348  22598594.625 8

 107734397.912 9  83948915.46649                  20501177.85549  20501171.414 9
  20501178.277 9
 115069523.810 9  89664582.50049                  21897001.91849  21896997.719 9
  21897002.078 8
 128956867.915 7 100485884.21147                  24539677.76647  24539675.398 7
  24539678.492 5
 127977016.688 6  99722374.87047                  24353223.27347  24353215.195 6
  24353223.746 7
 120401997.610 8  93819742.76149                  22911743.88749  22911739.680 8
  22911744.758 7
 126747524.783 6  98764330.05446                  24119256.69946  24119252.508 6

 110900139.294 9  86415709.92549                  21103592.18849  21103589.352 9

 129391330.031 6 100824451.52846                  24622355.36746  24622350.219 6
  24622356.578 6
 16  1  1  2 25  0.0000000  0 10G16G20G26G29G05G27G31G18G21G25
 114510779.710 9  89229187.85149                  21790678.93449  21790676.641 9

 118728870.941 8  92516021.48748                  22593350.25448  22593347.273 8

 107706036.876 9  83926815.96049                  20495781.16049  20495774.430 9
  20495781.527 9
 115143312.371 9  89722080.08049                  21911043.15649  21911039.352 9
  21911043.785 8
 129007350.661 7 100525221.40646                  24549283.52346  24549281.281 7
  24549284.520 5
 127884482.877 7  99650270.64046                  24335613.00446  24335607.953 7
  24335613.711 6
 120494526.003 8  93891842.82149                  22929351.39849  22929347.406 8
  22929352.461 7
 126660215.390 6  98696296.78346                  24102641.46146  24102637.563 6

 110881716.803 9  86401354.76949                  21100086.36749  21100083.734 9

 129498436.322 5 100907911.04746                  24642737.10946  24642730.039 5
  24642738.301 5
 16  1  1  2 25 30.0000000  0 10G16G20G26G29G05G27G31G18G21G25
 114435652.036 9  89170646.81249                  21776383.40249  21776380.133 9

 118701847.592 8  92494964.34948                  22588208.16048  22588205.242 8

 107678145.578 9  83905082.49449                  20490473.16449  20490466.891 9
  20490473.516 9
 115217275.761 9  89779713.89249                  21925117.40649  21925114.563 9
  21925118.234 8
 129058340.768 6 100564953.95546                  24558986.03546  24558983.953 6
  24558987.301 5
 127792034.051 7  99578232.54646                  24318020.50846  24318015.109 7
  24318021.715 6
 120587306.292 7  93964139.15549                  22947006.94949  22947003.023 7
  22947007.871 7
 126572987.919 7  98628327.30746                  24086042.17646  24086038.977 7

 110863736.953 9  86387344.52249                  21096664.91049  21096662.719 9

 129605654.234 5 100991457.52346                  24663139.81346  24663131.570 5
  24663140.477 5
 16  1  1  2 26  0.0000000  0 10G16G20G26G29G05G27G31G18G21G25
 114360820.452 9  89112336.49549                  21762143.08649  21762140.328 9

 118675378.309 7  92474338.95448                  22583170.97748  22583168.555 7

 107650725.513 9  83883716.21749                  20485255.78549  20485249.055 9
  20485256.023 9
 115291413.395 9  89837483.47649                  21939225.44549  21939221.773 9
  21939226.133 8
 129109836.746 6 100605080.72345                  24568785.70745  24568782.664 6
  24568787.230 5
 127699670.673 6  99506261.23246                  24300445.31346  24300437.977 6
  24300445.832 7
 120680335.873 8  94036629.75749                  22964709.50049  22964705.531 8
  22964710.430 7
 126485845.072 7  98560423.79846                  24069460.16446  24069457.398 7

 110846199.322 9  86373678.86549                  21093327.41049  21093325.000 9

 129712982.422 6 101075089.81146                  24683563.61746  24683557.453 6
  24683564.480 6
 16  1  1  2 26 30.0000000  0 10G16G20G26G29G05G27G31G18G21G25
 114286287.224 9  89054258.66649                  21747959.65649  21747956.961 9

 118649464.657 7  92454146.50648                  22578239.93448  22578236.891 7

 107623778.251 9  83862718.36049                  20480127.62549  20480121.180 9
  20480127.820 9
 115365724.338 9  89895388.10649                  21953366.31649  21953363.180 9
  21953367.434 8
 129161836.859 6 100645600.22546                  24578682.34846  24578677.766 6
  24578683.281 6
 127607393.514 7  99434357.01647                  24282885.80947  24282879.227 7
  24282886.531 7
 120773611.801 8  94109312.31649                  22982460.21149  22982456.031 8
  22982460.867 7
 126398789.331 6  98492588.17346                  24052894.21946  24052889.547 6

 110829103.724 9  86360357.64049                  21090074.34849  21090071.773 9

 129820419.430 6 101158806.98946                  24704008.88346  24704001.563 6
  24704010.137 6
 16  1  1  2 27  0.0000000  0 10G16G20G26G29G05G27G31G18G21G25
 114212054.670 9  88996415.13249                  21733833.55949  21733830.977 9

 118624108.302 8  92434388.31848                  22573414.26248  22573411.711 8

 107597305.256 9  83842090.05249                  20475089.85949  20475083.563 9
  20475090.238 9
 115440207.929 8  89953427.25749                  21967540.66849  21967537.180 8
  21967541.258 8
 129214339.734 7 100686511.49246                  24588674.12146  24588669.852 7
  24588674.770 6
 127515203.371 7  99362520.62746                  24265341.77746  24265336.359 7
  24265342.582 6
 120867131.288 8  94182184.65149                  23000256.11349  23000252.070 8
  23000256.918 7
 126311823.356 6  98424822.49446                  24036344.52346  24036341.289 6

 110812451.011 9  86347381.53149                  21086905.37149  21086902.969 9

 129927963.920 5 101242607.91346                  24724473.72746  24724466.133 5
  24724474.965 6
 16  1  1  2 27 30.0000000  0 10G16G20G26G29G05G27G31G18G21G25
 114138124.611 9  88938807.28949                  21719765.16849  21719762.977 9

 118599310.548 8  92415065.41148                  22568695.32048  22568692.570 8

 107571307.892 9  83821832.37249                  20470142.60249  20470136.227 9
  20470143.137 9
 115514863.004 8  90011600.04649                  21981746.48049  21981743.195 8
  21981747.047 8
 129267343.473 7 100727813.02647                  24598760.32447  24598756.258 7
  24598760.363 6
 127423100.532 6  99290752.23246                  24247813.78146  24247807.875 6
  24247815.273 6
 120960891.293 8  94255244.41549                  23018097.84449  23018093.766 8
  23018098.535 8
 126224949.740 6  98357128.75447                  24019813.75847  24019810.195 6

 110796240.245 9  86334749.78749                  21083820.49649  21083818.352 9

 130035614.410 6 101326491.34446                  24744958.11346  24744952.500 6
  24744959.336 5
 16  1  1  2 28  0.0000000  0 10G16G20G26G29G05G27G31G18G21G25
 114064499.261 9  88881436.90349                  21705754.32049  21705752.039 9

 118575072.890 8  92396178.93948                  22564083.62948  22564081.039 8

 107545787.673 9  83801946.49149                  20465286.03549  20465279.813 9
  20465286.672 9
 115589688.108 9  90069905.32949                  21995985.26249  21995981.742 9
  21995986.230 8
 129320846.317 7 100769503.52447                  24608941.76647  24608937.953 7
  24608942.309 6
 127331085.786 7  99219052.51247                  24230305.81647  24230299.180 7
  24230306.273 7
 121054889.406 8  94328489.71249                  23035985.17249  23035980.828 8
  23035985.918 7
 126138171.212 6  98289509.14346                  24003300.10946  24003296.547 6

 110780471.322 9  86322462.34149                  21080819.96549  21080817.422 9

 130143369.374 6 101410456.34346                  24765463.74246  24765456.195 6
  24765464.699 5
 16  1  1  2 28 30.0000000  0 10G16G20G26G29G05G27G31G18G21G25
 113991180.348 9  88824305.28649                  21691802.12549  21691800.023 9

 118551396.272 8  92377729.63148                  22559578.07848  22559575.000 8

 107520745.515 9  83782433.12549                  20460520.77749  20460514.523 9
  20460521.113 9
 115664682.792 8  90128342.72849                  22010256.66049  22010252.633 8
  22010257.133 8
 129374846.232 7 100811581.31647                  24619217.60547  24619213.336 7
  24619218.238 6
 127239159.319 7  99147421.64547                  24212813.66847  24212806.602 7
  24212814.031 7
 121149122.449 8  94401918.07349                  23053916.43049  23053912.797 8
  23053917.461 7
 126051490.127 6  98221965.48546                  23986805.08646  23986801.383 6

 110765143.066 9  86310518.27049                  21077903.07449  21077900.383 9

 130251226.982 6 101494501.24846                  24785988.16446  24785982.688 6
  24785989.547 6
 16  1  1  2 29  0.0000000  0 10G16G20G26G29G05G27G31G18G21G25
 113918170.066 9  88767414.16349                  21677908.49249  21677906.609 9

 118528282.196 7  92359718.67548                  22555179.11348  22555176.367 7

 107496183.196 9  83763293.66049                  20455846.94149  20455840.672 9
  20455847.348 9
 115739846.266 8  90186911.67549                  22024559.95749  22024556.117 8
  22024560.051 8
 129429341.997 7 100854045.52746                  24629587.65246  24629584.250 7
  24629588.207 6
 127147322.094 6  99075860.32646                  24195336.53546  24195328.891 6
  24195336.902 7
 121243587.498 7  94475527.21649                  23071893.34449  23071888.984 7
  23071894.148 7
 125964909.471 6  98154500.03946                  23970329.61746  23970325.078 6

 110750256.361 9  86298918.26349                  21075070.47349  21075067.305 9

 130359186.154 5 101578625.31146                  24806531.98046  24806525.102 5
  24806533.176 6
 16  1  1  2 29 30.0000000  0 10G16G20G26G29G05G27G31G18G21G25
 113845470.814 9  88710765.39649                  21664074.48449  21664072.336 9

 118505732.284 7  92342147.33948                  22550888.10548  22550885.836 7

 107472102.324 9  83744529.34649                  20451264.69549  20451258.227 9
  20451264.820 9
 115815177.491 8  90245611.32449                  22038895.06349  22038890.961 8
  22038895.492 8
 129484331.997 6 100896894.89246                  24640050.64546  24640048.164 6
  24640051.141 5
 127055574.750 7  99004368.96547                  24177875.32847  24177870.461 7
  24177876.359 6
 121338282.114 7  94549315.25349                  23089912.65249  23089909.031 7
  23089913.469 7
 125878431.976 6  98087115.00446                  23953873.06346  23953870.000 6

 110735811.442 9  86287662.50749                  21072321.41849  21072319.195 9

 130467245.716 5 101662827.49846                  24827095.44946  24827089.000 5
  24827096.086 6
 16  1  1  2 30  0.0000000  0 10G16G20G26G29G05G27G31G18G21G25
 113773084.552 9  88654360.52649                  21650300.35949  21650297.734 9

 118483747.557 8  92325016.40048                  22546704.73048  22546701.875 8

 107448503.875 9  83726140.95149                  20446774.01649  20446767.445 9
  20446774.258 9
 115890675.471 8  90304440.92049                  22053261.77749  22053257.938 8
  22053262.242 8
 129539813.896 6 100940127.55045                  24650608.17245  24650604.867 6
  24650608.773 4
 126963917.731 7  98932947.99447                  24160435.28547  24160428.570 7
  24160435.758 7
 121433203.047 7  94623279.63249                  23107975.66849  23107971.453 7
  23107976.508 7
 125792059.782 6  98019811.99046                  23937437.10946  23937432.914 6

 110721806.797 9  86276749.82249                  21069656.32049  21069653.836 9

 130575403.553 6 101747106.45146                  24847676.28946  24847671.664 6
  24847677.777 6
 16  1  1  2 30 30.0000000  0 10G16G20G26G29G05G27G31G18G21G25
 113701013.052 9  88598200.91749                  21636585.49649  21636582.766 9

 118462329.425 7  92308326.95848                  22542629.30548  22542626.602 7

 107425389.493 9  83708129.74349                  20442375.70349  20442368.758 9
  20442375.918 9
 115966339.318 8  90363399.76349                  22067659.79349  22067656.055 8
  22067660.230 8
 129595786.341 6 100983742.40446                  24661260.03546  24661255.633 6
  24661260.535 5
 126872351.762 6  98861598.02047                  24143011.60247  24143004.305 6
  24143011.883 7
 121528347.830 7  94697418.42948                  23126081.08648  23126077.117 7
  23126082.020 7
 125705795.961 6  97952593.48447                  23921022.04747  23921017.844 6

 110708242.889 9  86266180.55849                  21067075.79749  21067072.539 9

 130683658.722 5 101831461.17045                  24868276.58645  24868269.477 5
  24868278.039 5
 16  1  1  2 31  0.0000000  0 10G16G20G26G29G05G27G31G18G21G25
 113629258.828 9  88542288.54349                  21622931.59049  21622928.867 9

 118441478.846 8  92292079.77048                  22538661.62148  22538658.734 8

 107402760.216 9  83690496.54649                  20438069.32849  20438062.477 9
  20438069.520 9
 116042168.068 8  90422487.10149                  22082089.57449  22082086.125 8
  22082090.527 8
 129652247.452 6 101027738.06546                  24672004.30946  24672000.063 6
  24672004.824 5
 126780877.174 7  98790319.28947                  24125604.54747  24125597.414 7
  24125604.727 7
 121623713.501 7  94771729.34449                  23144228.62149  23144224.844 7
  23144229.531 7
 125619642.629 7  97885461.03746                  23904627.34846  23904623.633 7

 110695118.889 9  86255954.08449                  21064577.67249  21064574.813 9

 130792009.40815 101915890.24256                  24888895.96546  24888887.852 5
  24888896.984 6
 16  1  1  2 31 30.0000000  0 10G16G20G26G29G05G27G31G18G21G25
 113557823.454 9  88486624.62549                  21609337.26249  21609334.758 9

 118421197.163 8  92276275.88848                  22534801.84048  22534798.773 8

 107380617.549 9  83673242.52449                  20433855.54349  20433849.031 9
  20433855.676 9
 116118160.836 8  90481702.25049                  22096550.51649  22096546.984 8
  22096551.156 8
 129709195.259 7 101072112.91447                  24682841.73847  24682838.188 7
  24682841.691 6
 126689494.871 7  98719112.37247                  24108213.77047  24108207.383 7
  24108214.883 7
 121719297.058 7  94846210.06149                  23162417.56349  23162413.398 7
  23162418.461 7
 125533602.863 7  97818417.08546                  23888253.98846  23888250.414 7

 110682434.874 9  86246070.45849                  21062163.91449  21062161.438 9

 130900454.157 6 102000392.63646                  24909532.32046  24909524.945 6
  24909532.523 6
 16  1  1  2 32  0.0000000  0 10G16G20G26G29G05G27G31G18G21G25
 113486709.536 9  88431211.18149                  21595804.62149  21595802.141 9

 118401485.533 7  92260916.18548                  22531051.45348  22531048.031 7

 107358962.791 9  83656368.69049                  20429734.66849  20429728.281 9
  20429734.762 9
 116194316.808 8  90541044.56949                  22111042.60249  22111038.031 8
  22111043.074 8
 129766627.980 6 101116865.59746                  24693771.53146  24693767.242 6
  24693771.203 6
 126598205.223 6  98647977.70147                  24090842.30147  24090834.555 6
  24090842.629 7
 121815095.772 7  94920858.43348                  23180647.16048  23180642.961 7
  23180648.012 7
 125447679.272 7  97751463.69446                  23871903.10546  23871899.711 7

 110670190.332 9  86236529.27349                  21059834.01249  21059831.492 9

 131008991.464 6 102084967.21246                  24930185.87546  24930179.953 6
  24930186.457 6
 16  1  1  2 32 30.0000000  0 10G16G20G26G29G05G27G31G18G21G25
 113415919.072 9  88376049.79549                  21582334.06349  21582331.367 9

 118382345.136 8  92246001.60548                  22527408.48848  22527405.930 8

 107337797.147 9  83639875.98849                  20425706.96949  20425700.656 9
  20425707.238 9
 116270635.153 8  90600513.40149                  22125565.72749  22125561.523 8
  22125566.336 8
 129824543.827 6 101161994.78747                  24704792.64547  24704786.922 6
  24704792.742 6
 126507008.808 7  98576915.71547                  24073488.46147  24073481.180 7
  24073488.637 7
 121911106.780 7  94995672.20548                  23198917.66048  23198913.539 7
  23198918.395 7
 125361874.343 7  97684602.76246                  23855575.45746  23855571.898 7

 110658385.029 9  86227330.35349                  21057587.44949  21057584.789 9

 131117619.974 5 102169612.89945                  24950857.17245  24950849.805 5
  24950858.066 5
 16  1  1  2 33  0.0000000  0 10G16G20G26G29G05G27G31G18G21G25
 113345454.385 9  88321142.25349                  21568924.81349  21568922.125 9

 118363777.394 8  92231533.25748                  22523875.14848  22523871.797 8

 107317122.221 9  83623765.65549                  20421772.32049  20421766.328 9
  20421772.793 9
 116347114.913 8  90660108.02749                  22140118.81649  22140114.930 8
  22140119.480 8
 129882940.968 6 101207499.04446                  24715905.00446  24715900.609 6
  24715905.133 6
 126415906.567 7  98505927.08047                  24056151.22347  24056145.508 7
  24056152.492 7
 122007327.272 7  95070649.21748                  23217227.50848  23217223.359 7
  23217228.629 7
 125276190.904 7  97617836.51847                  23839270.80147  23839266.711 7

 110647019.190 9  86218473.87149                  21055424.69149  21055422.063 9

 131226338.273 5 102254328.48546                  24971545.27746  24971538.781 5
  24971546.957 6
 16  1  1  2 33 30.0000000  0 10G16G20G26G29G05G27G31G18G21G25
 113275317.276 9  88266489.97949                  21555578.09049  21555575.688 9

 118345783.077 7  92217511.74648                  22520450.68448  22520448.148 7

 107296939.021 9  83608038.49249                  20417931.90649  20417925.742 9
  20417932.309 9
 116423755.026 8  90719827.59849                  22154703.16849  22154699.914 8
  22154703.859 8
 129941817.264 6 101253376.64246                  24727108.18846  24727103.578 6
  24727108.219 6
 126324898.852 7  98435012.05147                  24038833.09047  24038827.055 7
  24038833.898 7
 122103754.207 7  95145787.08748                  23235577.45348  23235573.039 7
  23235578.184 7
 125190631.375 7  97551166.81247                  23822988.63347  23822985.211 7

 110636091.675 9  86209958.93649                  21053345.00049  21053342.406 9

 131335144.679 6 102339112.66146                  24992251.32046  24992244.656 6
  24992252.117 6
 16  1  1  2 34  0.0000000  0 10G16G20G26G29G05G27G31G18G21G25
 113205509.537 9  88212094.34549                  21542294.38349  21542291.602 9

 118328363.183 8  92203937.82948                  22517136.13348  22517133.227 8

 107277248.831 9  83592695.49349                  20414185.01249  20414178.719 9
  20414185.348 9
 116500554.741 8  90779671.53849                  22169317.87949  22169314.406 8
  22169318.746 8
 130001171.013 7 101299626.34546                  24738401.64546  24738399.359 7
  24738402.422 5
 126233986.205 7  98364171.19247                  24021534.29347  24021526.414 7
  24021534.590 7
 122200384.882 7  95221083.73148                  23253965.13748  23253961.406 7
  23253966.391 7
 125105198.477 7  97484595.76447                  23806731.34447  23806727.555 7

 110625602.039 9  86201785.21849                  21051348.89149  21051346.094 9

 131444037.715 5 102423964.37645                  25012971.51245  25012965.578 5
  25012973.332 4
 16  1  1  2 34 30.0000000  0 10G16G20G26G29G05G27G31G18G21G25
 113136033.557 9  88157957.22849                  21529073.06349  21529071.242 9

 118311518.872 7  92190812.39948                  22513930.88748  22513927.898 7

 107258053.000 9  83577737.70149                  20410532.23849  20410525.695 9
  20410532.676 9
 116577513.136 8  90839639.11449                  22183962.43849  22183958.406 8
  22183962.844 8
 130061000.421 6 101346246.67146                  24749786.62946  24749783.906 6
  24749787.273 5
 126143169.316 7  98293404.90147                  24004252.58247  24004245.070 7
  24004252.063 7
 122297216.585 7  95296537.01648                  23272391.29348  23272387.195 7
  23272392.703 7
 125019894.996 7  97418125.56247                  23790498.56647  23790494.844 7

 110615550.422 9  86193952.80649                  21049436.35549  21049433.969 9

 131553015.968 5 102508882.53245                  25033708.98045  25033702.313 5
  25033710.965 5
 16  1  1  2 35  0.0000000  0 10G16G20G26G29G05G27G31G18G21G25
 113066891.400 9  88104080.23149                  21515915.92249  21515913.391 9

 118295251.816 8  92178136.78148                  22510835.55148  22510832.188 8

 107239352.915 9  83563166.21449                  20406974.02049  20406967.367 9
  20406974.191 9
 116654629.558 8  90899729.82749                  22198637.01249  22198633.281 8
  22198637.805 8
 130121303.450 6 101393236.02946                  24761262.85246  24761258.789 6
  24761263.414 5
 126052448.920 7  98222713.75347                  23986988.33247  23986981.570 7
  23986988.320 7
 122394246.454 7  95372144.71648                  23290855.35248  23290851.680 7
  23290856.930 7
 124934723.519 7  97351758.25847                  23774291.35247  23774287.219 7

 110605936.758 9  86186461.65649                  21047606.59049  21047604.195 9

 131662078.02715 102593865.98756                  25054464.06646  25054457.797 5
  25054465.363 6
 16  1  1  2 35 30.0000000  0 10G16G20G26G29G05G27G31G18G21G25
 112998085.200 9  88050465.01849                  21502822.58649  21502820.320 9

 118279562.301 8  92165911.21948                  22507849.97348  22507846.945 8

 107221149.556 9  83548981.78049                  20403510.08249  20403503.414 9
  20403510.246 9
 116731902.949 8  90959942.86749                  22213341.62149  22213338.305 8
  22213342.469 7
 130182078.079 6 101440592.80746                  24772828.83646  24772824.336 6
  24772829.301 5
 125961825.460 7  98152098.17047                  23969741.94947  23969735.727 7
  23969742.934 7
 122491471.407 8  95447904.43048                  23309356.73048  23309353.188 8
  23309357.887 7
 124849686.343 7  97285495.63047                  23758108.45347  23758104.859 7

 110596759.914 9  86179310.88649                  21045860.73049  21045858.117 9

 131771222.238 4 102678913.40645                  25075234.29745  25075226.398 4
  25075234.406 5
 16  1  1  2 36  0.0000000  0 10G16G20G26G29G05G27G31G18G21G25
 112929617.037 9  87997113.21649                  21489793.41449  21489791.383 9

 118264451.364 8  92154136.48448                  22504974.05548  22504970.984 8

 107203444.327 9  83535185.50049                  20400140.98049  20400134.250 9
  20400141.195 9
 116809332.591 8  91020277.66249                  22228075.85549  22228071.969 8
  22228076.617 8
 130243322.326 6 101488315.51546                  24784483.73446  24784478.992 6
  24784483.523 6
 125871299.658 7  98081558.66147                  23952516.03547  23952509.594 7
  23952516.730 7
 122588888.691 8  95523814.00448                  23327895.12548  23327891.578 8
  23327895.844 7
 124764786.424 7  97219339.88547                  23741952.15647  23741949.695 7

 110588019.794 9  86172500.41849                  21044197.13749  21044194.406 9

 131880447.201 1 102764023.82445                  25096019.30545  25096007.445 1
  25096019.398 5
 16  1  1  2 36 30.0000000  0 10G16G20G26G29G05G27G31G18G21G25
 112861489.092 9  87944026.51049                  21476829.07849  21476826.672 9

 118249920.107 8  92142813.44348                  22502208.55948  22502205.797 8

 107186238.226 9  83521778.15549                  20396866.51249  20396859.906 9
  20396866.930 9
 116886917.411 8  91080733.36849                  22242839.93849  22242836.148 8
  22242840.680 8
 130305034.201 6 101536402.63446                  24796227.01246  24796221.758 6
  24796226.891 6
 125780871.936 7  98011095.59747                  23935307.89147  23935301.445 7
  23935308.664 7
 122686495.250 8  95599871.06948                  23346468.74248  23346464.984 8
  23346469.313 7
 124680026.193 7  97153293.00546                  23725823.60246  23725820.477 7

 110579715.443 9  86166029.51449                  21042616.83249  21042614.547 9

 131989751.262 3 102849195.85745                  25116818.13745  25116810.352 3
  25116817.551 5
 16  1  1  2 37  0.0000000  0 10G16G20G26G29G05G27G31G18G21G25
 112793703.239 9  87891206.37449                  21463930.17249  21463927.523 9

 118235969.552 8  92131942.89848                  22499553.52748  22499551.281 8

 107169532.445 9  83508760.66749                  20393687.21549  20393680.898 9
  20393687.551 9
 116964656.466 8  91141309.25649                  22257633.76649  22257629.383 8
  22257634.664 7
 130367211.854 6 101584852.76046                  24808058.39146  24808054.500 6
  24808058.660 5
 125690542.999 7  97940709.50547                  23918119.29747  23918112.531 7
  23918119.555 7
 122784288.345 8  95676073.49248                  23365078.35248  23365074.617 8
  23365079.379 7
 124595408.426 7  97087357.14747                  23709721.43847  23709717.688 7

 110571846.926 9  86159898.22249                  21041119.62149  21041116.906 9

 132099132.751 5 102934428.22845                  25137632.99645  25137626.414 5
  25137633.676 6
 16  1  1  2 37 30.0000000  0 10G16G20G26G29G05G27G31G18G21G25
 112726261.758 9  87838654.57849                  21451096.35249  21451093.633 9

 118222600.553 7  92121525.51848                  22497009.89148  22497007.023 7

 107153328.275 9  83496134.04449                  20390603.54749  20390597.328 9
  20390604.000 9
 117042549.220 8  91202004.91149                  22272456.21549  22272452.125 8
  22272456.813 8
 130429853.436 6 101633664.41846                  24819978.57446  24819975.219 6
  24819978.480 5
 125600313.434 7  97870400.83947                  23900949.00447  23900942.336 7
  23900948.926 7
 122882265.087 7  95752419.00348                  23383722.87148  23383718.180 7
  23383723.988 7
 124510935.585 7  97021534.19447                  23693646.72747  23693643.117 7

 110564413.813 9  86154106.19849                  21039705.04749  21039702.773 9

 132208590.559 5 103019720.06645                  25158462.07845  25158454.422 5
  25158464.023 6
 16  1  1  2 38  0.0000000  0  9G16G20G26G29G05G27G31G18G21
 112659166.816 9  87786372.81749                  21438328.88749  21438326.063 9

 118209814.016 8  92111561.99048                  22494576.60948  22494573.992 8

 107137626.933 9  83483899.23449                  20387616.04749  20387609.578 9
  20387616.375 9
 117120594.669 8  91262819.55549                  22287307.26249  22287303.734 8
  22287308.148 8
 130492956.462 6 101682835.61146                  24831986.87946  24831982.898 6
  24831986.688 5
 125510184.009 7  97800170.24547                  23883796.73047  23883791.328 7
  23883797.688 7
 122980422.898 8  95828905.61648                  23402401.18048  23402397.953 8
  23402402.492 7
 124426610.462 7  96955826.31647                  23677599.82847  23677595.680 7

 110557415.686 9  86148653.12849                  21038373.23049  21038370.867 9

 16  1  1  2 38 30.0000000  0 10G16G20G26G29G05G27G31G18G21G25
 112592420.089 9  87734362.38649                  21425627.10949  21425624.375 9

 118197610.677 7  92102052.93148                  22492255.06648  22492251.469 7

 107122429.488 9  83472057.07249                  20384723.80949  20384717.625 9
  20384724.418 9
 117198791.930 8  91323752.49249                  22302187.61749  22302184.219 8
  22302188.324 7
 130556519.192 6 101732364.96346                  24844082.03546  24844078.211 6
  24844082.871 6
 125420155.194 7  97730017.99047                  23866664.52047  23866659.570 7
  23866665.762 7
 123078758.646 8  95905530.87748                  23421114.20348  23421110.633 8
  23421114.711 7
 124342435.535 7  96890235.50247                  23661581.78147  23661577.852 7

 110550851.670 9  86143538.32949                  21037124.14549  21037121.805 9

 132427730.57114 103190479.04555                  25200162.18845  25200154.531 4
  25200163.578 5
 16  1  1  2 39  0.0000000  0 10G16G20G26G29G05G27G31G18G21G25
 112526024.038 9  87682625.21449                  21412992.64549  21412989.773 9

 118185991.665 8  92092999.17548                  22490043.41448  22490040.250 8

 107107737.173 9  83460608.52049                  20381927.95349  20381921.633 9
  20381928.242 9
 117277140.044 8  91384802.97649                  22317096.51249  22317093.164 8
  22317097.137 7
 130620539.746 5 101782251.01346                  24856265.24646  24856260.367 5
  24856265.844 6
 125330227.709 7  97659944.69147                  23849552.79747  23849546.523 7
  23849553.613 7
 123177269.367 8  95982292.49048                  23439860.11348  23439856.555 8
  23439860.961 7
 124258413.650 7  96824763.96547                  23645593.10247  23645589.031 7

 110544721.612 9  86138761.67249                  21035957.68449  21035955.570 9

 132537407.806 5 103275941.87646                  25221034.82446  25221026.625 5
  25221036.578 6
 16  1  1  2 39 30.0000000  0 10G16G20G26G29G05G27G31G18G21G25
 112459980.698 9  87631162.87749                  21400424.75849  21400422.234 9

 118174957.569 7  92084401.17748                  22487943.74248  22487940.516 7

 107093551.026 9  83449554.38549                  20379228.50449  20379221.914 9
  20379228.742 9
 117355638.625 8  91445970.69449                  22332035.00449  22332030.930 8
  22332035.469 7
 130685015.730 6 101832492.02446                  24868534.00446  24868531.352 6
  24868534.895 5
 125240402.114 7  97589950.80147                  23832458.66847  23832453.320 7
  23832459.551 7
 123275952.529 8  96059188.46948                  23458638.91448  23458635.344 8
  23458639.504 7
 124174547.227 7  96759413.58347                  23629634.58247  23629629.273 7

 110539024.994 9  86134322.76849                  21034873.67649  21034871.414 9

 132647155.125 5 103361459.46345                  25241917.82445  25241912.922 5
  25241917.398 5
 16  1  1  2 40  0.0000000  0 10G16G20G26G29G05G27G31G18G21G25
 112394291.920 9  87579976.82449                  21387924.69149  21387922.180 9

 118164509.537 8  92076259.88448                  22485955.71948  22485952.555 8

 107079872.293 9  83438895.63749                  20376625.65249  20376619.258 9
  20376625.973 9
 117434286.623 8  91507254.84449                  22347000.86749  22346996.930 8
  22347001.770 8
 130749945.294 7 101883086.53146                  24880890.44946  24880886.000 7
  24880891.160 6
 125150679.203 7  97520036.93947                  23815385.32447  23815379.563 7
  23815385.785 7
 123374805.078 8  96136216.43848                  23477449.53548  23477445.656 8
  23477450.703 7
 124090839.075 7  96694186.48947                  23613704.58647  23613700.563 7

 110533761.435 9  86130221.31049                  21033872.41449  21033869.719 9

 132756971.39815 103447030.50256                  25262814.73446  25262809.664 5
  25262817.109 7
 16  1  1  2 40 30.0000000  0 10G16G20G26G29G05G27G31G18G21G25
 112328959.710 9  87529068.61449                  21375492.43849  21375489.891 9

 118154648.221 7  92068575.76448                  22484079.05948  22484075.781 7

 107066701.927 9  83428633.01949                  20374119.30149  20374113.016 9
  20374119.563 9
 117513083.130 8  91568654.71249                  22361995.40649  22361991.531 8
  22361996.215 7
 130815326.303 7 101934032.76446                  24893330.68446  24893328.250 7
  24893332.441 5
 125061059.289 7  97450203.31847                  23798331.16447  23798325.406 7
  23798331.672 7
 123473823.920 7  96213373.98348                  23496292.17648  23496288.852 7
  23496293.293 7
 124007291.857 7  96629084.78647                  23597805.16847  23597802.133 7

 110528930.038 9  86126456.59149                  21032952.82049  21032950.125 9

 132866854.505 5 103532653.76846                  25283725.34846  25283717.086 5
  25283726.035 6
 16  1  1  2 41  0.0000000  0 10G16G20G26G29G05G27G31G18G21G25
 112263986.714 9  87478440.31149                  21363128.20349  21363125.469 9

 118145373.855 8  92061348.99348                  22482313.67648  22482310.922 8

 107054040.792 9  83418767.21349                  20371710.06649  20371703.586 9
  20371710.691 9
 117592027.072 8  91630169.47449                  22377017.95349  22377014.266 8
  22377018.770 7
 130881156.517 7 101985329.07746                  24905858.18846  24905855.023 7
  24905858.930 5
 124971542.880 7  97380450.33447                  23781296.37947  23781290.648 7
  23781297.445 7
 123573006.518 7  96290659.12948                  23515165.69148  23515162.492 7
  23515166.730 7
 123923907.773 7  96564110.22247                  23581938.54347  23581935.422 7

 110524529.932 9  86123027.95849                  21032115.32049  21032112.906 9

 132976802.929 4 103618327.99945                  25304646.70745  25304639.992 4
  25304647.469 5
 16  1  1  2 41 30.0000000  0 10G16G20G26G29G05G27G31G18G21G25
 112199374.852 9  87428093.42349                  21350832.73049  21350830.078 9

 118136687.353 7  92054580.31648                  22480661.22748  22480657.930 7

 107041890.287 9  83409299.28949                  20369397.80149  20369391.352 9
  20369398.305 9
 117671118.093 8  91691798.84049                  22392068.30949  22392064.984 8
  22392069.031 7
 130947433.959 6 102036973.89745                  24918469.29745  24918467.883 6
  24918470.598 5
 124882130.977 7  97310778.78547                  23764281.53547  23764276.016 7
  23764282.426 7
 123672350.038 7  96368069.67448                  23534070.35248  23534067.063 7
  23534071.504 7
 123840689.794 7  96499265.06947                  23566102.84447  23566100.336 7

 110520561.142 9  86119935.40149                  21031360.21149  21031357.781 9

 133086815.449 5 103704052.14145                  25325581.05145  25325576.547 5
  25325583.176 6
 16  1  1  2 42  0.0000000  0 10G16G20G26G29G05G27G31G18G21G25
 112135126.026 9  87378029.41149                  21338606.54749  21338604.250 9

 118128589.895 8  92048270.62648                  22479119.94948  22479117.469 8

 107030251.369 9  83400230.00249                  20367183.31649  20367176.727 9
  20367183.883 9
 117750355.207 8  91753542.04549                  22407146.69149  22407143.305 8
  22407147.586 7
 131014156.487 6 102088965.48746                  24931167.16046  24931164.523 6
  24931168.066 5
 124792824.045 7  97241189.06747                  23747287.10247  23747282.602 7
  23747288.156 7
 123771851.355 7  96445603.16947                  23553005.13347  23553001.273 7
  23553006.422 7
 123757640.658 7  96434551.48847                  23550298.90647  23550295.195 7

 110517022.945 9  86117178.37549                  21030687.13749  21030684.602 9

 133196890.70514 103789824.88755                  25346528.78545  25346521.164 4
  25346528.625 5
 16  1  1  2 42 30.0000000  0 10G16G20G26G29G05G27G31G18G21G25
 112071242.144 9  87328249.77449                  21326450.17649  21326447.852 9

 118121081.759 7  92042420.15048                  22477691.04348  22477688.445 7

 107019125.085 9  83391560.17149                  20365065.41849  20365059.477 9
  20365065.871 9
 117829737.648 9  91815398.48649                  22422252.61349  22422248.977 9
  22422253.227 7
 131081321.829 6 102141302.13646                  24943949.55546  24943944.266 6
  24943949.332 6
 124703622.771 7  97171681.65747                  23730312.46947  23730307.672 7
  23730313.277 7
 123871507.762 8  96523257.51548                  23571968.34848  23571965.016 8
  23571969.352 7
 123674762.773 7  96369971.35747                  23534527.14147  23534523.906 7

 110513914.972 9  86114756.58849                  21030095.71949  21030092.633 9

 133307026.60315 103875645.44755                  25367486.00445  25367479.125 5
  25367487.289 5
 16  1  1  2 43  0.0000000  0  9G16G20G26G29G05G27G31G18G21
 112007725.671 9  87278756.42549                  21314363.59449  21314360.836 9

 118114163.943 8  92037029.65648                  22476374.46548  22476371.844 8

 107008512.600 9  83383290.71149                  20363045.81649  20363039.969 9
  20363046.430 9
 117909264.760 9  91877367.65949                  22437385.99249  22437382.359 9
  22437386.828 7
 131148927.923 6 102193982.13646                  24956814.75446  24956810.453 6
  24956814.566 6
 124614527.898 7  97102257.13747                  23713358.63747  23713352.914 7
  23713359.188 7
 123971316.403 7  96601030.50048                  23590962.18448  23590958.289 7
  23590963.020 7
 123592058.964 7  96305526.87947                  23518789.55547  23518786.438 7

 110511236.538 9  86112669.51249                  21029585.64549  21029583.313 9

 16  1  1  2 43 30.0000000  0  9G16G20G26G29G05G27G31G18G21
 111944578.889 9  87229551.15049                  21302346.96549  21302344.695 9

 118107836.886 7  92032099.50148                  22475170.76248  22475167.906 7

 106998414.930 9  83375422.39549                  20361124.70749  20361118.055 9
  20361125.270 9
 117988935.331 8  91939448.63449                  22452546.85949  22452543.227 8
  22452548.012 7
 131216972.816 7 102247004.11646                  24969762.30146  24969760.063 7
  24969763.172 5
 124525540.064 6  97032916.02947                  23696424.69547  23696418.656 6
  23696425.789 7
 124071274.642 8  96678920.03748                  23609983.43448  23609980.680 8
  23609984.547 7
 123509531.717 7  96241219.97547                  23503085.68047  23503082.125 7

 110508987.291 9  86110916.86049                  21029157.19149  21029155.195 9

 16  1  1  2 44  0.0000000  0  9G16G20G26G29G05G27G31G18G21
 111881803.325 9  87180635.12949                  21290401.58649  21290398.680 9

 118102101.160 7  92027630.12248                  22474079.16848  22474076.500 7

 106988832.772 9  83367955.78649                  20359301.26649  20359294.922 9
  20359301.918 9
 118068748.782 8  92001640.93649                  22467735.03149  22467731.445 8
  22467735.375 7
 131285453.918 6 102300365.97846                  24982794.05546  24982790.227 6
  24982794.387 5
 124436659.519 6  96963658.53447                  23679511.10247  23679505.273 6
  23679511.945 7
 124171379.265 8  96756923.65948                  23629032.82448  23629029.398 8
  23629033.590 7
 123427183.533 7  96177052.61547                  23487414.93847  23487411.508 7

 110507166.121 9  86109497.77749                  21028811.04349  21028808.500 9

 16  1  1  2 44 30.0000000  0  9G16G20G26G29G05G27G31G18G21
 111819401.141 9  87132010.05849                  21278526.32849  21278523.969 9

 118096957.129 7  92023621.79948                  22473100.23448  22473097.484 7

 106979767.103 9  83360891.63649                  20357575.84049  20357569.320 9
  20357576.180 9
 118148704.120 8  92063943.79749                  22482950.60949  22482946.258 8
  22482950.816 7
 131354369.119 6 102354066.13045                  24995907.39545  24995903.711 6
  24995908.004 4
 124347886.982 6  96894485.21247                  23662618.75047  23662612.070 6
  23662619.113 7
 124271627.456 8  96835039.15448                  23648109.25848  23648105.945 8
  23648110.215 7
 123345016.935 7  96113026.70547                  23471778.84447  23471775.773 7

 110505772.079 8  86108411.52949                  21028545.89149  21028543.508 8

 16  1  1  2 45  0.0000000  0  9G16G20G26G29G05G27G31G18G21
 111757374.082 9  87083677.29949                  21266723.18049  21266720.438 9

 118092405.371 7  92020074.98248                  22472233.92248  22472231.180 7

 106971218.993 9  83354230.77749                  20355949.45749  20355943.063 9
  20355949.980 9
 118228800.786 8  92126356.77149                  22498192.76249  22498187.734 8
  22498192.988 7
 131423716.526 5 102408103.04545                  25009104.37945  25009100.180 5
  25009104.613 5
 124259223.232 7  96825396.62248                  23645747.21548  23645741.063 7
  23645747.617 7
 124372016.402 7  96913264.31248                  23667212.58648  23667208.727 7
  23667213.477 7
 123263034.820 7  96049144.54347                  23456178.28147  23456174.938 7

 110504805.273 9  86107658.17949                  21028361.93849  21028359.297 9

 16  1  1  2 45 30.0000000  0  9G16G20G26G29G05G27G31G18G21
 111695724.976 9  87035639.04449                  21254991.99649  21254989.008 9

 118088446.762 7  92016990.37048                  22471480.60948  22471478.086 7

 106963189.600 9  83347974.10949                  20354421.35949  20354415.203 9
  20354421.664 9
 118309038.189 7  92188879.41449                  22513460.77749  22513456.398 7
  22513460.980 7
 131493493.835 5 102462474.96146                  25022383.00846  25022378.758 5
  25022383.313 4
 124170669.098 6  96756393.48147                  23628894.93847  23628888.688 6
  23628895.637 7
 124472543.207 7  96991596.88247                  23686342.61347  23686338.289 7
  23686343.488 7
 123181239.575 7  95985408.03447                  23440613.30947  23440609.609 7

 110504265.041 9  86107237.23349                  21028259.03149  21028256.352 9

 16  1  1  2 46  0.0000000  0  9G16G20G26G29G05G27G31G18G21
 111634455.167 9  86987896.33349                  21243332.27349  21243329.828 9

 118085081.579 7  92014368.16848                  22470840.37548  22470837.742 7

 106955679.701 9  83342122.24949                  20352992.47749  20352985.922 9
  20352992.855 9
 118389415.195 8  92251510.85549                  22528755.76249  22528751.703 8
  22528756.707 7
 131563698.738 6 102517180.09746                  25035742.35546  25035738.828 6
  25035743.273 5
 124082225.009 6  96687476.08047                  23612064.55147  23612058.492 6
  23612064.895 7
 124573205.083 7  97070034.70848                  23705497.18848  23705493.578 7
  23705498.281 7
 123099633.834 7  95921819.16247                  23425084.30147  23425080.844 7

 110504150.531 9  86107148.01849                  21028236.86749  21028234.445 9

 16  1  1  2 46 30.0000000  0  9G16G20G26G29G05G27G31G18G21
 111573567.362 9  86940451.29649                  21231746.00049  21231743.344 9

 118082310.176 7  92012208.65648                  22470313.26648  22470310.625 7

 106948690.199 9  83336675.88649                  20351662.15249  20351656.008 9
  20351662.598 9
 118469931.181 8  92314250.59249                  22544077.24649  22544073.695 8
  22544078.219 7
 131634329.228 6 102572216.78946                  25049183.24646  25049178.203 6
  25049183.109 6
 123993891.627 7  96618644.89147                  23595254.50847  23595249.609 7
  23595255.430 7
 124673999.056 7  97148575.47848                  23724678.16048  23724674.844 7
  23724679.301 7
 123018220.567 7  95858380.27247                  23409591.78547  23409587.992 7

 110504461.154 9  86107390.07149                  21028296.23449  21028293.906 9

 16  1  1  2 47  0.0000000  0  9G16G20G26G29G05G27G31G18G21
 111513063.050 9  86893305.08349                  21220232.14149  21220229.578 9

 118080133.171 7  92010512.29248                  22469898.78148  22469895.781 7

 106942221.834 9  83331635.61249                  20350431.54749  20350425.016 9
  20350432.090 9
 118550585.098 8  92377097.80249                  22559425.67249  22559421.477 8
  22559426.195 7
 131705382.496 5 102627582.94945                  25062704.30545  25062699.391 5
  25062704.480 5
 123905669.355 7  96549900.34447                  23578467.49247  23578461.172 7
  23578468.199 7
 124774922.374 8  97227217.02448                  23743883.22348  23743879.664 8
  23743883.938 7
 122937001.720 7  95795092.86847                  23394136.28947  23394133.164 7

 110505195.722 8  86107962.47149                  21028436.05949  21028433.719 8

 16  1  1  2 47 30.0000000  0  9G16G20G26G29G05G27G31G18G21
 111452944.738 9  86846459.65149                  21208792.48049  21208789.641 9

 118078550.907 7  92009279.35848                  22469598.29748  22469595.023 7

 106936275.648 9  83327002.21649                  20349300.05549  20349293.664 9
  20349300.328 9
 118631376.364 8  92440052.02949                  22574800.33649  22574795.922 8
  22574800.543 7
 131776856.769 5 102683277.14845                  25076303.89845  25076300.039 5
  25076304.730 5
 123817559.163 7  96481243.11747                  23561700.18847  23561693.961 7
  23561700.273 7
 124875972.084 7  97305957.06348                  23763111.70748  23763108.398 7
  23763112.707 7
 122855980.254 7  95731959.28647                  23378718.67647  23378715.258 7

 110506353.980 8  86108865.02349                  21028656.22749  21028653.977 8

 16  1  1  2 48  0.0000000  0  9G16G20G26G29G05G27G31G18G21
 111393214.157 9  86799916.35249                  21197425.92249  21197423.172 9

 118077563.590 7  92008510.02548                  22469410.39848  22469406.578 7

 106930852.356 9  83322776.28249                  20348268.12949  20348261.266 9
  20348268.598 9
 118712304.101 8  92503112.59649                  22590199.83249  22590195.523 8
  22590200.375 7
 131848749.340 6 102739297.30746                  25089984.98046  25089982.313 6
  25089985.797 5
 123729561.376 7  96412673.45747                  23544954.22747  23544948.727 7
  23544955.496 7
 124977145.340 8  97384793.39148                  23782364.84848  23782362.156 8
  23782365.520 6
 122775158.577 7  95668981.38947                  23363338.93047  23363335.438 7

 110507934.674 8  86110096.74549                  21028957.44149  21028954.859 8

 16  1  1  2 48 30.0000000  0  9G16G20G26G29G05G27G31G18G21
 111333873.820 9  86753677.13349                  21186133.66849  21186131.195 9

 118077172.123 8  92008204.99848                  22469335.87548  22469332.453 8

 106925953.320 9  83318958.86049                  20347335.81349  20347329.133 9
  20347336.297 9
 118793367.918 8  92566279.19749                  22605625.70749  22605621.930 8
  22605626.285 7
 131921058.458 7 102795642.17446                  25103746.09446  25103742.539 7
  25103746.574 5
 123641677.266 7  96344192.39848                  23528230.68848  23528225.211 7
  23528231.129 7
 125078439.496 7  97463723.90347                  23801640.96547  23801636.695 7
  23801641.633 6
 122694539.578 7  95606161.40847                  23347997.49647  23347993.695 7

 110509938.514 9  86111658.19149                  21029338.59049  21029336.414 9

 16  1  1  2 49  0.0000000  0  9G16G20G26G29G05G27G31G18G21
 111274925.372 9  86707743.28849                  21174916.18849  21174913.453 9

 118077376.561 7  92008364.31948                  22469374.25848  22469371.852 7

 106921578.853 9  83315550.18549                  20346502.99249  20346496.773 9
  20346503.488 9
 118874566.809 8  92629551.06449                  22621077.30149  22621073.648 8
  22621078.105 7
 131993781.605 6 102852309.67546                  25117584.08246  25117579.664 6
  25117584.578 5
 123553906.906 7  96275799.95948                  23511527.83648  23511522.367 7
  23511528.805 7
 125179851.500 7  97542746.26447                  23820938.25047  23820935.133 7
  23820939.020 6
 122614125.661 8  95543501.22447                  23332695.14847  23332692.211 8

 110512363.731 8  86113547.98349                  21029799.89549  21029797.273 8

